~Version
 VERS              .         2.0                           : CWLS LOG ASCII STANDARD - VERSION 2.0
 WRAP              .         NO                            : ONE LINE PER DEPTH STEP
 DLM               .         SPACE                         : DELIMITING CHARACTER(SPACE TAB OR COMMA)
~Well Information
#_______________________________________________________________________________
#
#PARAMETER_NAME    .UNIT     VALUE                         : DESCRIPTION
#_______________________________________________________________________________
STRT               .m        936                           : First reference value
STOP               .m        2781                          : Last reference value
STEP               .m        0.2                           : Step increment
NULL               .         -9999                         : Missing value
COMP               .         PETROLEO BRASILEIRO S/A       : Company
WELL               .         1-ESS-37C-ES                  : Well name
FLD                .                                       : Field
LOC                .                                       : Location
CNTY               .                                       : County
STAT               .         ESPIRITO SANTO                : State
CTRY               .                                       : Country
SRVC               .                                       : Service Company
DATE               .                                       : Date
API                .         342710046100                  : API number
EDF                .M        24.00                         : Elevation Derrick Floor
GDAT               .         SIRGAS2000                    : Geodetic Datum
HZCS               .         UTM                           : Horizontal Coordinate System
LMF                .         MR                            : Log Measure From
LATI               .         -19_40_21.926                 : Latitude
LONG               .         -39_28_20.370                 : Longitude
MC                 .         39 W                          : Meridiano Central
ORIG               .         SIGEO EXPORTACAO PERFIL       : Origem dos dados
ORIGINALWELLNAME   .         1ESS 0037C ES                 : 
WDMS               .M        64.00                         : Water Depth to Mean Sea Level
X                  .         450490.60                     : Surface X
Y                  .         7824661.98                    : Surface Y
~Parameter Information Block
#_______________________________________________________________________________
#
#PARAMETER_NAME    .UNIT     VALUE                         : DESCRIPTION
#_______________________________________________________________________________
SET                .         37C_AchillesBR                : 
TLFamily_Densidade_Aparente_Seca .         Bulk Density                  : 
TLFamily_Fração_de_Areia .                                       : 
TLFamily_Idade     .                                       : 
TLFamily_MD        .         Measured Depth                : 
TLFamily_Paleobatimetria_1 .                                       : 
TLFamily_Paleobatimetria_2 .                                       : 
TLFamily_Produtividade_Primária_1 .                                       : 
TLFamily_Produtividade_Primária_2 .                                       : 
TLFamily_Taxa_de_Sedimentação .                                       : 
~Curve Information
#_______________________________________________________________________________
#
#LOGNAME           .UNIT     LOG_ID                        : DESCRIPTION
#_______________________________________________________________________________
MD                 .m                                      :  
Densidade Aparente Seca .g/cm3                                  :  
Fração de Areia    .%                                      :  
Idade              .                                       : [Ma] 
Paleobatimetria_1  .m                                      :  
Paleobatimetria_2  .m                                      :  
Produtividade Primária_1 .                                       : [gC/m²/yr] 
Produtividade Primária_2 .                                       : [gC/m²/yr]  
Taxa de Sedimentação .                                       : [cm/ka] 
~Ascii
# ...
1421.2     -9999      96.71333   24.82343   573.9398   -9999      181.302    -9999      9.937365  
1421.4     -9999      96.84617   24.82477   574.0699   -9999      181.2868   -9999      10.60921  
1421.6     -9999      96.6731    24.82611   574.2001   -9999      181.2716   -9999      11.28106  
1421.8     -9999      96.59254   24.82744   574.3303   -9999      181.2565   -9999      11.9529   
1422       -9999      96.40012   24.82878   574.4604   -9999      181.2413   -9999      12.62475  
1422.2     -9999      96.29009   24.83011   574.5906   -9999      181.2262   -9999      13.2966   
1422.4     -9999      96.33054   24.83145   574.7208   -9999      181.211    -9999      13.96844  
1422.6     -9999      96.41908   24.83278   574.8509   -9999      181.1958   -9999      14.64029  
1422.8     -9999      96.36539   24.83412   574.9811   -9999      181.1807   -9999      14.97621  
1423       -9999      96.59602   24.83545   575.1113   -9999      181.1656   -9999      14.97621  
1423.2     -9999      96.84036   24.83679   575.2414   -9999      181.1504   -9999      14.97621  
1423.4     -9999      97.12693   24.83813   575.3716   -9999      181.1353   -9999      14.97621  
1423.6     -9999      97.2479    24.83946   575.5017   -9999      181.1202   -9999      14.97621  
1423.8     -9999      97.22285   24.8408    575.6319   -9999      181.1051   -9999      14.9762   
1424       -9999      97.18517   24.84213   575.7621   -9999      181.09     -9999      14.9762   
1424.2     -9999      97.21413   24.84347   575.8922   -9999      181.0748   -9999      14.9762   
1424.4     -9999      97.31532   24.8448    576.0224   -9999      181.0597   -9999      14.9762   
1424.6     -9999      97.12      24.84614   576.1525   -9999      181.0446   -9999      14.9762   
1424.8     -9999      96.92427   24.84747   576.2827   -9999      181.0296   -9999      14.9762   
1425       -9999      97.34393   24.84881   576.4129   -9999      181.0145   -9999      14.9762   
1425.2     -9999      97.84804   24.85014   576.543    -9999      180.9994   -9999      14.9762   
1425.4     -9999      98.00135   24.85148   576.6732   -9999      180.9843   -9999      14.97621  
1425.6     -9999      98.10629   24.85282   576.8033   -9999      180.9692   -9999      14.97621  
1425.8     -9999      98.06435   24.85415   576.9335   -9999      180.9541   -9999      14.97621  
1426       -9999      97.70358   24.85549   577.0637   -9999      180.9391   -9999      14.97621  
1426.2     -9999      97.37556   24.85682   577.1938   -9999      180.924    -9999      14.97621  
1426.4     -9999      97.30157   24.85816   577.324    -9999      180.909    -9999      14.97621  
1426.6     -9999      97.45205   24.85949   577.4542   -9999      180.8939   -9999      14.97621  
1426.8     -9999      97.66808   24.86083   577.5844   -9999      180.8789   -9999      14.97621  
1427       -9999      97.51704   24.86216   577.7145   -9999      180.8638   -9999      14.97621  
1427.2     -9999      97.3906    24.8635    577.8447   -9999      180.8488   -9999      14.97621  
1427.4     -9999      97.30804   24.86483   577.9749   -9999      180.8337   -9999      14.9762   
1427.6     -9999      97.19356   24.86617   578.105    -9999      180.8187   -9999      14.9762   
1427.8     -9999      96.99841   24.8675    578.2352   -9999      180.8037   -9999      14.9762   
1428       -9999      97.00546   24.86884   578.3654   -9999      180.7887   -9999      14.9762   
1428.2     -9999      97.09267   24.87018   578.4955   -9999      180.7737   -9999      14.9762   
1428.4     -9999      96.97607   24.87151   578.6257   -9999      180.7587   -9999      14.9762   
1428.6     -9999      96.80692   24.87285   578.7558   -9999      180.7436   -9999      14.9762   
1428.8     -9999      96.7795    24.87418   578.886    -9999      180.7286   -9999      14.9762   
1429       -9999      96.92636   24.87552   579.0162   -9999      180.7136   -9999      14.97621  
1429.2     -9999      97.00872   24.87685   579.1463   -9999      180.6987   -9999      14.97621  
1429.4     -9999      96.66051   24.87819   579.2765   -9999      180.6837   -9999      14.97621  
1429.6     -9999      96.31609   24.87952   579.4066   -9999      180.6687   -9999      14.97621  
1429.8     -9999      95.9971    24.88086   579.5368   -9999      180.6537   -9999      14.97621  
1430       -9999      95.77059   24.88219   579.6669   -9999      180.6387   -9999      14.97621  
1430.2     -9999      95.56271   24.88353   579.7971   -9999      180.6237   -9999      14.97621  
1430.4     -9999      95.4987    24.88487   579.9273   -9999      180.6088   -9999      14.97621  
1430.6     -9999      95.04571   24.8862    580.0574   -9999      180.5938   -9999      14.97621  
1430.8     -9999      94.59751   24.88754   580.1876   -9999      180.5789   -9999      14.97621  
1431       -9999      94.53669   24.88887   580.3177   -9999      180.5639   -9999      14.97621  
1431.2     -9999      94.91972   24.89021   580.4479   -9999      180.549    -9999      14.97621  
1431.4     -9999      95.2577    24.89154   580.5781   -9999      180.534    -9999      14.97621  
1431.6     -9999      95.58656   24.89288   580.7083   -9999      180.5191   -9999      14.97621  
1431.8     -9999      95.66517   24.89421   580.8384   -9999      180.5042   -9999      14.97621  
1432       -9999      95.73015   24.89555   580.9686   -9999      180.4892   -9999      14.97621  
1432.2     -9999      95.7635    24.89688   581.0988   -9999      180.4743   -9999      14.97621  
1432.4     -9999      96.24094   24.89822   581.2289   -9999      180.4594   -9999      14.97621  
1432.6     -9999      96.65963   24.89956   581.3591   -9999      180.4445   -9999      14.97621  
1432.8     -9999      96.8166    24.90089   581.4893   -9999      180.4296   -9999      14.9762   
1433       -9999      96.98327   24.90223   581.6194   -9999      180.4147   -9999      14.9762   
1433.2     -9999      97.05012   24.90356   581.7496   -9999      180.3998   -9999      14.9762   
1433.4     -9999      97.11853   24.9049    581.8798   -9999      180.3849   -9999      14.9762   
1433.6     -9999      97.41357   24.90623   582.0099   -9999      180.37     -9999      14.9762   
1433.8     -9999      97.61168   24.90757   582.1401   -9999      180.3551   -9999      14.9762   
1434       -9999      97.51976   24.9089    582.2702   -9999      180.3402   -9999      14.9762   
1434.2     -9999      97.35273   24.91024   582.4004   -9999      180.3253   -9999      14.9762   
1434.4     -9999      97.20056   24.91158   582.5306   -9999      180.3105   -9999      14.97621  
1434.6     -9999      97.23598   24.91291   582.6607   -9999      180.2956   -9999      14.97621  
1434.8     -9999      97.11784   24.91425   582.7909   -9999      180.2807   -9999      14.97621  
1435       -9999      96.7482    24.91558   582.921    -9999      180.2659   -9999      14.97621  
1435.2     -9999      96.81041   24.91692   583.0512   -9999      180.251    -9999      14.97621  
1435.4     -9999      97.01929   24.91825   583.1814   -9999      180.2362   -9999      14.97621  
1435.6     -9999      97.21558   24.91959   583.3115   -9999      180.2213   -9999      14.97621  
1435.8     -9999      97.37933   24.92092   583.4417   -9999      180.2065   -9999      14.97621  
1436       -9999      97.40486   24.92226   583.5718   -9999      180.1916   -9999      14.97621  
1436.2     -9999      97.08998   24.92359   583.702    -9999      180.1768   -9999      14.97621  
1436.4     -9999      97.05003   24.92493   583.8322   -9999      180.162    -9999      14.9762   
1436.6     -9999      97.11116   24.92627   583.9623   -9999      180.1472   -9999      14.9762   
1436.8     -9999      97.23877   24.9276    584.0925   -9999      180.1323   -9999      14.9762   
1437       -9999      97.20671   24.92894   584.2227   -9999      180.1175   -9999      14.9762   
1437.2     -9999      97.2524    24.93027   584.3528   -9999      180.1027   -9999      14.9762   
