~Version
 VERS              .         2.0                           : CWLS LOG ASCII STANDARD - VERSION 2.0
 WRAP              .         NO                            : ONE LINE PER DEPTH STEP
 DLM               .         SPACE                         : DELIMITING CHARACTER(SPACE TAB OR COMMA)
~Well Information
#_______________________________________________________________________________
#
#PARAMETER_NAME    .UNIT     VALUE                         : DESCRIPTION
#_______________________________________________________________________________
STRT               .m        936                           : First reference value
STOP               .m        2781                          : Last reference value
STEP               .m        0.2                           : Step increment
NULL               .         -9999                         : Missing value
COMP               .         PETROLEO BRASILEIRO S/A       : Company
WELL               .         1-ESS-37C-ES                  : Well name
FLD                .                                       : Field
LOC                .                                       : Location
CNTY               .                                       : County
STAT               .         ESPIRITO SANTO                : State
CTRY               .                                       : Country
SRVC               .                                       : Service Company
DATE               .                                       : Date
API                .         342710046100                  : API number
EDF                .M        24.00                         : Elevation Derrick Floor
GDAT               .         SIRGAS2000                    : Geodetic Datum
HZCS               .         UTM                           : Horizontal Coordinate System
LMF                .         MR                            : Log Measure From
LATI               .         -19_40_21.926                 : Latitude
LONG               .         -39_28_20.370                 : Longitude
MC                 .         39 W                          : Meridiano Central
ORIG               .         SIGEO EXPORTACAO PERFIL       : Origem dos dados
ORIGINALWELLNAME   .         1ESS 0037C ES                 : 
WDMS               .M        64.00                         : Water Depth to Mean Sea Level
X                  .         450490.60                     : Surface X
Y                  .         7824661.98                    : Surface Y
~Parameter Information Block
#_______________________________________________________________________________
#
#PARAMETER_NAME    .UNIT     VALUE                         : DESCRIPTION
#_______________________________________________________________________________
SET                .         37C_AchillesBR                : 
TLFamily_Densidade_Aparente_Seca .         Bulk Density                  : 
TLFamily_Fração_de_Areia .                                       : 
TLFamily_Idade     .                                       : 
TLFamily_MD        .         Measured Depth                : 
TLFamily_Paleobatimetria_1 .                                       : 
TLFamily_Paleobatimetria_2 .                                       : 
TLFamily_Produtividade_Primária_1 .                                       : 
TLFamily_Produtividade_Primária_2 .                                       : 
TLFamily_Taxa_de_Sedimentação .                                       : 
~Curve Information
#_______________________________________________________________________________
#
#LOGNAME           .UNIT     LOG_ID                        : DESCRIPTION
#_______________________________________________________________________________
MD                 .m                                      :  
Densidade Aparente Seca .g/cm3                                  :  
Fração de Areia    .%                                      :  
Idade              .                                       : [Ma] 
Paleobatimetria_1  .m                                      :  
Paleobatimetria_2  .m                                      :  
Produtividade Primária_1 .                                       : [gC/m²/yr] 
Produtividade Primária_2 .                                       : [gC/m²/yr]  
Taxa de Sedimentação .                                       : [cm/ka] 
~Ascii
# ...
2393.2     -9999      94.66697   42.05869   219.5263   -9999      258.4993   -9999      14.97621  
2393.4     -9999      93.91728   42.06003   219.6363   -9999      258.4515   -9999      14.97621  
2393.6     -9999      93.10506   42.06136   219.7463   -9999      258.4038   -9999      14.97621  
2393.8     -9999      92.60521   42.0627    219.8562   -9999      258.356    -9999      14.97621  
2394       -9999      91.47321   42.06404   219.9662   -9999      258.3084   -9999      14.9762   
2394.2     -9999      90.84129   42.06537   220.0762   -9999      258.2607   -9999      14.9762   
2394.4     -9999      90.28849   42.06671   220.1862   -9999      258.2131   -9999      14.9762   
2394.6     -9999      90.06902   42.06804   220.2961   -9999      258.1655   -9999      14.9762   
2394.8     -9999      90.21179   42.06938   220.4061   -9999      258.118    -9999      14.9762   
2395       -9999      90.86334   42.07071   220.5161   -9999      258.0705   -9999      14.9762   
2395.2     -9999      92.29793   42.07205   220.626    -9999      258.0229   -9999      14.9762   
2395.4     -9999      93.66327   42.07338   220.736    -9999      257.9755   -9999      14.9762   
2395.6     -9999      94.36959   42.07472   220.846    -9999      257.9281   -9999      14.97621  
2395.8     -9999      93.74404   42.07605   220.9559   -9999      257.8807   -9999      14.97621  
2396       -9999      92.06985   42.07739   221.0659   -9999      257.8333   -9999      14.97621  
2396.2     -9999      91.31185   42.07873   221.1759   -9999      257.786    -9999      14.97621  
2396.4     -9999      91.94564   42.08006   221.2859   -9999      257.7387   -9999      14.97621  
2396.6     -9999      93.03219   42.0814    221.3958   -9999      257.6915   -9999      14.97621  
2396.8     -9999      93.88704   42.08273   221.5058   -9999      257.6442   -9999      14.97621  
2397       -9999      94.45309   42.08407   221.6158   -9999      257.597    -9999      14.97621  
2397.2     -9999      94.22296   42.0854    221.7257   -9999      257.5499   -9999      14.97621  
2397.4     -9999      93.50304   42.08674   221.8357   -9999      257.5027   -9999      14.97621  
2397.6     -9999      93.9712    42.08807   221.9457   -9999      257.4556   -9999      14.97621  
2397.8     -9999      94.69845   42.08941   222.0556   -9999      257.4086   -9999      14.97621  
2398       -9999      95.07422   42.09074   222.1656   -9999      257.3615   -9999      14.97621  
2398.2     -9999      94.90263   42.09208   222.2756   -9999      257.3145   -9999      14.97621  
2398.4     -9999      94.82903   42.09341   222.3856   -9999      257.2675   -9999      14.97621  
2398.6     -9999      95.05124   42.09475   222.4955   -9999      257.2206   -9999      14.97621  
2398.8     -9999      94.76301   42.09609   222.6055   -9999      257.1737   -9999      14.97621  
2399       -9999      94.26939   42.09742   222.7155   -9999      257.1268   -9999      14.97621  
2399.2     -9999      93.97476   42.09876   222.8254   -9999      257.08     -9999      14.97621  
2399.4     -9999      93.83118   42.10009   222.9354   -9999      257.0332   -9999      14.9762   
2399.6     -9999      93.43796   42.10143   223.0454   -9999      256.9864   -9999      14.9762   
2399.8     -9999      92.76788   42.10276   223.1553   -9999      256.9396   -9999      14.9762   
2400       -9999      92.83592   42.1041    223.2653   -9999      256.8929   -9999      14.9762   
2400.2     -9999      93.99533   42.10543   223.3753   -9999      256.8462   -9999      14.9762   
2400.4     -9999      94.40377   42.10677   223.4853   -9999      256.7996   -9999      14.9762   
2400.6     -9999      94.05038   42.1081    223.5952   -9999      256.7529   -9999      14.9762   
2400.8     -9999      93.55662   42.10944   223.7052   -9999      256.7064   -9999      14.9762   
2401       -9999      93.55065   42.11078   223.8152   -9999      256.6598   -9999      14.97621  
2401.2     -9999      93.75047   42.11211   223.9251   -9999      256.6133   -9999      14.97621  
2401.4     -9999      93.55016   42.11345   224.0351   -9999      256.5667   -9999      14.97621  
2401.6     -9999      93.27549   42.11478   224.1451   -9999      256.5203   -9999      14.97621  
2401.8     -9999      93.28521   42.11612   224.2551   -9999      256.4738   -9999      14.97621  
2402       -9999      93.3803    42.11745   224.365    -9999      256.4274   -9999      14.97621  
2402.2     -9999      92.74199   42.11879   224.475    -9999      256.3811   -9999      14.97621  
2402.4     -9999      92.05954   42.12012   224.585    -9999      256.3347   -9999      14.97621  
2402.6     -9999      91.65933   42.12146   224.6949   -9999      256.2884   -9999      14.97621  
2402.8     -9999      91.9386    42.1228    224.8049   -9999      256.2421   -9999      14.97621  
2403       -9999      92.80348   42.12413   224.9149   -9999      256.1959   -9999      14.9762   
2403.2     -9999      93.44723   42.12547   225.0248   -9999      256.1497   -9999      14.9762   
2403.4     -9999      93.39986   42.1268    225.1348   -9999      256.1035   -9999      14.9762   
2403.6     -9999      92.98819   42.12814   225.2448   -9999      256.0573   -9999      14.9762   
2403.8     -9999      92.25315   42.12947   225.3547   -9999      256.0112   -9999      14.9762   
2404       -9999      91.81248   42.13081   225.4647   -9999      255.9651   -9999      14.9762   
2404.2     -9999      91.01934   42.13214   225.5747   -9999      255.919    -9999      14.9762   
2404.4     -9999      90.66176   42.13348   225.6846   -9999      255.873    -9999      14.9762   
2404.6     -9999      90.35327   42.13482   225.7946   -9999      255.827    -9999      14.97621  
2404.8     -9999      89.94591   42.13615   225.9046   -9999      255.781    -9999      14.97621  
2405       -9999      90.01939   42.13749   226.0146   -9999      255.7351   -9999      14.97621  
2405.2     -9999      90.60503   42.13882   226.1245   -9999      255.6891   -9999      14.97621  
2405.4     -9999      91.00459   42.14016   226.2345   -9999      255.6433   -9999      14.97621  
2405.6     -9999      90.32112   42.14149   226.3445   -9999      255.5974   -9999      14.97621  
2405.8     -9999      89.33999   42.14283   226.4544   -9999      255.5516   -9999      14.97621  
2406       -9999      88.44361   42.14416   226.5644   -9999      255.5058   -9999      14.97621  
2406.2     -9999      88.01962   42.1455    226.6744   -9999      255.46     -9999      14.97621  
2406.4     -9999      88.25011   42.14684   226.7843   -9999      255.4143   -9999      14.97621  
2406.6     -9999      88.8446    42.14817   226.8943   -9999      255.3686   -9999      14.97621  
2406.8     -9999      89.16017   42.14951   227.0043   -9999      255.3229   -9999      14.97621  
2407       -9999      89.28635   42.15084   227.1143   -9999      255.2773   -9999      14.97621  
2407.2     -9999      89.603     42.15218   227.2242   -9999      255.2317   -9999      14.97621  
2407.4     -9999      90.2897    42.15351   227.3342   -9999      255.1861   -9999      14.97621  
2407.6     -9999      90.39335   42.15485   227.4442   -9999      255.1406   -9999      14.97621  
2407.8     -9999      90.15426   42.15618   227.5541   -9999      255.095    -9999      14.97621  
2408       -9999      89.95564   42.15752   227.6641   -9999      255.0496   -9999      14.97621  
2408.2     -9999      89.28735   42.15885   227.7741   -9999      255.0041   -9999      14.97621  
2408.4     -9999      88.13277   42.16019   227.884    -9999      254.9587   -9999      14.9762   
2408.6     -9999      87.33018   42.16153   227.994    -9999      254.9133   -9999      14.9762   
2408.8     -9999      87.15556   42.16286   228.104    -9999      254.8679   -9999      14.9762   
2409       -9999      87.64679   42.1642    228.214    -9999      254.8226   -9999      14.9762   
2409.2     -9999      87.4631    42.16553   228.3239   -9999      254.7773   -9999      14.9762   
