~Version
 VERS              .         2.0                           : CWLS LOG ASCII STANDARD - VERSION 2.0
 WRAP              .         NO                            : ONE LINE PER DEPTH STEP
 DLM               .         SPACE                         : DELIMITING CHARACTER(SPACE TAB OR COMMA)
~Well Information
#_______________________________________________________________________________
#
#PARAMETER_NAME    .UNIT     VALUE                         : DESCRIPTION
#_______________________________________________________________________________
STRT               .m        936                           : First reference value
STOP               .m        2781                          : Last reference value
STEP               .m        0.2                           : Step increment
NULL               .         -9999                         : Missing value
COMP               .         PETROLEO BRASILEIRO S/A       : Company
WELL               .         1-ESS-37C-ES                  : Well name
FLD                .                                       : Field
LOC                .                                       : Location
CNTY               .                                       : County
STAT               .         ESPIRITO SANTO                : State
CTRY               .                                       : Country
SRVC               .                                       : Service Company
DATE               .                                       : Date
API                .         342710046100                  : API number
EDF                .M        24.00                         : Elevation Derrick Floor
GDAT               .         SIRGAS2000                    : Geodetic Datum
HZCS               .         UTM                           : Horizontal Coordinate System
LMF                .         MR                            : Log Measure From
LATI               .         -19_40_21.926                 : Latitude
LONG               .         -39_28_20.370                 : Longitude
MC                 .         39 W                          : Meridiano Central
ORIG               .         SIGEO EXPORTACAO PERFIL       : Origem dos dados
ORIGINALWELLNAME   .         1ESS 0037C ES                 : 
WDMS               .M        64.00                         : Water Depth to Mean Sea Level
X                  .         450490.60                     : Surface X
Y                  .         7824661.98                    : Surface Y
~Parameter Information Block
#_______________________________________________________________________________
#
#PARAMETER_NAME    .UNIT     VALUE                         : DESCRIPTION
#_______________________________________________________________________________
SET                .         37C_AchillesBR                : 
TLFamily_Densidade_Aparente_Seca .         Bulk Density                  : 
TLFamily_Fração_de_Areia .                                       : 
TLFamily_Idade     .                                       : 
TLFamily_MD        .         Measured Depth                : 
TLFamily_Paleobatimetria_1 .                                       : 
TLFamily_Paleobatimetria_2 .                                       : 
TLFamily_Produtividade_Primária_1 .                                       : 
TLFamily_Produtividade_Primária_2 .                                       : 
TLFamily_Taxa_de_Sedimentação .                                       : 
~Curve Information
#_______________________________________________________________________________
#
#LOGNAME           .UNIT     LOG_ID                        : DESCRIPTION
#_______________________________________________________________________________
MD                 .m                                      :  
Densidade Aparente Seca .g/cm3                                  :  
Fração de Areia    .%                                      :  
Idade              .                                       : [Ma] 
Paleobatimetria_1  .m                                      :  
Paleobatimetria_2  .m                                      :  
Produtividade Primária_1 .                                       : [gC/m²/yr] 
Produtividade Primária_2 .                                       : [gC/m²/yr]  
Taxa de Sedimentação .                                       : [cm/ka] 
~Ascii
# ...
2522.8     2.578609   93.22153   43.7277    356.963    -9999      216.0368   -9999      4.495611  
2523       2.60209    94.60867   43.73215   357.3294   -9999      215.9551   -9999      4.495611  
2523.2     2.578549   95.10733   43.7366    357.6957   -9999      215.8734   -9999      4.495611  
2523.4     2.53355    95.09579   43.74105   358.0621   -9999      215.7919   -9999      4.495611  
2523.6     2.474375   94.84592   43.74549   358.4284   -9999      215.7104   -9999      4.495611  
2523.8     2.467783   94.55225   43.74994   358.7947   -9999      215.6291   -9999      4.495611  
2524       2.545184   94.7038    43.75439   359.1611   -9999      215.5479   -9999      4.495611  
2524.2     2.623442   95.29914   43.75884   359.5274   -9999      215.4668   -9999      4.495611  
2524.4     2.63259    95.4987    43.76329   359.8938   -9999      215.3858   -9999      4.495611  
2524.6     2.608457   95.61782   43.76774   360.2601   -9999      215.3049   -9999      4.495611  
2524.8     2.603789   95.52341   43.77219   360.6265   -9999      215.2242   -9999      4.495612  
2525       2.618137   95.41312   43.77663   360.9928   -9999      215.1436   -9999      4.495612  
2525.2     2.618656   95.27552   43.78108   361.3591   -9999      215.063    -9999      4.495612  
2525.4     2.564076   94.90723   43.78553   361.7255   -9999      214.9826   -9999      4.495612  
2525.6     2.457381   94.40249   43.78998   362.0918   -9999      214.9023   -9999      4.495612  
2525.8     2.316736   92.80573   43.79443   362.4582   -9999      214.8221   -9999      4.495612  
2526       2.184587   90.7534    43.79888   362.8245   -9999      214.742    -9999      4.495612  
2526.2     2.20239    89.22447   43.80333   363.1909   -9999      214.662    -9999      4.495612  
2526.4     2.27024    89.64409   43.80778   363.5572   -9999      214.5822   -9999      4.495612  
2526.6     2.277468   91.00549   43.81223   363.9235   -9999      214.5024   -9999      4.495612  
2526.8     2.190363   91.82323   43.81667   364.2899   -9999      214.4228   -9999      4.495612  
2527       2.101437   91.82715   43.82112   364.6562   -9999      214.3432   -9999      4.495612  
2527.2     2.09855    91.65982   43.82557   365.0226   -9999      214.2638   -9999      4.495612  
2527.4     2.226372   91.96662   43.83002   365.3889   -9999      214.1845   -9999      4.495612  
2527.6     2.366509   92.25906   43.83447   365.7552   -9999      214.1053   -9999      4.495611  
2527.8     2.464468   92.30957   43.83892   366.1216   -9999      214.0262   -9999      4.495611  
2528       2.4965     92.66946   43.84337   366.4879   -9999      213.9472   -9999      4.495611  
2528.2     2.469793   93.18301   43.84782   366.8543   -9999      213.8683   -9999      4.495611  
2528.4     2.388995   93.00861   43.85226   367.2206   -9999      213.7895   -9999      4.495612  
2528.6     2.357283   92.36497   43.85671   367.5869   -9999      213.7109   -9999      4.495612  
2528.8     2.372956   91.64667   43.86116   367.9533   -9999      213.6323   -9999      4.495612  
2529       2.340888   91.10226   43.86561   368.3196   -9999      213.5538   -9999      4.495612  
2529.2     2.309286   90.72638   43.87006   368.686    -9999      213.4755   -9999      4.495612  
2529.4     2.297412   89.76434   43.87451   369.0523   -9999      213.3973   -9999      4.495612  
2529.6     2.283683   89.19469   43.87896   369.4187   -9999      213.3191   -9999      4.495612  
2529.8     2.304344   89.44864   43.88339   369.784    -9999      213.2413   -9999      4.497057  
2530       2.32128    89.95008   43.88782   370.1482   -9999      213.1638   -9999      4.499947  
2530.2     2.339676   90.65221   43.89224   370.5124   -9999      213.0865   -9999      4.502837  
2530.4     2.351381   91.28462   43.89666   370.8766   -9999      213.0092   -9999      4.505726  
2530.6     2.334503   92.24825   43.90108   371.2409   -9999      212.9321   -9999      4.508616  
2530.8     2.249933   92.69823   43.90551   371.6051   -9999      212.855    -9999      4.511506  
2531       2.18717    92.07689   43.90993   371.9694   -9999      212.778    -9999      4.514396  
2531.2     2.169041   90.85233   43.91436   372.3336   -9999      212.7012   -9999      4.517285  
2531.4     2.162534   88.77103   43.91878   372.6978   -9999      212.6244   -9999      4.520175  
2531.6     2.179546   88.13785   43.92319   373.061    -9999      212.548    -9999      4.523082  
2531.8     2.203734   88.61453   43.92759   373.4231   -9999      212.4719   -9999      4.526005  
2532       2.259862   89.4876    43.93198   373.7853   -9999      212.3959   -9999      4.528929  
2532.2     2.327846   91.02757   43.93638   374.1474   -9999      212.32     -9999      4.531852  
2532.4     2.361556   92.45671   43.94078   374.5095   -9999      212.2442   -9999      4.534776  
2532.6     2.352812   93.57396   43.94518   374.8716   -9999      212.1685   -9999      4.5377    
2532.8     2.33118    93.68339   43.94957   375.2338   -9999      212.0929   -9999      4.540623  
2533       2.333152   93.99648   43.95397   375.5959   -9999      212.0174   -9999      4.543547  
2533.2     2.288045   94.59183   43.95837   375.958    -9999      211.942    -9999      4.54647   
2533.4     2.284364   95.60616   43.96278   376.3212   -9999      211.8665   -9999      4.54647   
2533.6     2.286722   96.79318   43.9672    376.6855   -9999      211.7908   -9999      4.543547  
2533.8     2.292364   97.49747   43.97163   377.0497   -9999      211.7153   -9999      4.540623  
2534       2.268782   97.05302   43.97605   377.4139   -9999      211.6399   -9999      4.5377    
2534.2     2.232064   95.86836   43.98047   377.7781   -9999      211.5645   -9999      4.534776  
2534.4     2.22693    94.09455   43.9849    378.1424   -9999      211.4893   -9999      4.531852  
2534.6     2.252132   91.57227   43.98932   378.5066   -9999      211.4141   -9999      4.528929  
2534.8     2.281105   89.39026   43.99374   378.8708   -9999      211.3391   -9999      4.526005  
2535       2.331324   87.82355   43.99817   379.2351   -9999      211.2642   -9999      4.523082  
2535.2     2.381058   87.59937   44.0026    379.6004   -9999      211.1891   -9999      4.520175  
2535.4     2.417801   88.26886   44.00705   379.9667   -9999      211.1139   -9999      4.517285  
2535.6     2.377907   90.34921   44.0115    380.3331   -9999      211.0388   -9999      4.514395  
2535.8     2.285723   93.03549   44.01595   380.6994   -9999      210.9639   -9999      4.511506  
2536       2.250592   94.53969   44.0204    381.0657   -9999      210.889    -9999      4.508615  
2536.2     2.220763   95.06404   44.02485   381.4321   -9999      210.8142   -9999      4.505726  
2536.4     2.213659   94.89718   44.02929   381.7984   -9999      210.7395   -9999      4.502836  
2536.6     2.21362    94.97545   44.03374   382.1648   -9999      210.6649   -9999      4.499946  
2536.8     2.219302   95.5042    44.03819   382.5311   -9999      210.5904   -9999      4.497056  
2537       2.207084   95.6643    44.04264   382.8975   -9999      210.516    -9999      4.495611  
2537.2     2.220921   95.77147   44.04709   383.2638   -9999      210.4417   -9999      4.495611  
2537.4     2.221443   95.90953   44.05154   383.6301   -9999      210.3675   -9999      4.495612  
2537.6     2.261175   95.91438   44.05599   383.9965   -9999      210.2934   -9999      4.495612  
2537.8     2.271849   95.66544   44.06044   384.3628   -9999      210.2194   -9999      4.495612  
2538       2.276006   95.45562   44.06488   384.7292   -9999      210.1455   -9999      4.495612  
2538.2     2.277258   95.5224    44.06933   385.0955   -9999      210.0717   -9999      4.495612  
2538.4     2.271999   95.72235   44.07378   385.4619   -9999      209.998    -9999      4.495612  
2538.6     2.281279   95.716     44.07823   385.8282   -9999      209.9244   -9999      4.495612  
2538.8     2.267347   95.43781   44.08268   386.1945   -9999      209.8509   -9999      4.495612  
