~Version
 VERS              .         2.0                           : CWLS LOG ASCII STANDARD - VERSION 2.0
 WRAP              .         NO                            : ONE LINE PER DEPTH STEP
 DLM               .         SPACE                         : DELIMITING CHARACTER(SPACE TAB OR COMMA)
~Well Information
#_______________________________________________________________________________
#
#PARAMETER_NAME    .UNIT     VALUE                         : DESCRIPTION
#_______________________________________________________________________________
STRT               .m        936                           : First reference value
STOP               .m        2781                          : Last reference value
STEP               .m        0.2                           : Step increment
NULL               .         -9999                         : Missing value
COMP               .         PETROLEO BRASILEIRO S/A       : Company
WELL               .         1-ESS-37C-ES                  : Well name
FLD                .                                       : Field
LOC                .                                       : Location
CNTY               .                                       : County
STAT               .         ESPIRITO SANTO                : State
CTRY               .                                       : Country
SRVC               .                                       : Service Company
DATE               .                                       : Date
API                .         342710046100                  : API number
EDF                .M        24.00                         : Elevation Derrick Floor
GDAT               .         SIRGAS2000                    : Geodetic Datum
HZCS               .         UTM                           : Horizontal Coordinate System
LMF                .         MR                            : Log Measure From
LATI               .         -19_40_21.926                 : Latitude
LONG               .         -39_28_20.370                 : Longitude
MC                 .         39 W                          : Meridiano Central
ORIG               .         SIGEO EXPORTACAO PERFIL       : Origem dos dados
ORIGINALWELLNAME   .         1ESS 0037C ES                 : 
WDMS               .M        64.00                         : Water Depth to Mean Sea Level
X                  .         450490.60                     : Surface X
Y                  .         7824661.98                    : Surface Y
~Parameter Information Block
#_______________________________________________________________________________
#
#PARAMETER_NAME    .UNIT     VALUE                         : DESCRIPTION
#_______________________________________________________________________________
SET                .         37C_AchillesBR                : 
TLFamily_Densidade_Aparente_Seca .         Bulk Density                  : 
TLFamily_Fração_de_Areia .                                       : 
TLFamily_Idade     .                                       : 
TLFamily_MD        .         Measured Depth                : 
TLFamily_Paleobatimetria_1 .                                       : 
TLFamily_Paleobatimetria_2 .                                       : 
TLFamily_Produtividade_Primária_1 .                                       : 
TLFamily_Produtividade_Primária_2 .                                       : 
TLFamily_Taxa_de_Sedimentação .                                       : 
~Curve Information
#_______________________________________________________________________________
#
#LOGNAME           .UNIT     LOG_ID                        : DESCRIPTION
#_______________________________________________________________________________
MD                 .m                                      :  
Densidade Aparente Seca .g/cm3                                  :  
Fração de Areia    .%                                      :  
Idade              .                                       : [Ma] 
Paleobatimetria_1  .m                                      :  
Paleobatimetria_2  .m                                      :  
Produtividade Primária_1 .                                       : [gC/m²/yr] 
Produtividade Primária_2 .                                       : [gC/m²/yr]  
Taxa de Sedimentação .                                       : [cm/ka] 
~Ascii
# ...
2279.8     -9999      91.19565   41.13808   143.7167   -9999      302.2505   -9999      6.225785  
2280       -9999      93.71184   41.14047   143.9137   -9999      302.0977   -9999      6.510411  
2280.2     -9999      95.36012   41.14286   144.1107   -9999      301.9453   -9999      6.795038  
2280.4     -9999      95.39137   41.14525   144.3077   -9999      301.7931   -9999      7.079664  
2280.6     -9999      94.69258   41.14765   144.5047   -9999      301.6411   -9999      7.36429   
2280.8     -9999      94.27209   41.15004   144.7016   -9999      301.4895   -9999      7.648916  
2281       -9999      94.42664   41.15243   144.8986   -9999      301.3381   -9999      7.933542  
2281.2     -9999      94.94618   41.15482   145.0956   -9999      301.1871   -9999      8.218168  
2281.4     -9999      95.66804   41.15668   145.2491   -9999      301.0696   -9999      8.728023  
2281.6     -9999      96.03319   41.15802   145.3591   -9999      300.9855   -9999      9.463103  
2281.8     -9999      96.2411    41.15936   145.4691   -9999      300.9015   -9999      10.19818  
2282       -9999      96.3479    41.16069   145.579    -9999      300.8176   -9999      10.93327  
2282.2     -9999      96.59428   41.16203   145.689    -9999      300.7337   -9999      11.66835  
2282.4     -9999      96.80928   41.16336   145.799    -9999      300.65     -9999      12.40343  
2282.6     -9999      96.86444   41.1647    145.9089   -9999      300.5663   -9999      13.13851  
2282.8     -9999      96.69971   41.16603   146.0189   -9999      300.4828   -9999      13.87359  
2283       -9999      96.47253   41.16737   146.1289   -9999      300.3993   -9999      14.60867  
2283.2     -9999      96.14503   41.1687    146.2388   -9999      300.3159   -9999      14.97621  
2283.4     -9999      95.89716   41.17004   146.3488   -9999      300.2325   -9999      14.97621  
2283.6     -9999      95.87146   41.17138   146.4588   -9999      300.1493   -9999      14.97621  
2283.8     -9999      95.85741   41.17271   146.5687   -9999      300.0662   -9999      14.97621  
2284       -9999      95.92229   41.17405   146.6787   -9999      299.9831   -9999      14.97621  
2284.2     -9999      96.2457    41.17538   146.7887   -9999      299.9001   -9999      14.9762   
2284.4     -9999      96.62855   41.17672   146.8987   -9999      299.8173   -9999      14.9762   
2284.6     -9999      96.9775    41.17805   147.0086   -9999      299.7345   -9999      14.9762   
2284.8     -9999      96.961     41.17939   147.1186   -9999      299.6518   -9999      14.9762   
2285       -9999      97.1268    41.18073   147.2286   -9999      299.5691   -9999      14.9762   
2285.2     -9999      97.19289   41.18206   147.3385   -9999      299.4866   -9999      14.9762   
2285.4     -9999      96.73798   41.1834    147.4485   -9999      299.4041   -9999      14.9762   
2285.6     -9999      96.14245   41.18473   147.5585   -9999      299.3217   -9999      14.9762   
2285.8     -9999      96.03942   41.18607   147.6684   -9999      299.2394   -9999      14.97621  
2286       -9999      96.1928    41.1874    147.7784   -9999      299.1572   -9999      14.97621  
2286.2     -9999      96.70149   41.18874   147.8884   -9999      299.0751   -9999      14.97621  
2286.4     -9999      97.28835   41.19007   147.9984   -9999      298.993    -9999      14.97621  
2286.6     -9999      97.45523   41.19141   148.1083   -9999      298.9111   -9999      14.97621  
2286.8     -9999      97.40422   41.19275   148.2183   -9999      298.8292   -9999      14.97621  
2287       -9999      97.13796   41.19408   148.3283   -9999      298.7474   -9999      14.97621  
2287.2     -9999      96.97726   41.19542   148.4382   -9999      298.6657   -9999      14.97621  
2287.4     -9999      97.33796   41.19675   148.5482   -9999      298.5841   -9999      14.97621  
2287.6     -9999      97.6542    41.19809   148.6582   -9999      298.5025   -9999      14.97621  
2287.8     -9999      97.63932   41.19942   148.7681   -9999      298.4211   -9999      14.9762   
2288       -9999      97.41751   41.20076   148.8781   -9999      298.3397   -9999      14.9762   
2288.2     -9999      97.31993   41.20209   148.9881   -9999      298.2584   -9999      14.9762   
2288.4     -9999      97.28714   41.20343   149.0981   -9999      298.1772   -9999      14.9762   
2288.6     -9999      96.95451   41.20476   149.208    -9999      298.096    -9999      14.9762   
2288.8     -9999      96.86707   41.2061    149.318    -9999      298.015    -9999      14.9762   
2289       -9999      96.92677   41.20743   149.428    -9999      297.934    -9999      14.9762   
2289.2     -9999      96.83178   41.20877   149.5379   -9999      297.8531   -9999      14.9762   
2289.4     -9999      96.8973    41.21011   149.6479   -9999      297.7723   -9999      14.97621  
2289.6     -9999      96.70518   41.21144   149.7579   -9999      297.6916   -9999      14.97621  
2289.8     -9999      96.56076   41.21278   149.8678   -9999      297.6109   -9999      14.97621  
2290       -9999      96.87731   41.21411   149.9778   -9999      297.5304   -9999      14.97621  
2290.2     -9999      97.57224   41.21545   150.0878   -9999      297.4499   -9999      14.97621  
2290.4     -9999      97.98188   41.21678   150.1978   -9999      297.3695   -9999      14.97621  
2290.6     -9999      98.01318   41.21812   150.3077   -9999      297.2892   -9999      14.97621  
2290.8     -9999      97.89117   41.21945   150.4177   -9999      297.2089   -9999      14.97621  
2291       -9999      97.80634   41.22079   150.5277   -9999      297.1288   -9999      14.97621  
2291.2     -9999      97.71924   41.22212   150.6376   -9999      297.0487   -9999      14.97621  
2291.4     -9999      97.81497   41.22346   150.7476   -9999      296.9687   -9999      14.97621  
2291.6     -9999      97.89083   41.22479   150.8576   -9999      296.8888   -9999      14.97621  
2291.8     -9999      97.86971   41.22613   150.9675   -9999      296.8089   -9999      14.97621  
2292       -9999      97.77475   41.22747   151.0775   -9999      296.7292   -9999      14.97621  
2292.2     -9999      97.73959   41.2288    151.1875   -9999      296.6495   -9999      14.97621  
2292.4     -9999      97.8959    41.23014   151.2975   -9999      296.5699   -9999      14.97621  
2292.6     -9999      97.85432   41.23147   151.4074   -9999      296.4903   -9999      14.97621  
2292.8     -9999      97.77992   41.23281   151.5174   -9999      296.4109   -9999      14.97621  
2293       -9999      97.8682    41.23414   151.6274   -9999      296.3315   -9999      14.97621  
2293.2     -9999      97.7821    41.23548   151.7373   -9999      296.2522   -9999      14.9762   
2293.4     -9999      97.68652   41.23681   151.8473   -9999      296.173    -9999      14.9762   
2293.6     -9999      97.69614   41.23815   151.9573   -9999      296.0939   -9999      14.9762   
2293.8     -9999      97.8632    41.23948   152.0672   -9999      296.0148   -9999      14.9762   
2294       -9999      97.86862   41.24082   152.1772   -9999      295.9359   -9999      14.9762   
2294.2     -9999      97.74178   41.24215   152.2872   -9999      295.857    -9999      14.9762   
2294.4     -9999      97.67072   41.24349   152.3971   -9999      295.7782   -9999      14.9762   
2294.6     -9999      97.54959   41.24483   152.5071   -9999      295.6994   -9999      14.9762   
2294.8     -9999      97.34381   41.24616   152.6171   -9999      295.6208   -9999      14.97621  
2295       -9999      97.20737   41.2475    152.7271   -9999      295.5422   -9999      14.97621  
2295.2     -9999      97.10835   41.24883   152.837    -9999      295.4637   -9999      14.97621  
2295.4     -9999      96.91254   41.25017   152.947    -9999      295.3852   -9999      14.97621  
2295.6     -9999      96.91441   41.2515    153.057    -9999      295.3069   -9999      14.97621  
2295.8     -9999      97.19732   41.25284   153.1669   -9999      295.2286   -9999      14.97621  
