~Version
 VERS              .         2.0                           : CWLS LOG ASCII STANDARD - VERSION 2.0
 WRAP              .         NO                            : ONE LINE PER DEPTH STEP
 DLM               .         SPACE                         : DELIMITING CHARACTER(SPACE TAB OR COMMA)
~Well Information
#_______________________________________________________________________________
#
#PARAMETER_NAME    .UNIT     VALUE                         : DESCRIPTION
#_______________________________________________________________________________
STRT               .m        936                           : First reference value
STOP               .m        2781                          : Last reference value
STEP               .m        0.2                           : Step increment
NULL               .         -9999                         : Missing value
COMP               .         PETROLEO BRASILEIRO S/A       : Company
WELL               .         1-ESS-37C-ES                  : Well name
FLD                .                                       : Field
LOC                .                                       : Location
CNTY               .                                       : County
STAT               .         ESPIRITO SANTO                : State
CTRY               .                                       : Country
SRVC               .                                       : Service Company
DATE               .                                       : Date
API                .         342710046100                  : API number
EDF                .M        24.00                         : Elevation Derrick Floor
GDAT               .         SIRGAS2000                    : Geodetic Datum
HZCS               .         UTM                           : Horizontal Coordinate System
LMF                .         MR                            : Log Measure From
LATI               .         -19_40_21.926                 : Latitude
LONG               .         -39_28_20.370                 : Longitude
MC                 .         39 W                          : Meridiano Central
ORIG               .         SIGEO EXPORTACAO PERFIL       : Origem dos dados
ORIGINALWELLNAME   .         1ESS 0037C ES                 : 
WDMS               .M        64.00                         : Water Depth to Mean Sea Level
X                  .         450490.60                     : Surface X
Y                  .         7824661.98                    : Surface Y
~Parameter Information Block
#_______________________________________________________________________________
#
#PARAMETER_NAME    .UNIT     VALUE                         : DESCRIPTION
#_______________________________________________________________________________
SET                .         37C_AchillesBR                : 
TLFamily_Densidade_Aparente_Seca .         Bulk Density                  : 
TLFamily_Fração_de_Areia .                                       : 
TLFamily_Idade     .                                       : 
TLFamily_MD        .         Measured Depth                : 
TLFamily_Paleobatimetria_1 .                                       : 
TLFamily_Paleobatimetria_2 .                                       : 
TLFamily_Produtividade_Primária_1 .                                       : 
TLFamily_Produtividade_Primária_2 .                                       : 
TLFamily_Taxa_de_Sedimentação .                                       : 
~Curve Information
#_______________________________________________________________________________
#
#LOGNAME           .UNIT     LOG_ID                        : DESCRIPTION
#_______________________________________________________________________________
MD                 .m                                      :  
Densidade Aparente Seca .g/cm3                                  :  
Fração de Areia    .%                                      :  
Idade              .                                       : [Ma] 
Paleobatimetria_1  .m                                      :  
Paleobatimetria_2  .m                                      :  
Produtividade Primária_1 .                                       : [gC/m²/yr] 
Produtividade Primária_2 .                                       : [gC/m²/yr]  
Taxa de Sedimentação .                                       : [cm/ka] 
~Ascii
936.0      -9999      93.58997   17.44976   295.1044   295.1044   231.7573   231.7573   6.144226  
936.2000000000001 -9999      93.16635   17.45302   294.8602   -9999      231.8281   -9999      6.144226  
936.4      -9999      92.52366   17.45627   294.6161   -9999      231.899    -9999      6.144226  
936.6      -9999      92.37304   17.45953   294.3719   -9999      231.97     -9999      6.144226  
936.8      -9999      92.23387   17.46278   294.1277   -9999      232.0411   -9999      6.144226  
937        -9999      91.95359   17.46604   293.8835   -9999      232.1122   -9999      6.144226  
937.2000000000001 -9999      91.72257   17.46929   293.6394   -9999      232.1834   -9999      6.144226  
937.4      -9999      91.93573   17.47255   293.3952   -9999      232.2547   -9999      6.144226  
937.6      -9999      92.35815   17.4758    293.1511   -9999      232.3261   -9999      6.144227  
937.8      -9999      92.62337   17.47906   292.9069   -9999      232.3976   -9999      6.144227  
938        -9999      93.04535   17.48231   292.6627   -9999      232.4691   -9999      6.144227  
938.2000000000001 -9999      93.52385   17.48557   292.4185   -9999      232.5407   -9999      6.144227  
938.4      -9999      93.90452   17.48882   292.1744   -9999      232.6125   -9999      6.144228  
938.6      -9999      93.88954   17.49163   291.9641   -9999      232.6743   -9999      6.275373  
938.8      -9999      93.86499   17.49398   291.7877   -9999      232.7262   -9999      6.537662  
939        -9999      94.15596   17.49633   291.6113   -9999      232.7781   -9999      6.799952  
939.2000000000001 -9999      94.35976   17.49868   291.4349   -9999      232.8301   -9999      7.062242  
939.4      -9999      94.20708   17.50103   291.2585   -9999      232.8822   -9999      7.324532  
939.6      -9999      93.90163   17.50339   291.0822   -9999      232.9342   -9999      7.586822  
939.8      -9999      93.98984   17.50574   290.9058   -9999      232.9864   -9999      7.849111  
940        -9999      94.13984   17.50809   290.7293   -9999      233.0385   -9999      8.111401  
940.2000000000001 -9999      94.17742   17.51044   290.5529   -9999      233.0907   -9999      8.373691  
940.4      -9999      94.43529   17.51234   290.4105   -9999      233.133    -9999      8.799623  
940.6      -9999      94.74344   17.51379   290.3018   -9999      233.1652   -9999      9.3892    
940.8      -9999      94.46242   17.51524   290.1932   -9999      233.1974   -9999      9.978776  
941        -9999      94.29517   17.51668   290.0846   -9999      233.2296   -9999      10.56835  
941.2000000000001 -9999      94.18298   17.51813   289.976    -9999      233.2618   -9999      11.15793  
941.4      -9999      93.69815   17.51958   289.8673   -9999      233.2941   -9999      11.7475   
941.6      -9999      92.40505   17.52103   289.7587   -9999      233.3264   -9999      12.33708  
941.8      -9999      90.22449   17.52248   289.6501   -9999      233.3587   -9999      12.92666  
942        -9999      86.92825   17.52393   289.5415   -9999      233.391    -9999      13.51623  
942.2000000000001 -9999      83.37344   17.52537   289.4328   -9999      233.4233   -9999      13.81102  
942.4      -9999      81.45859   17.52682   289.3242   -9999      233.4556   -9999      13.81102  
942.6      -9999      81.42213   17.52827   289.2156   -9999      233.488    -9999      13.81102  
942.8      -9999      82.57996   17.52972   289.107    -9999      233.5204   -9999      13.81102  
943        -9999      83.98914   17.53116   288.9984   -9999      233.5528   -9999      13.81103  
943.2000000000001 -9999      84.96239   17.53261   288.8897   -9999      233.5852   -9999      13.81103  
943.4      -9999      85.6084    17.53406   288.7811   -9999      233.6176   -9999      13.81103  
943.6      -9999      86.18404   17.53551   288.6725   -9999      233.6501   -9999      13.81103  
943.8      -9999      86.24947   17.53696   288.5638   -9999      233.6825   -9999      13.81103  
944        -9999      86.64875   17.53886   288.4213   -9999      233.7251   -9999      13.51624  
944.2000000000001 -9999      86.91158   17.54121   288.2449   -9999      233.7779   -9999      12.92667  
944.4      -9999      86.92875   17.54356   288.0685   -9999      233.8307   -9999      12.33709  
944.6      -9999      87.81789   17.54591   287.8922   -9999      233.8836   -9999      11.74751  
944.8      -9999      89.13113   17.54826   287.7158   -9999      233.9365   -9999      11.15793  
945        -9999      90.10829   17.55062   287.5394   -9999      233.9895   -9999      10.56836  
945.2000000000001 -9999      90.38328   17.55297   287.363    -9999      234.0425   -9999      9.978779  
945.4      -9999      90.58664   17.55532   287.1866   -9999      234.0955   -9999      9.389202  
945.6      -9999      92.16864   17.55767   287.0102   -9999      234.1486   -9999      8.799624  
945.8      -9999      90.46353   17.56047   286.7999   -9999      234.212    -9999      8.373691  
946        -9999      90.21042   17.56373   286.5557   -9999      234.2856   -9999      8.111401  
946.2000000000001 -9999      90.69551   17.56698   286.3116   -9999      234.3594   -9999      7.849111  
946.4      -9999      91.71278   17.57024   286.0674   -9999      234.4332   -9999      7.586821  
946.6      -9999      92.61035   17.57349   285.8232   -9999      234.5071   -9999      7.324531  
946.8      -9999      93.79792   17.57675   285.5791   -9999      234.5811   -9999      7.062241  
947        -9999      95.10579   17.58      285.3349   -9999      234.6551   -9999      6.799951  
947.2000000000001 -9999      95.76246   17.58326   285.0908   -9999      234.7293   -9999      6.537661  
947.4      -9999      96.16968   17.58651   284.8466   -9999      234.8035   -9999      6.275371  
947.6      -9999      96.17294   17.58977   284.6024   -9999      234.8779   -9999      6.144226  
947.8      -9999      96.33331   17.59302   284.3582   -9999      234.9523   -9999      6.144226  
948        -9999      96.47299   17.59628   284.1141   -9999      235.0268   -9999      6.144226  
948.2000000000001 -9999      96.26689   17.59953   283.8699   -9999      235.1014   -9999      6.144226  
948.4      -9999      95.81189   17.60279   283.6258   -9999      235.1761   -9999      6.144226  
948.6      -9999      95.19682   17.60604   283.3816   -9999      235.2508   -9999      6.144226  
948.8      -9999      94.70367   17.6093    283.1374   -9999      235.3257   -9999      6.144226  
949        -9999      94.18438   17.61255   282.8932   -9999      235.4007   -9999      6.144226  
949.2000000000001 -9999      93.93828   17.61581   282.6491   -9999      235.4757   -9999      6.144226  
949.4      -9999      94.01543   17.61861   282.4388   -9999      235.5404   -9999      6.275371  
949.6      -9999      94.03766   17.62096   282.2624   -9999      235.5947   -9999      6.537661  
949.8      -9999      94.03786   17.62332   282.086    -9999      235.6491   -9999      6.799951  
950        -9999      93.80085   17.62567   281.9096   -9999      235.7035   -9999      7.062241  
950.2000000000001 -9999      93.32327   17.62802   281.7332   -9999      235.7579   -9999      7.324531  
950.4      -9999      92.56666   17.63037   281.5569   -9999      235.8124   -9999      7.586821  
950.6      -9999      91.9165    17.63272   281.3805   -9999      235.867    -9999      7.849111  
950.8      -9999      91.93555   17.63507   281.2041   -9999      235.9216   -9999      8.111401  
951        -9999      92.58164   17.63743   281.0277   -9999      235.9762   -9999      8.373691  
951.2000000000001 -9999      92.65977   17.64146   280.7248   -9999      236.0702   -9999      8.226458  
951.4      -9999      91.79362   17.64719   280.2954   -9999      236.2036   -9999      7.669701  
951.6      -9999      90.96121   17.65291   279.8661   -9999      236.3373   -9999      7.112944  
951.8      -9999      91.04633   17.65864   279.4367   -9999      236.4713   -9999      6.556187  
