~Version
 VERS              .         2.0                           : CWLS LOG ASCII STANDARD - VERSION 2.0
 WRAP              .         NO                            : ONE LINE PER DEPTH STEP
 DLM               .         SPACE                         : DELIMITING CHARACTER(SPACE TAB OR COMMA)
~Well Information
#_______________________________________________________________________________
#
#PARAMETER_NAME    .UNIT     VALUE                         : DESCRIPTION
#_______________________________________________________________________________
STRT               .m        936                           : First reference value
STOP               .m        2781                          : Last reference value
STEP               .m        0.2                           : Step increment
NULL               .         -9999                         : Missing value
COMP               .         PETROLEO BRASILEIRO S/A       : Company
WELL               .         1-ESS-37C-ES                  : Well name
FLD                .                                       : Field
LOC                .                                       : Location
CNTY               .                                       : County
STAT               .         ESPIRITO SANTO                : State
CTRY               .                                       : Country
SRVC               .                                       : Service Company
DATE               .                                       : Date
API                .         342710046100                  : API number
EDF                .M        24.00                         : Elevation Derrick Floor
GDAT               .         SIRGAS2000                    : Geodetic Datum
HZCS               .         UTM                           : Horizontal Coordinate System
LMF                .         MR                            : Log Measure From
LATI               .         -19_40_21.926                 : Latitude
LONG               .         -39_28_20.370                 : Longitude
MC                 .         39 W                          : Meridiano Central
ORIG               .         SIGEO EXPORTACAO PERFIL       : Origem dos dados
ORIGINALWELLNAME   .         1ESS 0037C ES                 : 
WDMS               .M        64.00                         : Water Depth to Mean Sea Level
X                  .         450490.60                     : Surface X
Y                  .         7824661.98                    : Surface Y
~Parameter Information Block
#_______________________________________________________________________________
#
#PARAMETER_NAME    .UNIT     VALUE                         : DESCRIPTION
#_______________________________________________________________________________
SET                .         37C_AchillesBR                : 
TLFamily_Densidade_Aparente_Seca .         Bulk Density                  : 
TLFamily_Fração_de_Areia .                                       : 
TLFamily_Idade     .                                       : 
TLFamily_MD        .         Measured Depth                : 
TLFamily_Paleobatimetria_1 .                                       : 
TLFamily_Paleobatimetria_2 .                                       : 
TLFamily_Produtividade_Primária_1 .                                       : 
TLFamily_Produtividade_Primária_2 .                                       : 
TLFamily_Taxa_de_Sedimentação .                                       : 
~Curve Information
#_______________________________________________________________________________
#
#LOGNAME           .UNIT     LOG_ID                        : DESCRIPTION
#_______________________________________________________________________________
MD                 .m                                      :  
Densidade Aparente Seca .g/cm3                                  :  
Fração de Areia    .%                                      :  
Idade              .                                       : [Ma] 
Paleobatimetria_1  .m                                      :  
Paleobatimetria_2  .m                                      :  
Produtividade Primária_1 .                                       : [gC/m²/yr] 
Produtividade Primária_2 .                                       : [gC/m²/yr]  
Taxa de Sedimentação .                                       : [cm/ka] 
~Ascii
# ...
2636.2     2.043139   90.31831   46.48719   394.3048   -9999      208.2472   -9999      14.9762   
2636.4     2.060145   90.30495   46.48852   394.2442   -9999      208.259    -9999      14.9762   
2636.6     2.022094   90.32772   46.48986   394.1837   -9999      208.2709   -9999      14.9762   
2636.8     2.00399    90.28651   46.49119   394.1231   -9999      208.2827   -9999      14.97621  
2637       2.03426    90.36446   46.49253   394.0626   -9999      208.2945   -9999      14.97621  
2637.2     2.094759   90.7391    46.49386   394.002    -9999      208.3063   -9999      14.97621  
2637.4     2.133128   90.88009   46.4952    393.9415   -9999      208.3181   -9999      14.97621  
2637.6     2.08233    90.63584   46.49654   393.8809   -9999      208.3299   -9999      14.97621  
2637.8     2.11448    90.59504   46.49787   393.8204   -9999      208.3418   -9999      14.97621  
2638       2.144122   90.29964   46.49921   393.7598   -9999      208.3536   -9999      14.97621  
2638.2     2.175933   90.33841   46.50054   393.6993   -9999      208.3654   -9999      14.97621  
2638.4     2.146232   90.79028   46.50188   393.6387   -9999      208.3772   -9999      14.97621  
2638.6     2.077655   91.12668   46.50321   393.5782   -9999      208.3891   -9999      14.97621  
2638.8     2.054734   91.10616   46.50455   393.5176   -9999      208.4009   -9999      14.97621  
2639       2.076125   91.00047   46.50588   393.4571   -9999      208.4127   -9999      14.97621  
2639.2     2.077572   90.93166   46.50722   393.3965   -9999      208.4246   -9999      14.97621  
2639.4     2.092137   90.30677   46.50855   393.336    -9999      208.4364   -9999      14.97621  
2639.6     2.119901   89.52705   46.50989   393.2755   -9999      208.4483   -9999      14.97621  
2639.8     2.152775   89.56756   46.51123   393.2149   -9999      208.4601   -9999      14.97621  
2640       2.165287   90.18328   46.51256   393.1544   -9999      208.472    -9999      14.97621  
2640.2     2.214207   91.19202   46.5139    393.0938   -9999      208.4838   -9999      14.97621  
2640.4     2.3176     92.47337   46.51523   393.0333   -9999      208.4957   -9999      14.97621  
2640.6     2.400859   92.96999   46.51657   392.9727   -9999      208.5075   -9999      14.9762   
2640.8     2.421057   93.43313   46.5179    392.9122   -9999      208.5194   -9999      14.9762   
2641       2.450405   94.01285   46.51924   392.8516   -9999      208.5312   -9999      14.9762   
2641.2     2.437313   93.99299   46.52057   392.7911   -9999      208.5431   -9999      14.9762   
2641.4     2.396164   92.52054   46.52191   392.7305   -9999      208.555    -9999      14.9762   
2641.6     2.397344   91.07394   46.52324   392.67     -9999      208.5668   -9999      14.9762   
2641.8     2.408619   90.5891    46.52458   392.6094   -9999      208.5787   -9999      14.9762   
2642       2.413255   90.21606   46.52591   392.5489   -9999      208.5906   -9999      14.9762   
2642.2     2.448226   90.63025   46.52725   392.4883   -9999      208.6025   -9999      14.97621  
2642.4     2.520336   92.11945   46.52859   392.4278   -9999      208.6143   -9999      14.97621  
2642.6     2.54615    94.0696    46.52992   392.3672   -9999      208.6262   -9999      14.97621  
2642.8     2.520908   95.14418   46.53126   392.3067   -9999      208.6381   -9999      14.97621  
2643       2.478133   95.04603   46.53259   392.2461   -9999      208.65     -9999      14.97621  
2643.2     2.419656   93.50552   46.53469   392.1509   -9999      208.6687   -9999      14.53182  
2643.4     2.384046   91.0527    46.53756   392.0209   -9999      208.6942   -9999      13.64302  
2643.6     2.358343   88.85406   46.54043   391.8909   -9999      208.7198   -9999      12.75423  
2643.8     2.335117   88.21198   46.54329   391.761    -9999      208.7453   -9999      11.86544  
2644       2.320655   88.14995   46.54616   391.631    -9999      208.7709   -9999      10.97665  
2644.2     2.302441   88.12591   46.54903   391.501    -9999      208.7965   -9999      10.08786  
2644.4     2.269087   87.86146   46.55189   391.3711   -9999      208.8221   -9999      9.199063  
2644.6     2.226699   87.76566   46.55476   391.2411   -9999      208.8477   -9999      8.31027   
2644.8     2.218322   88.04333   46.55762   391.1111   -9999      208.8733   -9999      7.421478  
2645       2.227855   88.31816   46.56126   390.9465   -9999      208.9057   -9999      6.842129  
2645.2     2.254162   87.80296   46.56565   390.7471   -9999      208.9451   -9999      6.572224  
2645.4     2.273075   86.60478   46.57005   390.5477   -9999      208.9845   -9999      6.302318  
2645.6     2.275004   85.65953   46.57445   390.3483   -9999      209.0238   -9999      6.032413  
2645.8     2.267926   85.67565   46.57885   390.1489   -9999      209.0633   -9999      5.762507  
2646       2.267855   86.07133   46.58324   389.9496   -9999      209.1027   -9999      5.492601  
2646.2     2.265079   85.79179   46.58764   389.7502   -9999      209.1422   -9999      5.222696  
2646.4     2.271654   85.02393   46.59204   389.5508   -9999      209.1817   -9999      4.95279   
2646.6     2.252681   84.67815   46.59644   389.3514   -9999      209.2212   -9999      4.682885  
2646.8     2.252676   84.8399    46.60084   389.152    -9999      209.2608   -9999      4.547932  
2647       2.255885   84.93914   46.60523   388.9526   -9999      209.3004   -9999      4.547932  
2647.2     2.242273   85.51733   46.60963   388.7532   -9999      209.34     -9999      4.547932  
2647.4     2.237784   85.96113   46.61403   388.5539   -9999      209.3796   -9999      4.547932  
2647.6     2.237441   86.34148   46.61843   388.3545   -9999      209.4193   -9999      4.547932  
2647.8     2.235858   87.05516   46.62283   388.1551   -9999      209.459    -9999      4.547932  
2648       2.239292   87.50516   46.62722   387.9557   -9999      209.4987   -9999      4.547932  
2648.2     2.245159   87.48578   46.63162   387.7563   -9999      209.5385   -9999      4.547932  
2648.4     2.252987   88.01247   46.63602   387.5569   -9999      209.5783   -9999      4.547932  
2648.6     2.241506   88.31656   46.64042   387.3576   -9999      209.6181   -9999      4.547932  
2648.8     2.231246   88.4854    46.64481   387.1582   -9999      209.6579   -9999      4.547932  
2649       2.224633   88.7258    46.64921   386.9588   -9999      209.6978   -9999      4.547932  
2649.2     2.22309    88.90262   46.65361   386.7594   -9999      209.7377   -9999      4.547931  
2649.4     2.227763   89.03924   46.658     386.56     -9999      209.7776   -9999      4.547931  
2649.6     2.25698    88.97589   46.6624    386.3606   -9999      209.8176   -9999      4.547931  
2649.8     2.277863   88.69292   46.6668    386.1613   -9999      209.8575   -9999      4.547931  
2650       2.280164   88.34671   46.6712    385.9619   -9999      209.8976   -9999      4.547931  
2650.2     2.277844   88.18119   46.67559   385.7625   -9999      209.9376   -9999      4.547931  
2650.4     2.280315   88.21089   46.67999   385.5631   -9999      209.9776   -9999      4.547931  
2650.6     2.290405   88.11734   46.68439   385.3637   -9999      210.0177   -9999      4.547931  
2650.8     2.300897   87.9992    46.68879   385.1643   -9999      210.0579   -9999      4.547931  
2651       2.310867   88.04024   46.69319   384.965    -9999      210.098    -9999      4.547931  
2651.2     2.297211   88.13557   46.69758   384.7656   -9999      210.1382   -9999      4.547931  
2651.4     2.277552   88.56407   46.70198   384.5662   -9999      210.1784   -9999      4.547931  
2651.6     2.27119    89.49009   46.70638   384.3668   -9999      210.2186   -9999      4.547932  
2651.8     2.272771   90.08273   46.71078   384.1674   -9999      210.2589   -9999      4.547932  
2652       2.269451   89.59373   46.71518   383.968    -9999      210.2992   -9999      4.547932  
2652.2     2.272855   88.67655   46.71957   383.7686   -9999      210.3395   -9999      4.547932  
