~Version
 VERS              .         2.0                           : CWLS LOG ASCII STANDARD - VERSION 2.0
 WRAP              .         NO                            : ONE LINE PER DEPTH STEP
 DLM               .         SPACE                         : DELIMITING CHARACTER(SPACE TAB OR COMMA)
~Well Information
#_______________________________________________________________________________
#
#PARAMETER_NAME    .UNIT     VALUE                         : DESCRIPTION
#_______________________________________________________________________________
STRT               .m        936                           : First reference value
STOP               .m        2781                          : Last reference value
STEP               .m        0.2                           : Step increment
NULL               .         -9999                         : Missing value
COMP               .         PETROLEO BRASILEIRO S/A       : Company
WELL               .         1-ESS-37C-ES                  : Well name
FLD                .                                       : Field
LOC                .                                       : Location
CNTY               .                                       : County
STAT               .         ESPIRITO SANTO                : State
CTRY               .                                       : Country
SRVC               .                                       : Service Company
DATE               .                                       : Date
API                .         342710046100                  : API number
EDF                .M        24.00                         : Elevation Derrick Floor
GDAT               .         SIRGAS2000                    : Geodetic Datum
HZCS               .         UTM                           : Horizontal Coordinate System
LMF                .         MR                            : Log Measure From
LATI               .         -19_40_21.926                 : Latitude
LONG               .         -39_28_20.370                 : Longitude
MC                 .         39 W                          : Meridiano Central
ORIG               .         SIGEO EXPORTACAO PERFIL       : Origem dos dados
ORIGINALWELLNAME   .         1ESS 0037C ES                 : 
WDMS               .M        64.00                         : Water Depth to Mean Sea Level
X                  .         450490.60                     : Surface X
Y                  .         7824661.98                    : Surface Y
~Parameter Information Block
#_______________________________________________________________________________
#
#PARAMETER_NAME    .UNIT     VALUE                         : DESCRIPTION
#_______________________________________________________________________________
SET                .         37C_AchillesBR                : 
TLFamily_Densidade_Aparente_Seca .         Bulk Density                  : 
TLFamily_Fração_de_Areia .                                       : 
TLFamily_Idade     .                                       : 
TLFamily_MD        .         Measured Depth                : 
TLFamily_Paleobatimetria_1 .                                       : 
TLFamily_Paleobatimetria_2 .                                       : 
TLFamily_Produtividade_Primária_1 .                                       : 
TLFamily_Produtividade_Primária_2 .                                       : 
TLFamily_Taxa_de_Sedimentação .                                       : 
~Curve Information
#_______________________________________________________________________________
#
#LOGNAME           .UNIT     LOG_ID                        : DESCRIPTION
#_______________________________________________________________________________
MD                 .m                                      :  
Densidade Aparente Seca .g/cm3                                  :  
Fração de Areia    .%                                      :  
Idade              .                                       : [Ma] 
Paleobatimetria_1  .m                                      :  
Paleobatimetria_2  .m                                      :  
Produtividade Primária_1 .                                       : [gC/m²/yr] 
Produtividade Primária_2 .                                       : [gC/m²/yr]  
Taxa de Sedimentação .                                       : [cm/ka] 
~Ascii
# ...
1307.8     -9999      96.81802   23.27989   423.4937   -9999      202.8297   -9999      5.464201  
1308       -9999      96.33127   23.28254   423.752    -9999      202.784    -9999      5.742284  
1308.2     -9999      96.10871   23.28519   424.0101   -9999      202.7385   -9999      6.020366  
1308.4     -9999      96.34866   23.28783   424.2683   -9999      202.6929   -9999      6.298449  
1308.6     -9999      96.52076   23.29048   424.5266   -9999      202.6474   -9999      6.576531  
1308.8     -9999      96.55515   23.29313   424.7847   -9999      202.6019   -9999      6.854613  
1309       -9999      96.62008   23.29578   425.0429   -9999      202.5565   -9999      7.132696  
1309.2     -9999      96.48962   23.29843   425.3011   -9999      202.5111   -9999      7.410778  
1309.4     -9999      96.56039   23.30042   425.4953   -9999      202.477    -9999      7.962397  
1309.6     -9999      96.75294   23.30176   425.6255   -9999      202.4541   -9999      8.787552  
1309.8     -9999      96.46444   23.30309   425.7556   -9999      202.4313   -9999      9.612706  
1310       -9999      96.0584    23.30443   425.8858   -9999      202.4084   -9999      10.43786  
1310.2     -9999      95.97157   23.30577   426.016    -9999      202.3856   -9999      11.26302  
1310.4     -9999      96.19865   23.3071    426.1461   -9999      202.3628   -9999      12.08817  
1310.6     -9999      96.64481   23.30844   426.2763   -9999      202.34     -9999      12.91333  
1310.8     -9999      96.86253   23.30977   426.4065   -9999      202.3172   -9999      13.73848  
1311       -9999      96.65479   23.31111   426.5366   -9999      202.2944   -9999      14.56364  
1311.2     -9999      96.07866   23.31244   426.6668   -9999      202.2716   -9999      14.97621  
1311.4     -9999      95.45905   23.31378   426.7969   -9999      202.2488   -9999      14.97621  
1311.6     -9999      95.70752   23.31511   426.9271   -9999      202.2261   -9999      14.97621  
1311.8     -9999      96.16651   23.31645   427.0573   -9999      202.2033   -9999      14.97621  
1312       -9999      96.2658    23.31779   427.1874   -9999      202.1806   -9999      14.97621  
1312.2     -9999      96.34148   23.31912   427.3176   -9999      202.1578   -9999      14.97621  
1312.4     -9999      96.29752   23.32046   427.4478   -9999      202.1351   -9999      14.97621  
1312.6     -9999      95.81622   23.32179   427.5779   -9999      202.1124   -9999      14.97621  
1312.8     -9999      95.20602   23.32313   427.7081   -9999      202.0897   -9999      14.97621  
1313       -9999      95.059     23.32446   427.8383   -9999      202.067    -9999      14.97621  
1313.2     -9999      95.13436   23.3258    427.9684   -9999      202.0443   -9999      14.97621  
1313.4     -9999      95.42819   23.32713   428.0986   -9999      202.0216   -9999      14.97621  
1313.6     -9999      95.51776   23.32847   428.2288   -9999      201.999    -9999      14.97621  
1313.8     -9999      95.58499   23.3298    428.3589   -9999      201.9763   -9999      14.97621  
1314       -9999      95.24294   23.33114   428.4891   -9999      201.9537   -9999      14.9762   
1314.2     -9999      94.68406   23.33248   428.6192   -9999      201.931    -9999      14.9762   
1314.4     -9999      94.46031   23.33381   428.7494   -9999      201.9084   -9999      14.9762   
1314.6     -9999      94.28679   23.33515   428.8796   -9999      201.8858   -9999      14.9762   
1314.8     -9999      93.78215   23.33693   429.0538   -9999      201.8555   -9999      14.64028  
1315       -9999      93.08255   23.33917   429.2721   -9999      201.8176   -9999      13.96843  
1315.2     -9999      92.67603   23.34141   429.4904   -9999      201.7797   -9999      13.29659  
1315.4     -9999      92.33347   23.34365   429.7087   -9999      201.7419   -9999      12.62474  
1315.6     -9999      92.17287   23.34589   429.927    -9999      201.7041   -9999      11.9529   
1315.8     -9999      92.31216   23.34813   430.1453   -9999      201.6663   -9999      11.28105  
1316       -9999      93.27247   23.35037   430.3636   -9999      201.6285   -9999      10.60921  
1316.2     -9999      94.28845   23.35261   430.5819   -9999      201.5908   -9999      9.937363  
1316.4     -9999      94.64657   23.35485   430.8002   -9999      201.5531   -9999      9.265517  
1316.6     -9999      94.83413   23.35754   431.0626   -9999      201.5078   -9999      8.786909  
1316.8     -9999      94.87151   23.36069   431.369    -9999      201.4549   -9999      8.501537  
1317       -9999      94.72304   23.36383   431.6755   -9999      201.4021   -9999      8.216166  
1317.2     -9999      94.8317    23.36698   431.9819   -9999      201.3494   -9999      7.930794  
1317.4     -9999      95.06312   23.37012   432.2884   -9999      201.2967   -9999      7.645423  
1317.6     -9999      95.10171   23.37326   432.5948   -9999      201.244    -9999      7.360052  
1317.8     -9999      94.87778   23.37641   432.9012   -9999      201.1915   -9999      7.07468   
1318       -9999      94.1915    23.37955   433.2077   -9999      201.1389   -9999      6.789309  
1318.2     -9999      93.41138   23.38269   433.5141   -9999      201.0864   -9999      6.503937  
1318.4     -9999      93.29448   23.38584   433.8206   -9999      201.034    -9999      6.361251  
1318.6     -9999      93.58152   23.38898   434.127    -9999      200.9816   -9999      6.361251  
1318.8     -9999      93.69483   23.39213   434.4334   -9999      200.9293   -9999      6.361251  
1319       -9999      93.98493   23.39527   434.7399   -9999      200.877    -9999      6.361251  
1319.2     -9999      95.28562   23.39842   435.0463   -9999      200.8247   -9999      6.361251  
1319.4     -9999      96.39984   23.40156   435.3528   -9999      200.7726   -9999      6.361251  
1319.6     -9999      96.86103   23.4047    435.6592   -9999      200.7204   -9999      6.361251  
1319.8     -9999      96.71853   23.40785   435.9657   -9999      200.6683   -9999      6.361251  
1320       -9999      95.68442   23.41099   436.2721   -9999      200.6163   -9999      6.361251  
1320.2     -9999      93.91533   23.41414   436.5786   -9999      200.5643   -9999      6.361251  
1320.4     -9999      92.19884   23.41728   436.885    -9999      200.5124   -9999      6.361251  
1320.6     -9999      91.7815    23.42042   437.1914   -9999      200.4605   -9999      6.361251  
1320.8     -9999      91.98365   23.42357   437.4979   -9999      200.4086   -9999      6.361251  
1321       -9999      92.32212   23.42671   437.8043   -9999      200.3568   -9999      6.361251  
1321.2     -9999      92.41695   23.42986   438.1107   -9999      200.3051   -9999      6.361251  
1321.4     -9999      93.10527   23.433     438.4172   -9999      200.2534   -9999      6.361251  
1321.6     -9999      94.11852   23.43614   438.7236   -9999      200.2018   -9999      6.361251  
1321.8     -9999      94.2707    23.43929   439.0301   -9999      200.1502   -9999      6.361251  
1322       -9999      94.29975   23.44243   439.3365   -9999      200.0986   -9999      6.361251  
1322.2     -9999      94.65248   23.44558   439.643    -9999      200.0471   -9999      6.361251  
1322.4     -9999      94.85723   23.44872   439.9494   -9999      199.9957   -9999      6.361251  
1322.6     -9999      94.60747   23.45186   440.2559   -9999      199.9443   -9999      6.361251  
1322.8     -9999      94.07854   23.45501   440.5623   -9999      199.893    -9999      6.361251  
1323       -9999      93.7727    23.45815   440.8687   -9999      199.8417   -9999      6.361251  
1323.2     -9999      93.31416   23.4613    441.1752   -9999      199.7904   -9999      6.361251  
1323.4     -9999      92.7877    23.46444   441.4816   -9999      199.7392   -9999      6.361251  
1323.6     -9999      92.29556   23.46758   441.7881   -9999      199.6881   -9999      6.361251  
1323.8     -9999      91.81586   23.47073   442.0945   -9999      199.637    -9999      6.361251  
