~Version
 VERS              .         2.0                           : CWLS LOG ASCII STANDARD - VERSION 2.0
 WRAP              .         NO                            : ONE LINE PER DEPTH STEP
 DLM               .         SPACE                         : DELIMITING CHARACTER(SPACE TAB OR COMMA)
~Well Information
#_______________________________________________________________________________
#
#PARAMETER_NAME    .UNIT     VALUE                         : DESCRIPTION
#_______________________________________________________________________________
STRT               .m        936                           : First reference value
STOP               .m        2781                          : Last reference value
STEP               .m        0.2                           : Step increment
NULL               .         -9999                         : Missing value
COMP               .         PETROLEO BRASILEIRO S/A       : Company
WELL               .         1-ESS-37C-ES                  : Well name
FLD                .                                       : Field
LOC                .                                       : Location
CNTY               .                                       : County
STAT               .         ESPIRITO SANTO                : State
CTRY               .                                       : Country
SRVC               .                                       : Service Company
DATE               .                                       : Date
API                .         342710046100                  : API number
EDF                .M        24.00                         : Elevation Derrick Floor
GDAT               .         SIRGAS2000                    : Geodetic Datum
HZCS               .         UTM                           : Horizontal Coordinate System
LMF                .         MR                            : Log Measure From
LATI               .         -19_40_21.926                 : Latitude
LONG               .         -39_28_20.370                 : Longitude
MC                 .         39 W                          : Meridiano Central
ORIG               .         SIGEO EXPORTACAO PERFIL       : Origem dos dados
ORIGINALWELLNAME   .         1ESS 0037C ES                 : 
WDMS               .M        64.00                         : Water Depth to Mean Sea Level
X                  .         450490.60                     : Surface X
Y                  .         7824661.98                    : Surface Y
~Parameter Information Block
#_______________________________________________________________________________
#
#PARAMETER_NAME    .UNIT     VALUE                         : DESCRIPTION
#_______________________________________________________________________________
SET                .         37C_AchillesBR                : 
TLFamily_Densidade_Aparente_Seca .         Bulk Density                  : 
TLFamily_Fração_de_Areia .                                       : 
TLFamily_Idade     .                                       : 
TLFamily_MD        .         Measured Depth                : 
TLFamily_Paleobatimetria_1 .                                       : 
TLFamily_Paleobatimetria_2 .                                       : 
TLFamily_Produtividade_Primária_1 .                                       : 
TLFamily_Produtividade_Primária_2 .                                       : 
TLFamily_Taxa_de_Sedimentação .                                       : 
~Curve Information
#_______________________________________________________________________________
#
#LOGNAME           .UNIT     LOG_ID                        : DESCRIPTION
#_______________________________________________________________________________
MD                 .m                                      :  
Densidade Aparente Seca .g/cm3                                  :  
Fração de Areia    .%                                      :  
Idade              .                                       : [Ma] 
Paleobatimetria_1  .m                                      :  
Paleobatimetria_2  .m                                      :  
Produtividade Primária_1 .                                       : [gC/m²/yr] 
Produtividade Primária_2 .                                       : [gC/m²/yr]  
Taxa de Sedimentação .                                       : [cm/ka] 
~Ascii
# ...
2765.8     2.177747   90.64394   48.72545   292.8237   -9999      232.422    -9999      13.81103  
2766       2.170545   90.55992   48.7269    292.758    -9999      232.4412   -9999      13.81103  
2766.2     2.177625   90.8865    48.72835   292.6924   -9999      232.4604   -9999      13.81103  
2766.4     2.174508   91.52467   48.72979   292.6267   -9999      232.4797   -9999      13.81103  
2766.6     2.186522   91.7733    48.73124   292.561    -9999      232.4989   -9999      13.81102  
2766.8     2.205241   91.72407   48.73269   292.4954   -9999      232.5182   -9999      13.81102  
2767       2.197341   91.66633   48.73414   292.4297   -9999      232.5375   -9999      13.81102  
2767.2     2.191862   91.3269    48.73559   292.3641   -9999      232.5567   -9999      13.81102  
2767.4     2.195778   91.12816   48.73917   292.2015   -9999      232.6045   -9999      13.23785  
2767.6     2.19117    91.12095   48.7449    291.942    -9999      232.6808   -9999      12.09152  
2767.8     2.194183   90.894     48.75062   291.6824   -9999      232.7572   -9999      10.94519  
2768       2.184825   90.76711   48.75635   291.4229   -9999      232.8337   -9999      9.798856  
2768.2     2.204347   90.59501   48.76207   291.1634   -9999      232.9103   -9999      8.652522  
2768.4     2.211968   90.27409   48.7678    290.9038   -9999      232.9869   -9999      7.506189  
2768.6     2.213268   89.85495   48.77352   290.6443   -9999      233.0637   -9999      6.359857  
2768.8     2.214373   89.76219   48.77924   290.3848   -9999      233.1406   -9999      5.213523  
2769       2.208823   90.02156   48.78497   290.1253   -9999      233.2175   -9999      4.067191  
2769.2     2.19095    89.91628   48.79283   289.7688   -9999      233.3234   -9999      3.411023  
2769.4     2.180289   89.61787   48.80283   289.3154   -9999      233.4583   -9999      3.24502   
2769.6     2.170242   89.44759   48.81283   288.862    -9999      233.5934   -9999      3.079017  
2769.8     2.19797    89.3871    48.82283   288.4086   -9999      233.7289   -9999      2.913015  
2770       2.192317   89.51994   48.83283   287.9553   -9999      233.8647   -9999      2.747012  
2770.2     2.218077   89.94948   48.84283   287.5019   -9999      234.0007   -9999      2.581009  
2770.4     2.275241   90.12466   48.85283   287.0485   -9999      234.1371   -9999      2.415007  
2770.6     2.295839   89.44254   48.86283   286.5951   -9999      234.2738   -9999      2.249004  
2770.8     2.267998   89.07881   48.87283   286.1417   -9999      234.4107   -9999      2.083001  
2771       2.248862   88.80362   48.88283   285.6883   -9999      234.5479   -9999      2         
2771.2     2.242036   87.83999   48.89283   285.2349   -9999      234.6855   -9999      2         
2771.4     2.239532   87.82756   48.90283   284.7815   -9999      234.8233   -9999      2         
2771.6     2.224763   89.02697   48.91283   284.3281   -9999      234.9615   -9999      2         
2771.8     2.217763   89.94173   48.92283   283.8747   -9999      235.0999   -9999      2         
2772       2.238759   90.21035   48.93283   283.4213   -9999      235.2387   -9999      2         
2772.2     2.212148   90.02852   48.94283   282.9679   -9999      235.3777   -9999      2         
2772.4     2.172639   89.71507   48.95283   282.5146   -9999      235.5171   -9999      2         
2772.6     2.193745   89.37513   48.96283   282.0612   -9999      235.6567   -9999      2         
2772.8     2.244474   89.17799   48.97283   281.6078   -9999      235.7967   -9999      2         
2773       2.27418    89.32087   48.98283   281.1544   -9999      235.937    -9999      2         
2773.2     2.287137   89.83636   48.99283   280.701    -9999      236.0776   -9999      2         
2773.4     2.305161   90.34566   49.00283   280.2476   -9999      236.2185   -9999      2         
2773.6     2.306209   90.77203   49.01283   279.7942   -9999      236.3597   -9999      2         
2773.8     2.291608   91.45555   49.02283   279.3408   -9999      236.5012   -9999      2         
2774       2.305802   92.40813   49.03283   278.8874   -9999      236.6431   -9999      2         
2774.2     2.292384   92.94006   49.04283   278.434    -9999      236.7852   -9999      2         
2774.4     2.28785    92.91193   49.05283   277.9806   -9999      236.9277   -9999      2         
2774.6     2.287189   92.60896   49.06283   277.5272   -9999      237.0705   -9999      2         
2774.8     2.283923   92.43024   49.07283   277.0739   -9999      237.2136   -9999      2         
2775       2.283595   92.33221   49.08283   276.6205   -9999      237.357    -9999      2         
2775.2     2.289807   92.36755   49.09283   276.1671   -9999      237.5008   -9999      2         
2775.4     2.292896   92.4057    49.10283   275.7137   -9999      237.6449   -9999      2         
2775.6     2.313866   92.18802   49.11283   275.2603   -9999      237.7893   -9999      2         
2775.8     2.332237   91.89268   49.12283   274.8069   -9999      237.934    -9999      2         
2776       2.344446   92.15413   49.13283   274.3535   -9999      238.0791   -9999      2         
2776.2     2.348753   92.63619   49.14283   273.9001   -9999      238.2245   -9999      2         
2776.4     2.343985   92.8526    49.15283   273.4467   -9999      238.3702   -9999      2         
2776.6     2.34916    93.15473   49.16283   272.9933   -9999      238.5162   -9999      2         
2776.8     2.375105   93.75532   49.17283   272.5399   -9999      238.6626   -9999      2         
2777       2.393024   94.54235   49.18283   272.0865   -9999      238.8093   -9999      2         
2777.2     2.396451   95.41948   49.19283   271.6331   -9999      238.9564   -9999      2         
2777.4     2.35274    95.86109   49.20283   271.1797   -9999      239.1038   -9999      2         
2777.6     2.275127   95.57375   49.21283   270.7263   -9999      239.2515   -9999      2         
2777.8     2.194056   94.28064   49.22283   270.2729   -9999      239.3995   -9999      2         
2778       2.234498   93.43281   49.23283   269.8196   -9999      239.5479   -9999      2         
2778.2     2.303812   93.91015   49.2412    269.44     -9999      239.6725   -9999      2.053631  
2778.4     2.348813   94.69261   49.24794   269.1342   -9999      239.7729   -9999      2.160893  
2778.6     2.350089   95.09435   49.25469   268.8284   -9999      239.8736   -9999      2.268155  
2778.8     2.338252   95.08257   49.26143   268.5226   -9999      239.9743   -9999      2.375417  
2779       2.328466   94.72385   49.26818   268.2168   -9999      240.0753   -9999      2.482679  
2779.2     2.317234   94.49066   49.27492   267.911    -9999      240.1764   -9999      2.589941  
2779.4     2.302676   94.47696   49.28167   267.6052   -9999      240.2777   -9999      2.697202  
2779.6     2.298044   94.30145   49.28841   267.2994   -9999      240.3791   -9999      2.804464  
2779.8     2.292113   94.01025   49.29516   266.9936   -9999      240.4807   -9999      2.911726  
2780       2.265466   93.87177   49.3019    266.6878   -9999      240.5824   -9999      2.965357  
2780.2     2.296144   93.74062   49.30865   266.382    -9999      240.6843   -9999      2.965357  
2780.4     2.330075   94.07385   49.31539   266.0763   -9999      240.7864   -9999      2.965357  
2780.6     2.376715   94.7139    49.32214   265.7705   -9999      240.8886   -9999      2.965357  
2780.8     2.395806   94.94461   49.32888   265.4647   265.4647   240.991    240.991    2.965357  
2781       -9999      -9999      -9999      -9999      -9999      -9999      -9999      -9999     
