~Version
 VERS              .         2.0                           : CWLS LOG ASCII STANDARD - VERSION 2.0
 WRAP              .         NO                            : ONE LINE PER DEPTH STEP
 DLM               .         SPACE                         : DELIMITING CHARACTER(SPACE TAB OR COMMA)
~Well Information
#_______________________________________________________________________________
#
#PARAMETER_NAME    .UNIT     VALUE                         : DESCRIPTION
#_______________________________________________________________________________
STRT               .m        936                           : First reference value
STOP               .m        2781                          : Last reference value
STEP               .m        0.2                           : Step increment
NULL               .         -9999                         : Missing value
COMP               .         PETROLEO BRASILEIRO S/A       : Company
WELL               .         1-ESS-37C-ES                  : Well name
FLD                .                                       : Field
LOC                .                                       : Location
CNTY               .                                       : County
STAT               .         ESPIRITO SANTO                : State
CTRY               .                                       : Country
SRVC               .                                       : Service Company
DATE               .                                       : Date
API                .         342710046100                  : API number
EDF                .M        24.00                         : Elevation Derrick Floor
GDAT               .         SIRGAS2000                    : Geodetic Datum
HZCS               .         UTM                           : Horizontal Coordinate System
LMF                .         MR                            : Log Measure From
LATI               .         -19_40_21.926                 : Latitude
LONG               .         -39_28_20.370                 : Longitude
MC                 .         39 W                          : Meridiano Central
ORIG               .         SIGEO EXPORTACAO PERFIL       : Origem dos dados
ORIGINALWELLNAME   .         1ESS 0037C ES                 : 
WDMS               .M        64.00                         : Water Depth to Mean Sea Level
X                  .         450490.60                     : Surface X
Y                  .         7824661.98                    : Surface Y
~Parameter Information Block
#_______________________________________________________________________________
#
#PARAMETER_NAME    .UNIT     VALUE                         : DESCRIPTION
#_______________________________________________________________________________
SET                .         37C_AchillesBR                : 
TLFamily_Densidade_Aparente_Seca .         Bulk Density                  : 
TLFamily_Fração_de_Areia .                                       : 
TLFamily_Idade     .                                       : 
TLFamily_MD        .         Measured Depth                : 
TLFamily_Paleobatimetria_1 .                                       : 
TLFamily_Paleobatimetria_2 .                                       : 
TLFamily_Produtividade_Primária_1 .                                       : 
TLFamily_Produtividade_Primária_2 .                                       : 
TLFamily_Taxa_de_Sedimentação .                                       : 
~Curve Information
#_______________________________________________________________________________
#
#LOGNAME           .UNIT     LOG_ID                        : DESCRIPTION
#_______________________________________________________________________________
MD                 .m                                      :  
Densidade Aparente Seca .g/cm3                                  :  
Fração de Areia    .%                                      :  
Idade              .                                       : [Ma] 
Paleobatimetria_1  .m                                      :  
Paleobatimetria_2  .m                                      :  
Produtividade Primária_1 .                                       : [gC/m²/yr] 
Produtividade Primária_2 .                                       : [gC/m²/yr]  
Taxa de Sedimentação .                                       : [cm/ka] 
~Ascii
# ...
2036.8     -9999      92.12685   36.00464   230.2283   -9999      253.9974   -9999      4.547932  
2037       -9999      93.89514   36.00904   230.03     -9999      254.0782   -9999      4.547932  
2037.2     -9999      94.70239   36.01344   229.8316   -9999      254.1591   -9999      4.547932  
2037.4     -9999      94.85503   36.01783   229.6332   -9999      254.2401   -9999      4.547932  
2037.6     -9999      94.05878   36.02223   229.4348   -9999      254.3212   -9999      4.547932  
2037.8     -9999      92.68262   36.02663   229.2365   -9999      254.4025   -9999      4.547932  
2038       -9999      90.9135    36.03103   229.0381   -9999      254.4837   -9999      4.547932  
2038.2     -9999      89.55939   36.03542   228.8397   -9999      254.5652   -9999      4.547932  
2038.4     -9999      90.24958   36.03984   228.6408   -9999      254.6469   -9999      4.54647   
2038.6     -9999      91.83999   36.04426   228.4412   -9999      254.729    -9999      4.543547  
2038.8     -9999      93.43709   36.04868   228.2417   -9999      254.8111   -9999      4.540623  
2039       -9999      94.97845   36.0531    228.0422   -9999      254.8934   -9999      4.5377    
2039.2     -9999      95.93436   36.05753   227.8427   -9999      254.9758   -9999      4.534776  
2039.4     -9999      96.12772   36.06195   227.6431   -9999      255.0582   -9999      4.531852  
2039.6     -9999      95.47349   36.06638   227.4436   -9999      255.1408   -9999      4.528929  
2039.8     -9999      94.09999   36.0708    227.2441   -9999      255.2235   -9999      4.526005  
2040       -9999      91.16911   36.07522   227.0445   -9999      255.3062   -9999      4.523082  
2040.2     -9999      88.34516   36.07964   226.845    -9999      255.3891   -9999      4.52162   
2040.4     -9999      86.47722   36.08407   226.6455   -9999      255.4721   -9999      4.52162   
2040.6     -9999      85.74419   36.08849   226.446    -9999      255.5551   -9999      4.52162   
2040.8     -9999      86.29253   36.09291   226.2464   -9999      255.6383   -9999      4.52162   
2041       -9999      86.72441   36.09734   226.0469   -9999      255.7216   -9999      4.52162   
2041.2     -9999      87.62148   36.10176   225.8474   -9999      255.8049   -9999      4.52162   
2041.4     -9999      88.05615   36.10618   225.6478   -9999      255.8884   -9999      4.52162   
2041.6     -9999      88.26107   36.11061   225.4483   -9999      255.972    -9999      4.52162   
2041.8     -9999      88.61854   36.11503   225.2488   -9999      256.0556   -9999      4.52162   
2042       -9999      89.21968   36.11944   225.0498   -9999      256.1392   -9999      4.523082  
2042.2     -9999      89.71871   36.12384   224.8515   -9999      256.2225   -9999      4.526005  
2042.4     -9999      90.02557   36.12823   224.6531   -9999      256.306    -9999      4.528929  
2042.6     -9999      90.23632   36.13263   224.4547   -9999      256.3896   -9999      4.531852  
2042.8     -9999      90.78084   36.13703   224.2563   -9999      256.4733   -9999      4.534776  
2043       -9999      90.8959    36.14143   224.058    -9999      256.5571   -9999      4.5377    
2043.2     -9999      90.7457    36.14582   223.8596   -9999      256.641    -9999      4.540623  
2043.4     -9999      90.50742   36.15022   223.6612   -9999      256.725    -9999      4.543547  
2043.6     -9999      90.18363   36.15462   223.4628   -9999      256.8091   -9999      4.54647   
2043.8     -9999      90.12228   36.15902   223.2645   -9999      256.8933   -9999      4.547932  
2044       -9999      89.62526   36.16341   223.0661   -9999      256.9776   -9999      4.547932  
2044.2     -9999      89.35625   36.16781   222.8677   -9999      257.062    -9999      4.547932  
2044.4     -9999      89.51604   36.17221   222.6694   -9999      257.1465   -9999      4.547931  
2044.6     -9999      89.79151   36.17661   222.471    -9999      257.2311   -9999      4.547931  
2044.8     -9999      89.76785   36.18101   222.2726   -9999      257.3158   -9999      4.547931  
2045       -9999      89.7275    36.1854    222.0742   -9999      257.4006   -9999      4.547931  
2045.2     -9999      90.189     36.1898    221.8759   -9999      257.4855   -9999      4.547931  
2045.4     -9999      90.66959   36.1942    221.6775   -9999      257.5706   -9999      4.547931  
2045.6     -9999      91.14078   36.1986    221.4791   -9999      257.6557   -9999      4.547931  
2045.8     -9999      91.07614   36.203     221.2807   -9999      257.7409   -9999      4.547931  
2046       -9999      90.87505   36.20739   221.0824   -9999      257.8263   -9999      4.547931  
2046.2     -9999      90.99815   36.21179   220.884    -9999      257.9117   -9999      4.547931  
2046.4     -9999      91.30199   36.21619   220.6856   -9999      257.9973   -9999      4.547931  
2046.6     -9999      91.34672   36.22058   220.4872   -9999      258.0829   -9999      4.547931  
2046.8     -9999      91.12121   36.22498   220.2889   -9999      258.1687   -9999      4.547932  
2047       -9999      91.25184   36.22938   220.0905   -9999      258.2545   -9999      4.547932  
2047.2     -9999      91.31803   36.23378   219.8921   -9999      258.3405   -9999      4.547932  
2047.4     -9999      91.47251   36.23952   219.6331   -9999      258.4529   -9999      4.452107  
2047.6     -9999      91.76239   36.2466    219.3136   -9999      258.5918   -9999      4.260459  
2047.8     -9999      91.55347   36.25369   218.994    -9999      258.731    -9999      4.06881   
2048       -9999      91.91353   36.26077   218.6744   -9999      258.8705   -9999      3.877162  
2048.2     -9999      92.78065   36.26786   218.3549   -9999      259.0103   -9999      3.685513  
2048.4     -9999      93.45808   36.27494   218.0353   -9999      259.1504   -9999      3.493865  
2048.6     -9999      94.63075   36.28202   217.7157   -9999      259.2907   -9999      3.302217  
2048.8     -9999      95.96076   36.28911   217.3961   -9999      259.4314   -9999      3.110568  
2049       -9999      96.89568   36.29619   217.0766   -9999      259.5723   -9999      2.91892   
2049.2     -9999      96.64733   36.30462   216.6964   -9999      259.7403   -9999      2.779969  
2049.4     -9999      95.2942    36.31439   216.2556   -9999      259.9355   -9999      2.693717  
2049.6     -9999      93.5318    36.32417   215.8148   -9999      260.1313   -9999      2.607464  
2049.8     -9999      91.79092   36.33393   215.3741   -9999      260.3277   -9999      2.521212  
2050       -9999      91.01138   36.3437    214.9333   -9999      260.5247   -9999      2.434959  
2050.2     -9999      90.75047   36.35348   214.4925   -9999      260.7221   -9999      2.348706  
2050.4     -9999      91.15344   36.36325   214.0517   -9999      260.9202   -9999      2.262454  
2050.6     -9999      92.10825   36.37302   213.611    -9999      261.1188   -9999      2.176201  
2050.8     -9999      92.81423   36.38279   213.1702   -9999      261.3179   -9999      2.089949  
2051       -9999      93.09947   36.39256   212.7294   -9999      261.5176   -9999      2.046823  
2051.2     -9999      93.04782   36.40233   212.2886   -9999      261.7179   -9999      2.046823  
2051.4     -9999      92.9738    36.41211   211.8479   -9999      261.9188   -9999      2.046823  
2051.6     -9999      93.05468   36.42188   211.4071   -9999      262.1202   -9999      2.046823  
2051.8     -9999      92.77507   36.43165   210.9663   -9999      262.3222   -9999      2.046823  
2052       -9999      92.22231   36.44142   210.5255   -9999      262.5248   -9999      2.046823  
2052.2     -9999      91.04809   36.45119   210.0848   -9999      262.728    -9999      2.046823  
2052.4     -9999      90.00066   36.46096   209.644    -9999      262.9317   -9999      2.046823  
2052.6     -9999      88.89951   36.47073   209.2032   -9999      263.1361   -9999      2.046823  
2052.8     -9999      87.9417    36.4805    208.7624   -9999      263.341    -9999      2.046823  
