~Version
 VERS              .         2.0                           : CWLS LOG ASCII STANDARD - VERSION 2.0
 WRAP              .         NO                            : ONE LINE PER DEPTH STEP
 DLM               .         SPACE                         : DELIMITING CHARACTER(SPACE TAB OR COMMA)
~Well Information
#_______________________________________________________________________________
#
#PARAMETER_NAME    .UNIT     VALUE                         : DESCRIPTION
#_______________________________________________________________________________
STRT               .m        936                           : First reference value
STOP               .m        2781                          : Last reference value
STEP               .m        0.2                           : Step increment
NULL               .         -9999                         : Missing value
COMP               .         PETROLEO BRASILEIRO S/A       : Company
WELL               .         1-ESS-37C-ES                  : Well name
FLD                .                                       : Field
LOC                .                                       : Location
CNTY               .                                       : County
STAT               .         ESPIRITO SANTO                : State
CTRY               .                                       : Country
SRVC               .                                       : Service Company
DATE               .                                       : Date
API                .         342710046100                  : API number
EDF                .M        24.00                         : Elevation Derrick Floor
GDAT               .         SIRGAS2000                    : Geodetic Datum
HZCS               .         UTM                           : Horizontal Coordinate System
LMF                .         MR                            : Log Measure From
LATI               .         -19_40_21.926                 : Latitude
LONG               .         -39_28_20.370                 : Longitude
MC                 .         39 W                          : Meridiano Central
ORIG               .         SIGEO EXPORTACAO PERFIL       : Origem dos dados
ORIGINALWELLNAME   .         1ESS 0037C ES                 : 
WDMS               .M        64.00                         : Water Depth to Mean Sea Level
X                  .         450490.60                     : Surface X
Y                  .         7824661.98                    : Surface Y
~Parameter Information Block
#_______________________________________________________________________________
#
#PARAMETER_NAME    .UNIT     VALUE                         : DESCRIPTION
#_______________________________________________________________________________
SET                .         37C_AchillesBR                : 
TLFamily_Densidade_Aparente_Seca .         Bulk Density                  : 
TLFamily_Fração_de_Areia .                                       : 
TLFamily_Idade     .                                       : 
TLFamily_MD        .         Measured Depth                : 
TLFamily_Paleobatimetria_1 .                                       : 
TLFamily_Paleobatimetria_2 .                                       : 
TLFamily_Produtividade_Primária_1 .                                       : 
TLFamily_Produtividade_Primária_2 .                                       : 
TLFamily_Taxa_de_Sedimentação .                                       : 
~Curve Information
#_______________________________________________________________________________
#
#LOGNAME           .UNIT     LOG_ID                        : DESCRIPTION
#_______________________________________________________________________________
MD                 .m                                      :  
Densidade Aparente Seca .g/cm3                                  :  
Fração de Areia    .%                                      :  
Idade              .                                       : [Ma] 
Paleobatimetria_1  .m                                      :  
Paleobatimetria_2  .m                                      :  
Produtividade Primária_1 .                                       : [gC/m²/yr] 
Produtividade Primária_2 .                                       : [gC/m²/yr]  
Taxa de Sedimentação .                                       : [cm/ka] 
~Ascii
# ...
1064.8     -9999      93.15362   19.45296   144.844    -9999      301.3801   -9999      14.97621  
1065       -9999      93.69743   19.4543    144.7438   -9999      301.4571   -9999      14.97621  
1065.2     -9999      93.624     19.45563   144.6436   -9999      301.5341   -9999      14.97621  
1065.4     -9999      92.64771   19.45697   144.5435   -9999      301.6112   -9999      14.97621  
1065.6     -9999      91.89352   19.4583    144.4433   -9999      301.6884   -9999      14.9762   
1065.8     -9999      91.77837   19.45964   144.3431   -9999      301.7657   -9999      14.9762   
1066       -9999      91.713     19.46097   144.2429   -9999      301.843    -9999      14.9762   
1066.2     -9999      91.4203    19.46231   144.1428   -9999      301.9204   -9999      14.9762   
1066.4     -9999      91.29113   19.46364   144.0426   -9999      301.9979   -9999      14.9762   
1066.6     -9999      91.27796   19.46498   143.9424   -9999      302.0755   -9999      14.9762   
1066.8     -9999      92.24534   19.46631   143.8423   -9999      302.1531   -9999      14.9762   
1067       -9999      93.84725   19.46765   143.7421   -9999      302.2308   -9999      14.9762   
1067.2     -9999      94.12717   19.46899   143.6419   -9999      302.3086   -9999      14.97621  
1067.4     -9999      93.58447   19.47032   143.5417   -9999      302.3864   -9999      14.97621  
1067.6     -9999      92.13271   19.47166   143.4416   -9999      302.4644   -9999      14.97621  
1067.8     -9999      90.88538   19.47299   143.3414   -9999      302.5424   -9999      14.97621  
1068       -9999      90.60344   19.47433   143.2412   -9999      302.6205   -9999      14.97621  
1068.2     -9999      91.21984   19.47566   143.141    -9999      302.6986   -9999      14.97621  
1068.4     -9999      92.09326   19.477     143.0409   -9999      302.7768   -9999      14.97621  
1068.6     -9999      92.93494   19.47833   142.9407   -9999      302.8551   -9999      14.97621  
1068.8     -9999      93.61786   19.47967   142.8405   -9999      302.9335   -9999      14.97621  
1069       -9999      93.6529    19.481     142.7404   -9999      303.012    -9999      14.97621  
1069.2     -9999      93.10081   19.48234   142.6402   -9999      303.0905   -9999      14.9762   
1069.4     -9999      91.6536    19.48368   142.54     -9999      303.1691   -9999      14.9762   
1069.6     -9999      90.319     19.48501   142.4398   -9999      303.2478   -9999      14.9762   
1069.8     -9999      89.83544   19.48635   142.3397   -9999      303.3265   -9999      14.9762   
1070       -9999      90.45808   19.48768   142.2395   -9999      303.4054   -9999      14.9762   
1070.2     -9999      91.3949    19.48902   142.1393   -9999      303.4843   -9999      14.9762   
1070.4     -9999      92.43169   19.49035   142.0391   -9999      303.5632   -9999      14.9762   
1070.6     -9999      92.79473   19.49169   141.939    -9999      303.6423   -9999      14.9762   
1070.8     -9999      92.31944   19.49302   141.8388   -9999      303.7214   -9999      14.97621  
1071       -9999      91.56647   19.49436   141.7386   -9999      303.8007   -9999      14.97621  
1071.2     -9999      91.08569   19.4957    141.6385   -9999      303.8799   -9999      14.97621  
1071.4     -9999      91.25942   19.49703   141.5383   -9999      303.9593   -9999      14.97621  
1071.6     -9999      91.52406   19.49837   141.4381   -9999      304.0388   -9999      14.97621  
1071.8     -9999      91.60582   19.50047   141.2805   -9999      304.1639   -9999      14.53182  
1072       -9999      91.83415   19.50333   141.0655   -9999      304.3349   -9999      13.64302  
1072.2     -9999      91.93202   19.5062    140.8505   -9999      304.5063   -9999      12.75423  
1072.4     -9999      91.89028   19.50907   140.6355   -9999      304.6781   -9999      11.86544  
1072.6     -9999      92.13408   19.51193   140.4204   -9999      304.8502   -9999      10.97665  
1072.8     -9999      92.58475   19.5148    140.2054   -9999      305.0227   -9999      10.08786  
1073       -9999      92.2737    19.51767   139.9904   -9999      305.1955   -9999      9.199063  
1073.2     -9999      91.31825   19.52053   139.7754   -9999      305.3687   -9999      8.31027   
1073.4     -9999      90.61575   19.5234    139.5604   -9999      305.5423   -9999      7.421478  
1073.6     -9999      90.3718    19.52703   139.2879   -9999      305.7628   -9999      6.842129  
1073.8     -9999      90.22301   19.53143   138.9581   -9999      306.0305   -9999      6.572224  
1074       -9999      89.97865   19.53583   138.6282   -9999      306.299    -9999      6.302318  
1074.2     -9999      90.01736   19.54022   138.2983   -9999      306.5685   -9999      6.032413  
1074.4     -9999      90.62855   19.54462   137.9685   -9999      306.8388   -9999      5.762507  
1074.6     -9999      91.41975   19.54902   137.6386   -9999      307.11     -9999      5.492601  
1074.8     -9999      92.12462   19.55342   137.3087   -9999      307.3822   -9999      5.222696  
1075       -9999      92.6208    19.55782   136.9789   -9999      307.6552   -9999      4.95279   
1075.2     -9999      92.64346   19.56221   136.649    -9999      307.9291   -9999      4.682885  
1075.4     -9999      92.44229   19.56661   136.3191   -9999      308.2039   -9999      4.547932  
1075.6     -9999      91.94891   19.57101   135.9893   -9999      308.4796   -9999      4.547932  
1075.8     -9999      91.46008   19.57541   135.6594   -9999      308.7563   -9999      4.547932  
1076       -9999      91.29333   19.5798    135.3295   -9999      309.0339   -9999      4.547932  
1076.2     -9999      91.25768   19.5842    134.9997   -9999      309.3124   -9999      4.547932  
1076.4     -9999      91.48082   19.5886    134.6698   -9999      309.5918   -9999      4.547932  
1076.6     -9999      91.62246   19.59299   134.3399   -9999      309.8722   -9999      4.547932  
1076.8     -9999      91.52763   19.59739   134.0101   -9999      310.1535   -9999      4.547932  
1077       -9999      91.31194   19.60179   133.6802   -9999      310.4358   -9999      4.547932  
1077.2     -9999      91.06807   19.60619   133.3503   -9999      310.719    -9999      4.547932  
1077.4     -9999      90.99976   19.61059   133.0205   -9999      311.0032   -9999      4.547932  
1077.6     -9999      91.0928    19.61498   132.6906   -9999      311.2883   -9999      4.547932  
1077.8     -9999      91.11339   19.61938   132.3607   -9999      311.5744   -9999      4.547931  
1078       -9999      91.21561   19.62378   132.0309   -9999      311.8615   -9999      4.547931  
1078.2     -9999      91.14449   19.62818   131.701    -9999      312.1496   -9999      4.547931  
1078.4     -9999      91.14201   19.63257   131.3712   -9999      312.4387   -9999      4.547931  
1078.6     -9999      91.31388   19.63697   131.0413   -9999      312.7288   -9999      4.547931  
1078.8     -9999      91.51987   19.64137   130.7114   -9999      313.0198   -9999      4.547931  
1079       -9999      91.51694   19.64577   130.3816   -9999      313.3119   -9999      4.547931  
1079.2     -9999      90.97091   19.65016   130.0517   -9999      313.605    -9999      4.547931  
1079.4     -9999      90.52892   19.65456   129.7218   -9999      313.8991   -9999      4.547931  
1079.6     -9999      90.24521   19.65896   129.392    -9999      314.1942   -9999      4.547931  
1079.8     -9999      90.40312   19.66336   129.0621   -9999      314.4904   -9999      4.547931  
1080       -9999      91.33464   19.66776   128.7322   -9999      314.7876   -9999      4.547931  
1080.2     -9999      92.07543   19.67215   128.4024   -9999      315.0858   -9999      4.547932  
1080.4     -9999      91.87514   19.67655   128.0725   -9999      315.3852   -9999      4.547932  
1080.6     -9999      91.08655   19.68095   127.7426   -9999      315.6855   -9999      4.547932  
1080.8     -9999      90.67446   19.68534   127.4128   -9999      315.9869   -9999      4.547932  
