~Version
 VERS              .         2.0                           : CWLS LOG ASCII STANDARD - VERSION 2.0
 WRAP              .         NO                            : ONE LINE PER DEPTH STEP
 DLM               .         SPACE                         : DELIMITING CHARACTER(SPACE TAB OR COMMA)
~Well Information
#_______________________________________________________________________________
#
#PARAMETER_NAME    .UNIT     VALUE                         : DESCRIPTION
#_______________________________________________________________________________
STRT               .m        936                           : First reference value
STOP               .m        2781                          : Last reference value
STEP               .m        0.2                           : Step increment
NULL               .         -9999                         : Missing value
COMP               .         PETROLEO BRASILEIRO S/A       : Company
WELL               .         1-ESS-37C-ES                  : Well name
FLD                .                                       : Field
LOC                .                                       : Location
CNTY               .                                       : County
STAT               .         ESPIRITO SANTO                : State
CTRY               .                                       : Country
SRVC               .                                       : Service Company
DATE               .                                       : Date
API                .         342710046100                  : API number
EDF                .M        24.00                         : Elevation Derrick Floor
GDAT               .         SIRGAS2000                    : Geodetic Datum
HZCS               .         UTM                           : Horizontal Coordinate System
LMF                .         MR                            : Log Measure From
LATI               .         -19_40_21.926                 : Latitude
LONG               .         -39_28_20.370                 : Longitude
MC                 .         39 W                          : Meridiano Central
ORIG               .         SIGEO EXPORTACAO PERFIL       : Origem dos dados
ORIGINALWELLNAME   .         1ESS 0037C ES                 : 
WDMS               .M        64.00                         : Water Depth to Mean Sea Level
X                  .         450490.60                     : Surface X
Y                  .         7824661.98                    : Surface Y
~Parameter Information Block
#_______________________________________________________________________________
#
#PARAMETER_NAME    .UNIT     VALUE                         : DESCRIPTION
#_______________________________________________________________________________
SET                .         37C_AchillesBR                : 
TLFamily_Densidade_Aparente_Seca .         Bulk Density                  : 
TLFamily_Fração_de_Areia .                                       : 
TLFamily_Idade     .                                       : 
TLFamily_MD        .         Measured Depth                : 
TLFamily_Paleobatimetria_1 .                                       : 
TLFamily_Paleobatimetria_2 .                                       : 
TLFamily_Produtividade_Primária_1 .                                       : 
TLFamily_Produtividade_Primária_2 .                                       : 
TLFamily_Taxa_de_Sedimentação .                                       : 
~Curve Information
#_______________________________________________________________________________
#
#LOGNAME           .UNIT     LOG_ID                        : DESCRIPTION
#_______________________________________________________________________________
MD                 .m                                      :  
Densidade Aparente Seca .g/cm3                                  :  
Fração de Areia    .%                                      :  
Idade              .                                       : [Ma] 
Paleobatimetria_1  .m                                      :  
Paleobatimetria_2  .m                                      :  
Produtividade Primária_1 .                                       : [gC/m²/yr] 
Produtividade Primária_2 .                                       : [gC/m²/yr]  
Taxa de Sedimentação .                                       : [cm/ka] 
~Ascii
# ...
1664.2     -9999      86.32011   27.9694    656.6813   -9999      172.51     -9999      2.046823  
1664.4     -9999      86.42185   27.97917   656.897    -9999      172.4891   -9999      2.046823  
1664.6     -9999      86.6817    27.98894   657.1126   -9999      172.4682   -9999      2.046823  
1664.8     -9999      87.17136   27.99871   657.3283   -9999      172.4473   -9999      2.046823  
1665       -9999      87.36383   28.00849   657.5439   -9999      172.4264   -9999      2.046823  
1665.2     -9999      87.29887   28.01826   657.7596   -9999      172.4055   -9999      2.046823  
1665.4     -9999      87.57423   28.02803   657.9752   -9999      172.3847   -9999      2.046823  
1665.6     -9999      87.7207    28.0378    658.1909   -9999      172.3638   -9999      2.046823  
1665.8     -9999      87.86417   28.04757   658.4065   -9999      172.343    -9999      2.046823  
1666       -9999      88.22877   28.05734   658.6221   -9999      172.3222   -9999      2.046823  
1666.2     -9999      88.0473    28.06711   658.8378   -9999      172.3013   -9999      2.046823  
1666.4     -9999      87.18938   28.07688   659.0534   -9999      172.2805   -9999      2.046823  
1666.6     -9999      86.96001   28.08665   659.269    -9999      172.2597   -9999      2.046823  
1666.8     -9999      87.39518   28.09643   659.4847   -9999      172.2389   -9999      2.046823  
1667       -9999      88.0473    28.1062    659.7004   -9999      172.2182   -9999      2.046823  
1667.2     -9999      88.48718   28.11597   659.916    -9999      172.1974   -9999      2.046823  
1667.4     -9999      88.3399    28.12574   660.1317   -9999      172.1766   -9999      2.046823  
1667.6     -9999      88.79919   28.13535   660.3437   -9999      172.1562   -9999      2.050769  
1667.8     -9999      89.86723   28.14479   660.5521   -9999      172.1362   -9999      2.05866   
1668       -9999      91.13927   28.15423   660.7605   -9999      172.1161   -9999      2.066551  
1668.2     -9999      92.10567   28.16368   660.9689   -9999      172.0961   -9999      2.074442  
1668.4     -9999      90.98746   28.17312   661.1773   -9999      172.076    -9999      2.082334  
1668.6     -9999      89.39844   28.18257   661.3857   -9999      172.056    -9999      2.090225  
1668.8     -9999      88.67659   28.19201   661.5941   -9999      172.036    -9999      2.098116  
1669       -9999      89.13105   28.20145   661.8026   -9999      172.016    -9999      2.106007  
1669.2     -9999      89.76461   28.2109    662.011    -9999      171.996    -9999      2.113899  
1669.4     -9999      89.83878   28.22018   662.2158   -9999      171.9764   -9999      2.122073  
1669.6     -9999      90.15533   28.22929   662.4169   -9999      171.9571   -9999      2.130532  
1669.8     -9999      90.5219    28.23841   662.6181   -9999      171.9379   -9999      2.138991  
1670       -9999      91.10644   28.24752   662.8193   -9999      171.9186   -9999      2.147449  
1670.2     -9999      92.34167   28.25664   663.0204   -9999      171.8993   -9999      2.155908  
1670.4     -9999      93.8409    28.26575   663.2217   -9999      171.8801   -9999      2.164366  
1670.6     -9999      93.78562   28.27487   663.4229   -9999      171.8608   -9999      2.172825  
1670.8     -9999      92.11606   28.28399   663.624    -9999      171.8416   -9999      2.181284  
1671       -9999      90.815     28.2931    663.8252   -9999      171.8224   -9999      2.189742  
1671.2     -9999      90.39063   28.30222   664.0264   -9999      171.8032   -9999      2.193972  
1671.4     -9999      90.61933   28.31133   664.2275   -9999      171.784    -9999      2.193972  
1671.6     -9999      90.99072   28.32045   664.4287   -9999      171.7648   -9999      2.193972  
1671.8     -9999      91.80091   28.32957   664.6299   -9999      171.7456   -9999      2.193972  
1672       -9999      92.2373    28.33868   664.8311   -9999      171.7264   -9999      2.193972  
1672.2     -9999      92.39275   28.3478    665.0323   -9999      171.7072   -9999      2.193972  
1672.4     -9999      92.567     28.35691   665.2335   -9999      171.688    -9999      2.193972  
1672.6     -9999      92.85957   28.36603   665.4346   -9999      171.6689   -9999      2.193971  
1672.8     -9999      92.31432   28.37515   665.6358   -9999      171.6497   -9999      2.193971  
1673       -9999      90.63412   28.38335   665.817    -9999      171.6325   -9999      2.224345  
1673.2     -9999      88.99054   28.39065   665.978    -9999      171.6172   -9999      2.285094  
1673.4     -9999      88.31466   28.39795   666.139    -9999      171.6019   -9999      2.345842  
1673.6     -9999      88.20697   28.40524   666.3      -9999      171.5865   -9999      2.40659   
1673.8     -9999      87.80146   28.41254   666.4611   -9999      171.5712   -9999      2.467338  
1674       -9999      87.65106   28.41984   666.6222   -9999      171.5559   -9999      2.528086  
1674.2     -9999      87.95486   28.42714   666.7832   -9999      171.5406   -9999      2.588834  
1674.4     -9999      88.83811   28.43443   666.9443   -9999      171.5253   -9999      2.649582  
1674.6     -9999      89.4087    28.44173   667.1053   -9999      171.5101   -9999      2.71033   
1674.8     -9999      89.19302   28.44812   667.2463   -9999      171.4967   -9999      2.791241  
1675       -9999      88.76991   28.4536    667.3672   -9999      171.4852   -9999      2.892315  
1675.2     -9999      88.78111   28.45908   667.4881   -9999      171.4738   -9999      2.993388  
1675.4     -9999      89.44597   28.46456   667.609    -9999      171.4623   -9999      3.094462  
1675.6     -9999      90.25809   28.47004   667.7299   -9999      171.4508   -9999      3.195536  
1675.8     -9999      91.30728   28.47551   667.8509   -9999      171.4394   -9999      3.296609  
1676       -9999      92.0339    28.48099   667.9718   -9999      171.4279   -9999      3.397683  
1676.2     -9999      92.93772   28.48647   668.0927   -9999      171.4165   -9999      3.498757  
1676.4     -9999      93.77601   28.49195   668.2136   -9999      171.405    -9999      3.59983   
1676.6     -9999      93.6321    28.49716   668.3286   -9999      171.3941   -9999      3.67257   
1676.8     -9999      93.26835   28.5021    668.4376   -9999      171.3838   -9999      3.716975  
1677       -9999      93.01496   28.50704   668.5465   -9999      171.3735   -9999      3.761381  
1677.2     -9999      92.6346    28.51197   668.6555   -9999      171.3632   -9999      3.805786  
1677.4     -9999      92.3045    28.51691   668.7645   -9999      171.3529   -9999      3.850191  
1677.6     -9999      92.42996   28.52185   668.8735   -9999      171.3426   -9999      3.894597  
1677.8     -9999      92.815     28.52679   668.9825   -9999      171.3323   -9999      3.939002  
1678       -9999      93.29937   28.53173   669.0914   -9999      171.322    -9999      3.983408  
1678.2     -9999      93.64909   28.53666   669.2004   -9999      171.3117   -9999      4.027813  
1678.4     -9999      93.43298   28.54133   669.3035   -9999      171.3019   -9999      4.077678  
1678.6     -9999      93.31663   28.54573   669.4005   -9999      171.2928   -9999      4.133002  
1678.8     -9999      93.16676   28.55013   669.4976   -9999      171.2836   -9999      4.188325  
1679       -9999      92.50793   28.55453   669.5946   -9999      171.2744   -9999      4.243649  
1679.2     -9999      90.67514   28.55892   669.6917   -9999      171.2653   -9999      4.298973  
1679.4     -9999      88.75755   28.56332   669.7887   -9999      171.2561   -9999      4.354297  
1679.6     -9999      87.223     28.56772   669.8857   -9999      171.247    -9999      4.409621  
1679.8     -9999      86.35704   28.57212   669.9828   -9999      171.2378   -9999      4.464945  
1680       -9999      86.66174   28.57651   670.0798   -9999      171.2287   -9999      4.520269  
1680.2     -9999      87.086     28.58225   670.2065   -9999      171.2167   -9999      4.452106  
