~Version
 VERS              .         2.0                           : CWLS LOG ASCII STANDARD - VERSION 2.0
 WRAP              .         NO                            : ONE LINE PER DEPTH STEP
 DLM               .         SPACE                         : DELIMITING CHARACTER(SPACE TAB OR COMMA)
~Well Information
#_______________________________________________________________________________
#
#PARAMETER_NAME    .UNIT     VALUE                         : DESCRIPTION
#_______________________________________________________________________________
STRT               .m        936                           : First reference value
STOP               .m        2781                          : Last reference value
STEP               .m        0.2                           : Step increment
NULL               .         -9999                         : Missing value
COMP               .         PETROLEO BRASILEIRO S/A       : Company
WELL               .         1-ESS-37C-ES                  : Well name
FLD                .                                       : Field
LOC                .                                       : Location
CNTY               .                                       : County
STAT               .         ESPIRITO SANTO                : State
CTRY               .                                       : Country
SRVC               .                                       : Service Company
DATE               .                                       : Date
API                .         342710046100                  : API number
EDF                .M        24.00                         : Elevation Derrick Floor
GDAT               .         SIRGAS2000                    : Geodetic Datum
HZCS               .         UTM                           : Horizontal Coordinate System
LMF                .         MR                            : Log Measure From
LATI               .         -19_40_21.926                 : Latitude
LONG               .         -39_28_20.370                 : Longitude
MC                 .         39 W                          : Meridiano Central
ORIG               .         SIGEO EXPORTACAO PERFIL       : Origem dos dados
ORIGINALWELLNAME   .         1ESS 0037C ES                 : 
WDMS               .M        64.00                         : Water Depth to Mean Sea Level
X                  .         450490.60                     : Surface X
Y                  .         7824661.98                    : Surface Y
~Parameter Information Block
#_______________________________________________________________________________
#
#PARAMETER_NAME    .UNIT     VALUE                         : DESCRIPTION
#_______________________________________________________________________________
SET                .         37C_AchillesBR                : 
TLFamily_Densidade_Aparente_Seca .         Bulk Density                  : 
TLFamily_Fração_de_Areia .                                       : 
TLFamily_Idade     .                                       : 
TLFamily_MD        .         Measured Depth                : 
TLFamily_Paleobatimetria_1 .                                       : 
TLFamily_Paleobatimetria_2 .                                       : 
TLFamily_Produtividade_Primária_1 .                                       : 
TLFamily_Produtividade_Primária_2 .                                       : 
TLFamily_Taxa_de_Sedimentação .                                       : 
~Curve Information
#_______________________________________________________________________________
#
#LOGNAME           .UNIT     LOG_ID                        : DESCRIPTION
#_______________________________________________________________________________
MD                 .m                                      :  
Densidade Aparente Seca .g/cm3                                  :  
Fração de Areia    .%                                      :  
Idade              .                                       : [Ma] 
Paleobatimetria_1  .m                                      :  
Paleobatimetria_2  .m                                      :  
Produtividade Primária_1 .                                       : [gC/m²/yr] 
Produtividade Primária_2 .                                       : [gC/m²/yr]  
Taxa de Sedimentação .                                       : [cm/ka] 
~Ascii
# ...
2150.2     -9999      91.65781   39.23767   84.38804   -9999      367.8865   -9999      3.954759  
2150.4     -9999      91.69549   39.24322   84.13801   -9999      368.2896   -9999      3.908574  
2150.6     -9999      91.69849   39.24876   83.88799   -9999      368.6944   -9999      3.862389  
2150.8     -9999      91.71619   39.2543    83.63795   -9999      369.1008   -9999      3.816205  
2151       -9999      91.87562   39.25985   83.38793   -9999      369.5089   -9999      3.77002   
2151.2     -9999      92.41739   39.26539   83.1379    -9999      369.9187   -9999      3.723835  
2151.4     -9999      92.72489   39.27093   82.88788   -9999      370.3302   -9999      3.67765   
2151.6     -9999      92.58678   39.27647   82.63786   -9999      370.7433   -9999      3.631465  
2151.8     -9999      92.6327    39.28096   82.43527   -9999      371.0793   -9999      3.730994  
2152       -9999      92.6156    39.2844    82.28014   -9999      371.3374   -9999      3.976235  
2152.2     -9999      91.77931   39.28784   82.12501   -9999      371.5962   -9999      4.221477  
2152.4     -9999      90.75208   39.29128   81.96987   -9999      371.8556   -9999      4.466718  
2152.6     -9999      89.94958   39.29472   81.81474   -9999      372.1157   -9999      4.71196   
2152.8     -9999      89.86332   39.29816   81.6596    -9999      372.3765   -9999      4.957201  
2153       -9999      90.32031   39.3016    81.50447   -9999      372.638    -9999      5.202443  
2153.2     -9999      90.59911   39.30504   81.34933   -9999      372.9001   -9999      5.447684  
2153.4     -9999      90.58153   39.30848   81.1942    -9999      373.1629   -9999      5.692925  
2153.6     -9999      90.99663   39.31192   81.03907   -9999      373.4264   -9999      5.815546  
2153.8     -9999      91.9185    39.31535   80.88393   -9999      373.6906   -9999      5.815546  
2154       -9999      92.17471   39.31879   80.7288    -9999      373.9555   -9999      5.815546  
2154.2     -9999      91.856     39.32223   80.57366   -9999      374.2211   -9999      5.815546  
2154.4     -9999      91.62532   39.32567   80.41853   -9999      374.4874   -9999      5.815546  
2154.6     -9999      91.33775   39.32911   80.2634    -9999      374.7544   -9999      5.815545  
2154.8     -9999      91.00654   39.33255   80.10826   -9999      375.0221   -9999      5.815545  
2155       -9999      90.96554   39.33599   79.95313   -9999      375.2905   -9999      5.815545  
2155.2     -9999      90.97943   39.33943   79.798     -9999      375.5597   -9999      5.815545  
2155.4     -9999      90.94505   39.34392   79.59541   -9999      375.9122   -9999      5.692924  
2155.6     -9999      91.97649   39.34946   79.34539   -9999      376.349    -9999      5.447682  
2155.8     -9999      93.04697   39.355     79.09536   -9999      376.7877   -9999      5.202441  
2156       -9999      93.42818   39.36055   78.84534   -9999      377.2282   -9999      4.9572    
2156.2     -9999      93.55589   39.36609   78.59531   -9999      377.6707   -9999      4.711959  
2156.4     -9999      93.59725   39.37163   78.34528   -9999      378.1151   -9999      4.466717  
2156.6     -9999      93.71487   39.37717   78.09526   -9999      378.5615   -9999      4.221476  
2156.8     -9999      93.78914   39.38272   77.84523   -9999      379.0099   -9999      3.976235  
2157       -9999      93.83904   39.38826   77.59521   -9999      379.4602   -9999      3.730994  
2157.2     -9999      94.23749   39.3938    77.34518   -9999      379.9125   -9999      3.608373  
2157.4     -9999      94.3725    39.39935   77.09515   -9999      380.3668   -9999      3.608373  
2157.6     -9999      94.22266   39.40489   76.84512   -9999      380.8231   -9999      3.608373  
2157.8     -9999      93.97658   39.41043   76.5951    -9999      381.2815   -9999      3.608373  
2158       -9999      93.40992   39.41597   76.34507   -9999      381.7419   -9999      3.608373  
2158.2     -9999      92.67358   39.42152   76.09505   -9999      382.2044   -9999      3.608373  
2158.4     -9999      92.29612   39.42706   75.84502   -9999      382.6689   -9999      3.608373  
2158.6     -9999      91.80573   39.4326    75.59499   -9999      383.1356   -9999      3.608373  
2158.8     -9999      91.47409   39.43814   75.34496   -9999      383.6044   -9999      3.608373  
2159       -9999      91.20595   39.44369   75.09494   -9999      384.0753   -9999      3.608373  
2159.2     -9999      91.04738   39.44923   74.84492   -9999      384.5484   -9999      3.608373  
2159.4     -9999      90.91484   39.45477   74.59489   -9999      385.0237   -9999      3.608373  
2159.6     -9999      90.85542   39.46032   74.34486   -9999      385.5011   -9999      3.608373  
2159.8     -9999      91.18808   39.46586   74.09483   -9999      385.9807   -9999      3.608373  
2160       -9999      91.93093   39.4714    73.84481   -9999      386.4626   -9999      3.608373  
2160.2     -9999      92.83215   39.47694   73.59478   -9999      386.9467   -9999      3.608373  
2160.4     -9999      93.51624   39.48249   73.34476   -9999      387.433    -9999      3.608373  
2160.6     -9999      94.35455   39.48803   73.09473   -9999      387.9217   -9999      3.608373  
2160.8     -9999      95.02653   39.49357   72.8447    -9999      388.4126   -9999      3.608373  
2161       -9999      95.15496   39.49911   72.59467   -9999      388.9058   -9999      3.608373  
2161.2     -9999      94.77264   39.50466   72.34465   -9999      389.4014   -9999      3.608373  
2161.4     -9999      94.16578   39.5102    72.09463   -9999      389.8993   -9999      3.608373  
2161.6     -9999      92.95461   39.51574   71.8446    -9999      390.3996   -9999      3.608373  
2161.8     -9999      91.85268   39.52129   71.59457   -9999      390.9023   -9999      3.608373  
2162       -9999      91.06829   39.52683   71.34454   -9999      391.4073   -9999      3.608373  
2162.2     -9999      90.16721   39.53237   71.09452   -9999      391.9149   -9999      3.608373  
2162.4     -9999      89.63835   39.53791   70.84449   -9999      392.4248   -9999      3.608373  
2162.6     -9999      89.94801   39.54345   70.59447   -9999      392.9373   -9999      3.608373  
2162.8     -9999      90.60954   39.549     70.34444   -9999      393.4522   -9999      3.608373  
2163       -9999      90.69438   39.55454   70.09441   -9999      393.9696   -9999      3.608373  
2163.2     -9999      90.20574   39.56008   69.84438   -9999      394.4896   -9999      3.608373  
2163.4     -9999      89.81628   39.56562   69.59436   -9999      395.0121   -9999      3.608373  
2163.6     -9999      90.28309   39.57117   69.34434   -9999      395.5372   -9999      3.608373  
2163.8     -9999      91.07525   39.57671   69.09431   -9999      396.0649   -9999      3.608373  
2164       -9999      91.3668    39.58225   68.84428   -9999      396.5952   -9999      3.608373  
2164.2     -9999      91.29662   39.5878    68.59425   -9999      397.1282   -9999      3.608373  
2164.4     -9999      91.17018   39.59415   68.30744   -9999      397.7429   -9999      3.562793  
2164.6     -9999      91.1214    39.60133   67.98383   -9999      398.4406   -9999      3.471633  
2164.8     -9999      90.98537   39.6085    67.66023   -9999      399.1429   -9999      3.380473  
2165       -9999      90.97921   39.61568   67.33662   -9999      399.8499   -9999      3.289313  
2165.2     -9999      91.70274   39.62285   67.01302   -9999      400.5615   -9999      3.198153  
2165.4     -9999      92.32607   39.63002   66.68941   -9999      401.2778   -9999      3.106993  
2165.6     -9999      92.87253   39.6372    66.36581   -9999      401.9989   -9999      3.015833  
2165.8     -9999      93.65588   39.64437   66.04221   -9999      402.7249   -9999      2.924673  
2166       -9999      94.28088   39.65155   65.7186    -9999      403.4557   -9999      2.833513  
2166.2     -9999      94.92213   39.65953   65.35821   -9999      404.2754   -9999      2.75924   
