~Version
 VERS              .         2.0                           : CWLS LOG ASCII STANDARD - VERSION 2.0
 WRAP              .         NO                            : ONE LINE PER DEPTH STEP
 DLM               .         SPACE                         : DELIMITING CHARACTER(SPACE TAB OR COMMA)
~Well Information
#_______________________________________________________________________________
#
#PARAMETER_NAME    .UNIT     VALUE                         : DESCRIPTION
#_______________________________________________________________________________
STRT               .m        936                           : First reference value
STOP               .m        2781                          : Last reference value
STEP               .m        0.2                           : Step increment
NULL               .         -9999                         : Missing value
COMP               .         PETROLEO BRASILEIRO S/A       : Company
WELL               .         1-ESS-37C-ES                  : Well name
FLD                .                                       : Field
LOC                .                                       : Location
CNTY               .                                       : County
STAT               .         ESPIRITO SANTO                : State
CTRY               .                                       : Country
SRVC               .                                       : Service Company
DATE               .                                       : Date
API                .         342710046100                  : API number
EDF                .M        24.00                         : Elevation Derrick Floor
GDAT               .         SIRGAS2000                    : Geodetic Datum
HZCS               .         UTM                           : Horizontal Coordinate System
LMF                .         MR                            : Log Measure From
LATI               .         -19_40_21.926                 : Latitude
LONG               .         -39_28_20.370                 : Longitude
MC                 .         39 W                          : Meridiano Central
ORIG               .         SIGEO EXPORTACAO PERFIL       : Origem dos dados
ORIGINALWELLNAME   .         1ESS 0037C ES                 : 
WDMS               .M        64.00                         : Water Depth to Mean Sea Level
X                  .         450490.60                     : Surface X
Y                  .         7824661.98                    : Surface Y
~Parameter Information Block
#_______________________________________________________________________________
#
#PARAMETER_NAME    .UNIT     VALUE                         : DESCRIPTION
#_______________________________________________________________________________
SET                .         37C_AchillesBR                : 
TLFamily_Densidade_Aparente_Seca .         Bulk Density                  : 
TLFamily_Fração_de_Areia .                                       : 
TLFamily_Idade     .                                       : 
TLFamily_MD        .         Measured Depth                : 
TLFamily_Paleobatimetria_1 .                                       : 
TLFamily_Paleobatimetria_2 .                                       : 
TLFamily_Produtividade_Primária_1 .                                       : 
TLFamily_Produtividade_Primária_2 .                                       : 
TLFamily_Taxa_de_Sedimentação .                                       : 
~Curve Information
#_______________________________________________________________________________
#
#LOGNAME           .UNIT     LOG_ID                        : DESCRIPTION
#_______________________________________________________________________________
MD                 .m                                      :  
Densidade Aparente Seca .g/cm3                                  :  
Fração de Areia    .%                                      :  
Idade              .                                       : [Ma] 
Paleobatimetria_1  .m                                      :  
Paleobatimetria_2  .m                                      :  
Produtividade Primária_1 .                                       : [gC/m²/yr] 
Produtividade Primária_2 .                                       : [gC/m²/yr]  
Taxa de Sedimentação .                                       : [cm/ka] 
~Ascii
# ...
1907.2     -9999      90.21411   34.23027   341.1197   -9999      219.6875   -9999      4.547932  
1907.4     -9999      90.50572   34.23467   340.7451   -9999      219.7766   -9999      4.547932  
1907.6     -9999      90.70632   34.23907   340.3705   -9999      219.8658   -9999      4.547931  
1907.8     -9999      90.69867   34.24347   339.9958   -9999      219.9552   -9999      4.547931  
1908       -9999      90.53912   34.24786   339.6212   -9999      220.0447   -9999      4.547931  
1908.2     -9999      90.53157   34.25226   339.2466   -9999      220.1344   -9999      4.547931  
1908.4     -9999      90.87341   34.25666   338.8719   -9999      220.2242   -9999      4.547931  
1908.6     -9999      91.22692   34.26106   338.4973   -9999      220.3141   -9999      4.547931  
1908.8     -9999      91.42004   34.26545   338.1227   -9999      220.4042   -9999      4.547931  
1909       -9999      91.2194    34.26985   337.748    -9999      220.4944   -9999      4.547931  
1909.2     -9999      90.99923   34.27425   337.3734   -9999      220.5847   -9999      4.547931  
1909.4     -9999      90.91776   34.27865   336.9988   -9999      220.6752   -9999      4.547931  
1909.6     -9999      90.92878   34.28305   336.6241   -9999      220.7658   -9999      4.547931  
1909.8     -9999      90.47557   34.28744   336.2495   -9999      220.8566   -9999      4.547931  
1910       -9999      90.28651   34.29184   335.8749   -9999      220.9475   -9999      4.547932  
1910.2     -9999      90.73336   34.29624   335.5003   -9999      221.0385   -9999      4.547932  
1910.4     -9999      91.41609   34.30064   335.1256   -9999      221.1297   -9999      4.547932  
1910.6     -9999      91.7575    34.30503   334.751    -9999      221.221    -9999      4.547932  
1910.8     -9999      92.2245    34.30943   334.3764   -9999      221.3125   -9999      4.547932  
1911       -9999      92.8715    34.31383   334.0017   -9999      221.404    -9999      4.547932  
1911.2     -9999      92.83963   34.31823   333.6271   -9999      221.4958   -9999      4.547932  
1911.4     -9999      92.26165   34.32262   333.2525   -9999      221.5876   -9999      4.547932  
1911.6     -9999      91.89428   34.32702   332.8779   -9999      221.6797   -9999      4.547932  
1911.8     -9999      91.79158   34.33142   332.5032   -9999      221.7718   -9999      4.547932  
1912       -9999      91.65894   34.33582   332.1286   -9999      221.8641   -9999      4.547932  
1912.2     -9999      91.57549   34.34021   331.754    -9999      221.9566   -9999      4.547932  
1912.4     -9999      91.93009   34.34461   331.3793   -9999      222.0491   -9999      4.547932  
1912.6     -9999      92.2559    34.34901   331.0047   -9999      222.1419   -9999      4.547932  
1912.8     -9999      92.67529   34.35341   330.6301   -9999      222.2347   -9999      4.547932  
1913       -9999      93.40847   34.3578    330.2555   -9999      222.3278   -9999      4.547932  
1913.2     -9999      94.41039   34.3622    329.8808   -9999      222.4209   -9999      4.547932  
1913.4     -9999      94.64637   34.3666    329.5062   -9999      222.5142   -9999      4.547932  
1913.6     -9999      95.37348   34.371     329.1316   -9999      222.6077   -9999      4.547932  
1913.8     -9999      95.65743   34.3754    328.7569   -9999      222.7013   -9999      4.547932  
1914       -9999      95.5896    34.37979   328.3823   -9999      222.795    -9999      4.547932  
1914.2     -9999      94.83141   34.38343   328.0729   -9999      222.8726   -9999      4.682885  
1914.4     -9999      93.54218   34.38629   327.8287   -9999      222.9338   -9999      4.95279   
1914.6     -9999      92.23928   34.38916   327.5845   -9999      222.9951   -9999      5.222696  
1914.8     -9999      91.49714   34.39202   327.3403   -9999      223.0565   -9999      5.492601  
1915       -9999      90.66188   34.39489   327.0961   -9999      223.118    -9999      5.762507  
1915.2     -9999      89.84559   34.39776   326.8519   -9999      223.1795   -9999      6.032413  
1915.4     -9999      90.43494   34.40062   326.6077   -9999      223.2411   -9999      6.302318  
1915.6     -9999      91.32874   34.40349   326.3635   -9999      223.3027   -9999      6.572224  
1915.8     -9999      91.43312   34.40636   326.1193   -9999      223.3644   -9999      6.842129  
1916       -9999      90.24837   34.40846   325.9403   -9999      223.4097   -9999      7.421478  
1916.2     -9999      88.56938   34.40979   325.8265   -9999      223.4385   -9999      8.310268  
1916.4     -9999      86.66237   34.41113   325.7128   -9999      223.4673   -9999      9.199059  
1916.6     -9999      85.48093   34.41246   325.599    -9999      223.4961   -9999      10.08785  
1916.8     -9999      85.35366   34.4138    325.4853   -9999      223.5249   -9999      10.97664  
1917       -9999      85.95541   34.41513   325.3715   -9999      223.5538   -9999      11.86543  
1917.2     -9999      86.50175   34.41647   325.2577   -9999      223.5826   -9999      12.75422  
1917.4     -9999      86.65887   34.4178    325.144    -9999      223.6115   -9999      13.64301  
1917.6     -9999      86.95177   34.41914   325.0302   -9999      223.6404   -9999      14.53181  
1917.8     -9999      86.84593   34.42048   324.9164   -9999      223.6693   -9999      14.9762   
1918       -9999      86.8586    34.42181   324.8026   -9999      223.6982   -9999      14.9762   
1918.2     -9999      87.26414   34.42315   324.6889   -9999      223.7271   -9999      14.9762   
1918.4     -9999      87.51853   34.42448   324.5751   -9999      223.7561   -9999      14.9762   
1918.6     -9999      88.08561   34.42582   324.4614   -9999      223.785    -9999      14.97621  
1918.8     -9999      88.78738   34.42715   324.3476   -9999      223.814    -9999      14.97621  
1919       -9999      88.7421    34.42849   324.2338   -9999      223.843    -9999      14.97621  
1919.2     -9999      88.34236   34.42982   324.1201   -9999      223.872    -9999      14.97621  
1919.4     -9999      88.65594   34.43116   324.0063   -9999      223.901    -9999      14.97621  
1919.6     -9999      89.26367   34.4325    323.8925   -9999      223.93     -9999      14.97621  
1919.8     -9999      89.41157   34.43383   323.7787   -9999      223.959    -9999      14.97621  
1920       -9999      89.15041   34.43517   323.665    -9999      223.9881   -9999      14.97621  
1920.2     -9999      89.13683   34.4365    323.5512   -9999      224.0172   -9999      14.97621  
1920.4     -9999      89.31909   34.43784   323.4374   -9999      224.0462   -9999      14.97621  
1920.6     -9999      89.22433   34.43917   323.3237   -9999      224.0753   -9999      14.97621  
1920.8     -9999      88.79913   34.44051   323.2099   -9999      224.1044   -9999      14.97621  
1921       -9999      88.75115   34.44184   323.0962   -9999      224.1336   -9999      14.97621  
1921.2     -9999      89.35228   34.44318   322.9824   -9999      224.1627   -9999      14.97621  
1921.4     -9999      89.49737   34.44452   322.8686   -9999      224.1919   -9999      14.97621  
1921.6     -9999      89.70142   34.44585   322.7549   -9999      224.221    -9999      14.97621  
1921.8     -9999      89.86895   34.44719   322.6411   -9999      224.2502   -9999      14.97621  
1922       -9999      89.83544   34.44852   322.5273   -9999      224.2794   -9999      14.97621  
1922.2     -9999      90.13667   34.44986   322.4135   -9999      224.3086   -9999      14.97621  
1922.4     -9999      90.60706   34.45119   322.2998   -9999      224.3378   -9999      14.9762   
1922.6     -9999      90.7748    34.45253   322.186    -9999      224.3671   -9999      14.9762   
1922.8     -9999      90.66398   34.45386   322.0723   -9999      224.3963   -9999      14.9762   
1923       -9999      90.59261   34.4552    321.9585   -9999      224.4256   -9999      14.9762   
1923.2     -9999      90.15567   34.45654   321.8447   -9999      224.4548   -9999      14.9762   
