~Version
 VERS              .         2.0                           : CWLS LOG ASCII STANDARD - VERSION 2.0
 WRAP              .         NO                            : ONE LINE PER DEPTH STEP
 DLM               .         SPACE                         : DELIMITING CHARACTER(SPACE TAB OR COMMA)
~Well Information
#_______________________________________________________________________________
#
#PARAMETER_NAME    .UNIT     VALUE                         : DESCRIPTION
#_______________________________________________________________________________
STRT               .m        936                           : First reference value
STOP               .m        2781                          : Last reference value
STEP               .m        0.2                           : Step increment
NULL               .         -9999                         : Missing value
COMP               .         PETROLEO BRASILEIRO S/A       : Company
WELL               .         1-ESS-37C-ES                  : Well name
FLD                .                                       : Field
LOC                .                                       : Location
CNTY               .                                       : County
STAT               .         ESPIRITO SANTO                : State
CTRY               .                                       : Country
SRVC               .                                       : Service Company
DATE               .                                       : Date
API                .         342710046100                  : API number
EDF                .M        24.00                         : Elevation Derrick Floor
GDAT               .         SIRGAS2000                    : Geodetic Datum
HZCS               .         UTM                           : Horizontal Coordinate System
LMF                .         MR                            : Log Measure From
LATI               .         -19_40_21.926                 : Latitude
LONG               .         -39_28_20.370                 : Longitude
MC                 .         39 W                          : Meridiano Central
ORIG               .         SIGEO EXPORTACAO PERFIL       : Origem dos dados
ORIGINALWELLNAME   .         1ESS 0037C ES                 : 
WDMS               .M        64.00                         : Water Depth to Mean Sea Level
X                  .         450490.60                     : Surface X
Y                  .         7824661.98                    : Surface Y
~Parameter Information Block
#_______________________________________________________________________________
#
#PARAMETER_NAME    .UNIT     VALUE                         : DESCRIPTION
#_______________________________________________________________________________
SET                .         37C_AchillesBR                : 
TLFamily_Densidade_Aparente_Seca .         Bulk Density                  : 
TLFamily_Fração_de_Areia .                                       : 
TLFamily_Idade     .                                       : 
TLFamily_MD        .         Measured Depth                : 
TLFamily_Paleobatimetria_1 .                                       : 
TLFamily_Paleobatimetria_2 .                                       : 
TLFamily_Produtividade_Primária_1 .                                       : 
TLFamily_Produtividade_Primária_2 .                                       : 
TLFamily_Taxa_de_Sedimentação .                                       : 
~Curve Information
#_______________________________________________________________________________
#
#LOGNAME           .UNIT     LOG_ID                        : DESCRIPTION
#_______________________________________________________________________________
MD                 .m                                      :  
Densidade Aparente Seca .g/cm3                                  :  
Fração de Areia    .%                                      :  
Idade              .                                       : [Ma] 
Paleobatimetria_1  .m                                      :  
Paleobatimetria_2  .m                                      :  
Produtividade Primária_1 .                                       : [gC/m²/yr] 
Produtividade Primária_2 .                                       : [gC/m²/yr]  
Taxa de Sedimentação .                                       : [cm/ka] 
~Ascii
# ...
1178.2     -9999      89.86091   21.55574   255.445    -9999      244.4377   -9999      5.732135  
1178.4     -9999      90.11423   21.55923   255.7851   -9999      244.3177   -9999      5.732135  
1178.6     -9999      90.12489   21.56272   256.1252   -9999      244.198    -9999      5.732135  
1178.8     -9999      89.90871   21.56621   256.4652   -9999      244.0784   -9999      5.732134  
1179       -9999      90.17654   21.5697    256.8053   -9999      243.959    -9999      5.732134  
1179.2     -9999      91.5002    21.57319   257.1454   -9999      243.8399   -9999      5.732134  
1179.4     -9999      90.8693    21.57668   257.4855   -9999      243.721    -9999      5.732134  
1179.6     -9999      90.47183   21.58017   257.8256   -9999      243.6023   -9999      5.732134  
1179.8     -9999      90.40554   21.58365   258.1656   -9999      243.4838   -9999      5.732134  
1180       -9999      90.16315   21.58714   258.5057   -9999      243.3655   -9999      5.732134  
1180.2     -9999      90.12843   21.59063   258.8458   -9999      243.2474   -9999      5.732134  
1180.4     -9999      90.07654   21.59412   259.1859   -9999      243.1296   -9999      5.732134  
1180.6     -9999      89.69737   21.59761   259.5259   -9999      243.0119   -9999      5.732134  
1180.8     -9999      89.29484   21.6011    259.866    -9999      242.8945   -9999      5.732135  
1181       -9999      89.56515   21.60459   260.2061   -9999      242.7773   -9999      5.732135  
1181.2     -9999      89.85419   21.60808   260.5461   -9999      242.6603   -9999      5.732135  
1181.4     -9999      89.5666    21.61157   260.8862   -9999      242.5435   -9999      5.732135  
1181.6     -9999      89.47047   21.61506   261.2263   -9999      242.4269   -9999      5.732135  
1181.8     -9999      89.92933   21.61855   261.5664   -9999      242.3105   -9999      5.732135  
1182       -9999      90.42431   21.62203   261.9065   -9999      242.1943   -9999      5.732135  
1182.2     -9999      90.63893   21.62552   262.2465   -9999      242.0784   -9999      5.732135  
1182.4     -9999      90.48415   21.62901   262.5866   -9999      241.9626   -9999      5.732135  
1182.6     -9999      90.42862   21.6325    262.9267   -9999      241.847    -9999      5.732135  
1182.8     -9999      90.39069   21.63599   263.2668   -9999      241.7317   -9999      5.732135  
1183       -9999      90.1367    21.63948   263.6068   -9999      241.6165   -9999      5.732135  
1183.2     -9999      90.40274   21.64297   263.9469   -9999      241.5016   -9999      5.732135  
1183.4     -9999      90.96825   21.64592   264.2345   -9999      241.4045   -9999      5.87429   
1183.6     -9999      90.9825    21.64833   264.4696   -9999      241.3253   -9999      6.158601  
1183.8     -9999      90.74619   21.65074   264.7047   -9999      241.2461   -9999      6.442911  
1184       -9999      90.44972   21.65316   264.9398   -9999      241.1671   -9999      6.727221  
1184.2     -9999      90.01821   21.65557   265.175    -9999      241.0881   -9999      7.011531  
1184.4     -9999      89.64368   21.65798   265.4101   -9999      241.0093   -9999      7.295841  
1184.6     -9999      89.18397   21.66039   265.6452   -9999      240.9305   -9999      7.580152  
1184.8     -9999      89.21188   21.66281   265.8803   -9999      240.8519   -9999      7.864461  
1185       -9999      89.55962   21.66522   266.1154   -9999      240.7733   -9999      8.148771  
1185.2     -9999      89.96494   21.66712   266.3008   -9999      240.7114   -9999      8.628654  
1185.4     -9999      90.35165   21.66851   266.4365   -9999      240.6662   -9999      9.304111  
1185.6     -9999      90.43849   21.6699    266.5721   -9999      240.621    -9999      9.979567  
1185.8     -9999      90.31197   21.6713    266.7078   -9999      240.5758   -9999      10.65502  
1186       -9999      90.10905   21.67269   266.8434   -9999      240.5306   -9999      11.33048  
1186.2     -9999      90.23796   21.67408   266.9791   -9999      240.4855   -9999      12.00593  
1186.4     -9999      90.24798   21.67547   267.1147   -9999      240.4404   -9999      12.68139  
1186.6     -9999      90.26995   21.67686   267.2504   -9999      240.3954   -9999      13.35685  
1186.8     -9999      90.80421   21.67825   267.3861   -9999      240.3503   -9999      14.0323   
1187       -9999      90.96449   21.67967   267.5245   -9999      240.3044   -9999      14.33897  
1187.2     -9999      90.648     21.68112   267.6656   -9999      240.2577   -9999      14.27686  
1187.4     -9999      90.09193   21.68257   267.8068   -9999      240.2109   -9999      14.21475  
1187.6     -9999      89.92825   21.68402   267.9479   -9999      240.1642   -9999      14.15264  
1187.8     -9999      89.96532   21.68547   268.0891   -9999      240.1175   -9999      14.09053  
1188       -9999      89.63823   21.68691   268.2302   -9999      240.0709   -9999      14.02842  
1188.2     -9999      89.34947   21.68836   268.3713   -9999      240.0243   -9999      13.96631  
1188.4     -9999      89.86631   21.68981   268.5125   -9999      239.9777   -9999      13.9042   
1188.6     -9999      90.46367   21.69126   268.6536   -9999      239.9312   -9999      13.84209  
1188.8     -9999      90.38045   21.69271   268.7948   -9999      239.8846   -9999      13.81103  
1189       -9999      89.99981   21.69415   268.9359   -9999      239.8382   -9999      13.81103  
1189.2     -9999      89.66323   21.6956    269.0771   -9999      239.7917   -9999      13.81103  
1189.4     -9999      89.1711    21.69705   269.2182   -9999      239.7453   -9999      13.81103  
1189.6     -9999      88.64835   21.6985    269.3593   -9999      239.6989   -9999      13.81103  
1189.8     -9999      88.51026   21.69995   269.5005   -9999      239.6526   -9999      13.81102  
1190       -9999      88.86595   21.7014    269.6416   -9999      239.6063   -9999      13.81102  
1190.2     -9999      89.5296    21.70284   269.7828   -9999      239.56     -9999      13.81102  
1190.4     -9999      89.89568   21.70429   269.9239   -9999      239.5137   -9999      13.81102  
1190.6     -9999      89.96693   21.70574   270.0651   -9999      239.4675   -9999      13.81102  
1190.8     -9999      89.94801   21.70719   270.2062   -9999      239.4214   -9999      13.81102  
1191       -9999      89.95178   21.70864   270.3474   -9999      239.3752   -9999      13.81102  
1191.2     -9999      90.17593   21.71008   270.4885   -9999      239.3291   -9999      13.81102  
1191.4     -9999      90.45406   21.71153   270.6296   -9999      239.283    -9999      13.81103  
1191.6     -9999      90.63471   21.71298   270.7708   -9999      239.237    -9999      13.81103  
1191.8     -9999      90.4371    21.71443   270.912    -9999      239.191    -9999      13.81103  
1192       -9999      90.22038   21.71588   271.0531   -9999      239.145    -9999      13.81103  
1192.2     -9999      90.15118   21.71733   271.1942   -9999      239.099    -9999      13.81103  
1192.4     -9999      89.71649   21.71877   271.3354   -9999      239.0531   -9999      13.81103  
1192.6     -9999      89.32344   21.72022   271.4765   -9999      239.0072   -9999      13.81103  
1192.8     -9999      89.29822   21.72167   271.6177   -9999      238.9614   -9999      13.81103  
1193       -9999      89.2692    21.72312   271.7588   -9999      238.9156   -9999      13.81103  
1193.2     -9999      89.4698    21.72457   271.9      -9999      238.8698   -9999      13.81103  
1193.4     -9999      89.95189   21.72601   272.0411   -9999      238.824    -9999      13.81103  
1193.6     -9999      90.58046   21.72746   272.1823   -9999      238.7783   -9999      13.81103  
1193.8     -9999      90.81803   21.72891   272.3234   -9999      238.7326   -9999      13.81103  
1194       -9999      90.50175   21.73036   272.4645   -9999      238.687    -9999      13.81103  
1194.2     -9999      90.12289   21.73181   272.6057   -9999      238.6414   -9999      13.81103  
