~Version
 VERS              .         2.0                           : CWLS LOG ASCII STANDARD - VERSION 2.0
 WRAP              .         NO                            : ONE LINE PER DEPTH STEP
 DLM               .         SPACE                         : DELIMITING CHARACTER(SPACE TAB OR COMMA)
~Well Information
#_______________________________________________________________________________
#
#PARAMETER_NAME    .UNIT     VALUE                         : DESCRIPTION
#_______________________________________________________________________________
STRT               .m        936                           : First reference value
STOP               .m        2781                          : Last reference value
STEP               .m        0.2                           : Step increment
NULL               .         -9999                         : Missing value
COMP               .         PETROLEO BRASILEIRO S/A       : Company
WELL               .         1-ESS-37C-ES                  : Well name
FLD                .                                       : Field
LOC                .                                       : Location
CNTY               .                                       : County
STAT               .         ESPIRITO SANTO                : State
CTRY               .                                       : Country
SRVC               .                                       : Service Company
DATE               .                                       : Date
API                .         342710046100                  : API number
EDF                .M        24.00                         : Elevation Derrick Floor
GDAT               .         SIRGAS2000                    : Geodetic Datum
HZCS               .         UTM                           : Horizontal Coordinate System
LMF                .         MR                            : Log Measure From
LATI               .         -19_40_21.926                 : Latitude
LONG               .         -39_28_20.370                 : Longitude
MC                 .         39 W                          : Meridiano Central
ORIG               .         SIGEO EXPORTACAO PERFIL       : Origem dos dados
ORIGINALWELLNAME   .         1ESS 0037C ES                 : 
WDMS               .M        64.00                         : Water Depth to Mean Sea Level
X                  .         450490.60                     : Surface X
Y                  .         7824661.98                    : Surface Y
~Parameter Information Block
#_______________________________________________________________________________
#
#PARAMETER_NAME    .UNIT     VALUE                         : DESCRIPTION
#_______________________________________________________________________________
SET                .         37C_AchillesBR                : 
TLFamily_Densidade_Aparente_Seca .         Bulk Density                  : 
TLFamily_Fração_de_Areia .                                       : 
TLFamily_Idade     .                                       : 
TLFamily_MD        .         Measured Depth                : 
TLFamily_Paleobatimetria_1 .                                       : 
TLFamily_Paleobatimetria_2 .                                       : 
TLFamily_Produtividade_Primária_1 .                                       : 
TLFamily_Produtividade_Primária_2 .                                       : 
TLFamily_Taxa_de_Sedimentação .                                       : 
~Curve Information
#_______________________________________________________________________________
#
#LOGNAME           .UNIT     LOG_ID                        : DESCRIPTION
#_______________________________________________________________________________
MD                 .m                                      :  
Densidade Aparente Seca .g/cm3                                  :  
Fração de Areia    .%                                      :  
Idade              .                                       : [Ma] 
Paleobatimetria_1  .m                                      :  
Paleobatimetria_2  .m                                      :  
Produtividade Primária_1 .                                       : [gC/m²/yr] 
Produtividade Primária_2 .                                       : [gC/m²/yr]  
Taxa de Sedimentação .                                       : [cm/ka] 
~Ascii
# ...
1550.8     -9999      88.16958   26.43818   622.8886   -9999      175.907    -9999      14.9762   
1551       -9999      88.14118   26.43952   622.9181   -9999      175.9039   -9999      14.9762   
1551.2     -9999      88.05727   26.44085   622.9476   -9999      175.9008   -9999      14.9762   
1551.4     -9999      87.8842    26.44219   622.9771   -9999      175.8978   -9999      14.97621  
1551.6     -9999      87.61685   26.44352   623.0065   -9999      175.8947   -9999      14.97621  
1551.8     -9999      87.04261   26.44486   623.0359   -9999      175.8916   -9999      14.97621  
1552       -9999      86.39054   26.44619   623.0654   -9999      175.8885   -9999      14.97621  
1552.2     -9999      86.0006    26.44753   623.0949   -9999      175.8855   -9999      14.97621  
1552.4     -9999      85.43208   26.44886   623.1244   -9999      175.8824   -9999      14.97621  
1552.6     -9999      85.04899   26.4502    623.1539   -9999      175.8793   -9999      14.97621  
1552.8     -9999      85.37765   26.45153   623.1833   -9999      175.8763   -9999      14.97621  
1553       -9999      85.97268   26.45287   623.2128   -9999      175.8732   -9999      14.97621  
1553.2     -9999      86.64227   26.45421   623.2423   -9999      175.8701   -9999      14.97621  
1553.4     -9999      87.24461   26.45554   623.2717   -9999      175.8671   -9999      14.9762   
1553.6     -9999      87.68021   26.45688   623.3012   -9999      175.864    -9999      14.9762   
1553.8     -9999      88.02741   26.45821   623.3307   -9999      175.8609   -9999      14.9762   
1554       -9999      87.97869   26.45955   623.3602   -9999      175.8578   -9999      14.9762   
1554.2     -9999      87.82405   26.46088   623.3896   -9999      175.8548   -9999      14.9762   
1554.4     -9999      88.07597   26.46222   623.4191   -9999      175.8517   -9999      14.9762   
1554.6     -9999      89.03979   26.46355   623.4486   -9999      175.8486   -9999      14.9762   
1554.8     -9999      90.8217    26.46489   623.4781   -9999      175.8456   -9999      14.9762   
1555       -9999      93.35974   26.46622   623.5075   -9999      175.8425   -9999      14.97621  
1555.2     -9999      94.79141   26.46756   623.537    -9999      175.8394   -9999      14.97621  
1555.4     -9999      95.74459   26.4689    623.5665   -9999      175.8364   -9999      14.97621  
1555.6     -9999      96.33165   26.47023   623.5959   -9999      175.8333   -9999      14.97621  
1555.8     -9999      96.28809   26.47157   623.6254   -9999      175.8302   -9999      14.97621  
1556       -9999      95.58089   26.4729    623.6549   -9999      175.8272   -9999      14.97621  
1556.2     -9999      95.16845   26.47424   623.6844   -9999      175.8241   -9999      14.97621  
1556.4     -9999      94.63287   26.47557   623.7139   -9999      175.821    -9999      14.97621  
1556.6     -9999      93.73185   26.47691   623.7433   -9999      175.818    -9999      14.97621  
1556.8     -9999      92.82114   26.47824   623.7728   -9999      175.8149   -9999      14.97621  
1557       -9999      92.37304   26.47958   623.8022   -9999      175.8118   -9999      14.97621  
1557.2     -9999      92.51489   26.48092   623.8317   -9999      175.8088   -9999      14.97621  
1557.4     -9999      93.43876   26.48225   623.8612   -9999      175.8057   -9999      14.97621  
1557.6     -9999      95.03768   26.48359   623.8907   -9999      175.8026   -9999      14.97621  
1557.8     -9999      96.38979   26.48492   623.9202   -9999      175.7996   -9999      14.97621  
1558       -9999      96.72076   26.48626   623.9496   -9999      175.7965   -9999      14.97621  
1558.2     -9999      95.90101   26.48759   623.9791   -9999      175.7934   -9999      14.97621  
1558.4     -9999      94.48837   26.48893   624.0085   -9999      175.7904   -9999      14.97621  
1558.6     -9999      93.30016   26.49026   624.038    -9999      175.7873   -9999      14.97621  
1558.8     -9999      92.43738   26.4916    624.0675   -9999      175.7842   -9999      14.9762   
1559       -9999      92.43003   26.49293   624.097    -9999      175.7812   -9999      14.9762   
1559.2     -9999      93.10931   26.49427   624.1265   -9999      175.7781   -9999      14.9762   
1559.4     -9999      94.00624   26.49561   624.1559   -9999      175.7751   -9999      14.9762   
1559.6     -9999      95.01756   26.49694   624.1854   -9999      175.772    -9999      14.9762   
1559.8     -9999      95.62479   26.49828   624.2148   -9999      175.7689   -9999      14.9762   
1560       -9999      95.48309   26.49961   624.2443   -9999      175.7659   -9999      14.9762   
1560.2     -9999      94.71651   26.50095   624.2738   -9999      175.7628   -9999      14.9762   
1560.4     -9999      93.89156   26.50228   624.3033   -9999      175.7597   -9999      14.97621  
1560.6     -9999      93.63197   26.50362   624.3328   -9999      175.7567   -9999      14.97621  
1560.8     -9999      93.60865   26.50495   624.3622   -9999      175.7536   -9999      14.97621  
1561       -9999      93.73996   26.50629   624.3917   -9999      175.7505   -9999      14.97621  
1561.2     -9999      93.39215   26.50762   624.4212   -9999      175.7475   -9999      14.97621  
1561.4     -9999      92.7832    26.50896   624.4506   -9999      175.7444   -9999      14.97621  
1561.6     -9999      92.75211   26.5103    624.4801   -9999      175.7414   -9999      14.97621  
1561.8     -9999      92.80913   26.51163   624.5096   -9999      175.7383   -9999      14.97621  
1562       -9999      93.16775   26.51297   624.5391   -9999      175.7352   -9999      14.97621  
1562.2     -9999      93.91399   26.5143    624.5685   -9999      175.7322   -9999      14.97621  
1562.4     -9999      94.32912   26.51564   624.598    -9999      175.7291   -9999      14.9762   
1562.6     -9999      93.34198   26.51697   624.6275   -9999      175.7261   -9999      14.9762   
1562.8     -9999      92.01904   26.51831   624.657    -9999      175.723    -9999      14.9762   
1563       -9999      91.69483   26.51964   624.6864   -9999      175.7199   -9999      14.9762   
1563.2     -9999      91.86577   26.52146   624.7265   -9999      175.7158   -9999      14.62828  
1563.4     -9999      92.17037   26.52375   624.7772   -9999      175.7105   -9999      13.93243  
1563.6     -9999      92.2287    26.52605   624.8278   -9999      175.7053   -9999      13.23658  
1563.8     -9999      92.5258    26.52834   624.8785   -9999      175.7      -9999      12.54073  
1564       -9999      93.47029   26.53064   624.9291   -9999      175.6947   -9999      11.84489  
1564.2     -9999      94.32568   26.53293   624.9797   -9999      175.6895   -9999      11.14904  
1564.4     -9999      94.8011    26.53523   625.0304   -9999      175.6842   -9999      10.45319  
1564.6     -9999      94.50655   26.53753   625.0811   -9999      175.679    -9999      9.757343  
1564.8     -9999      93.63506   26.53982   625.1317   -9999      175.6737   -9999      9.061496  
1565       -9999      92.15466   26.5426    625.193    -9999      175.6674   -9999      8.57083   
1565.2     -9999      90.91257   26.54585   625.2648   -9999      175.6599   -9999      8.285348  
1565.4     -9999      90.89366   26.54911   625.3367   -9999      175.6525   -9999      7.999865  
1565.6     -9999      91.27289   26.55236   625.4085   -9999      175.645    -9999      7.714382  
1565.8     -9999      91.87289   26.55562   625.4803   -9999      175.6376   -9999      7.4289    
1566       -9999      92.28001   26.55887   625.5522   -9999      175.6301   -9999      7.143417  
1566.2     -9999      93.55248   26.56213   625.624    -9999      175.6227   -9999      6.857934  
1566.4     -9999      94.66513   26.56538   625.6958   -9999      175.6152   -9999      6.572452  
1566.6     -9999      95.01737   26.56864   625.7676   -9999      175.6078   -9999      6.286969  
1566.8     -9999      94.52567   26.57189   625.8395   -9999      175.6004   -9999      6.144228  
