~Version
 VERS              .         2.0                           : CWLS LOG ASCII STANDARD - VERSION 2.0
 WRAP              .         NO                            : ONE LINE PER DEPTH STEP
 DLM               .         SPACE                         : DELIMITING CHARACTER(SPACE TAB OR COMMA)
~Well Information
#_______________________________________________________________________________
#
#PARAMETER_NAME    .UNIT     VALUE                         : DESCRIPTION
#_______________________________________________________________________________
STRT               .m        936                           : First reference value
STOP               .m        2781                          : Last reference value
STEP               .m        0.2                           : Step increment
NULL               .         -9999                         : Missing value
COMP               .         PETROLEO BRASILEIRO S/A       : Company
WELL               .         1-ESS-37C-ES                  : Well name
FLD                .                                       : Field
LOC                .                                       : Location
CNTY               .                                       : County
STAT               .         ESPIRITO SANTO                : State
CTRY               .                                       : Country
SRVC               .                                       : Service Company
DATE               .                                       : Date
API                .         342710046100                  : API number
EDF                .M        24.00                         : Elevation Derrick Floor
GDAT               .         SIRGAS2000                    : Geodetic Datum
HZCS               .         UTM                           : Horizontal Coordinate System
LMF                .         MR                            : Log Measure From
LATI               .         -19_40_21.926                 : Latitude
LONG               .         -39_28_20.370                 : Longitude
MC                 .         39 W                          : Meridiano Central
ORIG               .         SIGEO EXPORTACAO PERFIL       : Origem dos dados
ORIGINALWELLNAME   .         1ESS 0037C ES                 : 
WDMS               .M        64.00                         : Water Depth to Mean Sea Level
X                  .         450490.60                     : Surface X
Y                  .         7824661.98                    : Surface Y
~Parameter Information Block
#_______________________________________________________________________________
#
#PARAMETER_NAME    .UNIT     VALUE                         : DESCRIPTION
#_______________________________________________________________________________
SET                .         37C_AchillesBR                : 
TLFamily_Densidade_Aparente_Seca .         Bulk Density                  : 
TLFamily_Fração_de_Areia .                                       : 
TLFamily_Idade     .                                       : 
TLFamily_MD        .         Measured Depth                : 
TLFamily_Paleobatimetria_1 .                                       : 
TLFamily_Paleobatimetria_2 .                                       : 
TLFamily_Produtividade_Primária_1 .                                       : 
TLFamily_Produtividade_Primária_2 .                                       : 
TLFamily_Taxa_de_Sedimentação .                                       : 
~Curve Information
#_______________________________________________________________________________
#
#LOGNAME           .UNIT     LOG_ID                        : DESCRIPTION
#_______________________________________________________________________________
MD                 .m                                      :  
Densidade Aparente Seca .g/cm3                                  :  
Fração de Areia    .%                                      :  
Idade              .                                       : [Ma] 
Paleobatimetria_1  .m                                      :  
Paleobatimetria_2  .m                                      :  
Produtividade Primária_1 .                                       : [gC/m²/yr] 
Produtividade Primária_2 .                                       : [gC/m²/yr]  
Taxa de Sedimentação .                                       : [cm/ka] 
~Ascii
# ...
1793.8     -9999      93.31227   31.74804   552.5799   -9999      183.8578   -9999      12.02056  
1794       -9999      92.99697   31.74971   552.4382   -9999      183.8752   -9999      12.02056  
1794.2     -9999      92.63588   31.75137   552.2964   -9999      183.8927   -9999      12.02056  
1794.4     -9999      93.04332   31.75303   552.1547   -9999      183.9101   -9999      12.02056  
1794.6     -9999      94.22868   31.7547    552.0129   -9999      183.9275   -9999      12.02056  
1794.8     -9999      94.7804    31.75636   551.8712   -9999      183.9449   -9999      12.02056  
1795       -9999      94.819     31.75803   551.7294   -9999      183.9624   -9999      12.02056  
1795.2     -9999      95.47762   31.75969   551.5877   -9999      183.9798   -9999      12.02056  
1795.4     -9999      96.11813   31.76135   551.446    -9999      183.9973   -9999      12.02055  
1795.6     -9999      96.53352   31.76302   551.3042   -9999      184.0147   -9999      12.02055  
1795.8     -9999      96.65942   31.76468   551.1625   -9999      184.0322   -9999      12.02055  
1796       -9999      96.5187    31.76635   551.0208   -9999      184.0497   -9999      12.02055  
1796.2     -9999      95.96624   31.76801   550.879    -9999      184.0672   -9999      12.02055  
1796.4     -9999      94.74213   31.76967   550.7372   -9999      184.0846   -9999      12.02055  
1796.6     -9999      92.82735   31.77134   550.5955   -9999      184.1021   -9999      12.02055  
1796.8     -9999      91.19498   31.773     550.4538   -9999      184.1196   -9999      12.02055  
1797       -9999      90.13209   31.77467   550.3121   -9999      184.1371   -9999      12.02055  
1797.2     -9999      89.10735   31.77633   550.1703   -9999      184.1546   -9999      12.02055  
1797.4     -9999      88.55344   31.77799   550.0286   -9999      184.1721   -9999      12.02055  
1797.6     -9999      88.51622   31.77966   549.8868   -9999      184.1897   -9999      12.02055  
1797.8     -9999      88.1464    31.78132   549.7451   -9999      184.2072   -9999      12.02055  
1798       -9999      87.48753   31.78298   549.6033   -9999      184.2247   -9999      12.02055  
1798.2     -9999      87.35171   31.78465   549.4616   -9999      184.2423   -9999      12.02055  
1798.4     -9999      87.12238   31.78631   549.3199   -9999      184.2598   -9999      12.02055  
1798.6     -9999      87.20517   31.78798   549.1781   -9999      184.2774   -9999      12.02055  
1798.8     -9999      87.47282   31.78964   549.0364   -9999      184.2949   -9999      12.02055  
1799       -9999      87.57744   31.79309   548.7426   -9999      184.3313   -9999      11.56502  
1799.2     -9999      87.33669   31.79832   548.2966   -9999      184.3867   -9999      10.65395  
1799.4     -9999      87.45412   31.80356   547.8508   -9999      184.442    -9999      9.742877  
1799.6     -9999      87.59924   31.80879   547.4048   -9999      184.4975   -9999      8.831806  
1799.8     -9999      87.62806   31.81403   546.9589   -9999      184.553    -9999      7.920734  
1800       -9999      87.6839    31.81926   546.513    -9999      184.6086   -9999      7.009663  
1800.2     -9999      87.56168   31.82449   546.0671   -9999      184.6642   -9999      6.098592  
1800.4     -9999      87.75976   31.82973   545.6212   -9999      184.7199   -9999      5.187521  
1800.6     -9999      88.15188   31.83496   545.1753   -9999      184.7756   -9999      4.276449  
1800.8     -9999      87.70524   31.8402    544.7294   -9999      184.8315   -9999      3.820914  
1801       -9999      87.38116   31.84543   544.2834   -9999      184.8873   -9999      3.820914  
1801.2     -9999      87.85094   31.85067   543.8375   -9999      184.9433   -9999      3.820914  
1801.4     -9999      88.03848   31.8559    543.3916   -9999      184.9993   -9999      3.820914  
1801.6     -9999      87.90585   31.86114   542.9457   -9999      185.0553   -9999      3.820914  
1801.8     -9999      87.69836   31.86637   542.4998   -9999      185.1115   -9999      3.820914  
1802       -9999      87.28155   31.8716    542.0539   -9999      185.1676   -9999      3.820914  
1802.2     -9999      87.27437   31.87684   541.608    -9999      185.2239   -9999      3.820914  
1802.4     -9999      88.06694   31.88207   541.162    -9999      185.2802   -9999      3.820914  
1802.6     -9999      88.4503    31.88731   540.7161   -9999      185.3366   -9999      3.820914  
1802.8     -9999      88.28339   31.89254   540.2703   -9999      185.3931   -9999      3.820914  
1803       -9999      88.28339   31.89778   539.8243   -9999      185.4496   -9999      3.820914  
1803.2     -9999      88.28531   31.90301   539.3784   -9999      185.5061   -9999      3.820914  
1803.4     -9999      88.37964   31.90824   538.9325   -9999      185.5628   -9999      3.820914  
1803.6     -9999      88.38976   31.91348   538.4866   -9999      185.6195   -9999      3.820914  
1803.8     -9999      88.38976   31.91871   538.0406   -9999      185.6763   -9999      3.820914  
1804       -9999      88.35282   31.92395   537.5948   -9999      185.7331   -9999      3.820914  
1804.2     -9999      88.16414   31.92918   537.1489   -9999      185.79     -9999      3.820914  
1804.4     -9999      87.89472   31.93442   536.7029   -9999      185.8469   -9999      3.820914  
1804.6     -9999      87.99068   31.93965   536.257    -9999      185.904    -9999      3.820914  
1804.8     -9999      87.96758   31.94488   535.8111   -9999      185.9611   -9999      3.820914  
1805       -9999      87.64494   31.95012   535.3652   -9999      186.0182   -9999      3.820914  
1805.2     -9999      87.54464   31.95535   534.9193   -9999      186.0754   -9999      3.820913  
1805.4     -9999      87.72362   31.96059   534.4734   -9999      186.1327   -9999      3.820913  
1805.6     -9999      87.74384   31.96582   534.0275   -9999      186.1901   -9999      3.820913  
1805.8     -9999      87.78325   31.97106   533.5815   -9999      186.2475   -9999      3.820913  
1806       -9999      87.91842   31.97629   533.1356   -9999      186.305    -9999      3.820913  
1806.2     -9999      88.15792   31.98023   532.8003   -9999      186.3482   -9999      4.029822  
1806.4     -9999      88.0854    31.98286   532.5756   -9999      186.3773   -9999      4.44764   
1806.6     -9999      88.17111   31.9855    532.3508   -9999      186.4063   -9999      4.865458  
1806.8     -9999      88.44071   31.98814   532.1261   -9999      186.4353   -9999      5.283276  
1807       -9999      88.64087   31.99078   531.9014   -9999      186.4644   -9999      5.701094  
1807.2     -9999      88.37923   31.99342   531.6766   -9999      186.4935   -9999      6.118912  
1807.4     -9999      87.90492   31.99606   531.4519   -9999      186.5226   -9999      6.536729  
1807.6     -9999      87.56989   31.99869   531.2272   -9999      186.5517   -9999      6.954547  
1807.8     -9999      87.64473   32.00133   531.0024   -9999      186.5809   -9999      7.372365  
1808       -9999      88.25288   32.00449   530.7335   -9999      186.6158   -9999      7.462342  
1808.2     -9999      88.41528   32.00816   530.4203   -9999      186.6564   -9999      7.224477  
1808.4     -9999      87.92556   32.01184   530.1071   -9999      186.6971   -9999      6.986612  
1808.6     -9999      87.8076    32.01552   529.7939   -9999      186.7379   -9999      6.748747  
1808.8     -9999      87.9304    32.01919   529.4808   -9999      186.7786   -9999      6.510882  
1809       -9999      88.22609   32.02287   529.1676   -9999      186.8194   -9999      6.273017  
1809.2     -9999      88.21456   32.02655   528.8544   -9999      186.8602   -9999      6.035152  
1809.4     -9999      88.29178   32.03022   528.5413   -9999      186.9011   -9999      5.797287  
1809.6     -9999      88.89692   32.0339    528.2281   -9999      186.942    -9999      5.559422  
1809.8     -9999      89.59388   32.03887   527.8044   -9999      186.9974   -9999      5.315382  
