~Version ---------------------------------------------------
VERS.   2.0 : CWLS log ASCII Standard -VERSION 2.0
WRAP.    NO : One line per depth step
DLM . SPACE : Column Data Section Delimiter
~Well ------------------------------------------------------
STRT   .m         2062.5 : START DEPTH
STOP   .m         6413.0 : STOP DEPTH
STEP   .m            0.5 : STEP
NULL   .          -99999 : NULL VALUE
COMP   .                 : COMPANY
WELL   .                 : WELL
FLD    .                 : FIELD
LOC    .                 : LOCATION
PROV   .                 : PROVINCE
CNTY   .                 : COUNTY
STAT   .                 : STATE
CTRY   .                 : COUNTRY
SRVC   .                 : SERVICE COMPANY
DATE   .                 : DATE
UWI    .                 : UNIQUE WELL ID
API    .                 : API NUMBER
WELL   . Simulacao_COT_3 : Well Name
GDAT   .                 : Horizontal Coordinate System
COORDEW.                 : Surface X
COORDNS.                 : Surface Y
LATI   .                 : Latitude
LONG   .                 : Longitude
~Curve Information -----------------------------------------
Profundidade [m]           .m         : 
Densidade Aparente Seca    .g/cm³     : 
Produtividade Primária     .gC/m²/yr  : 
Taxa de Sedimentação       .cm/ka     : 
Paleobatimetria            .m         : 
Fração de Areia            .%         : 
Idades                     .Ma        : 
Fluxo de Carbono [gC/m²/yr].gC/m²/yr  : 
COₘₐ [%]                   .%         : 
rCO [%]                    .%         : 
qCO [%]                    .%         : 
COₜₑ [%]                   .          : 
COT [%]                    .%         : 
~Params ----------------------------------------------------
~Other -----------------------------------------------------
~ASCII -----------------------------------------------------
# ...
 2650.50000    1.88436  123.78338    6.66046 1613.98395   95.22168   70.58545    0.46052    0.04650    0.02389    0.28670    0.31059    0.35709
 2651.00000    1.96738  123.82660    6.66045 1612.45812   94.92327   70.59296    0.46131    0.04462    0.02538    0.30460    0.32999    0.37460
 2651.50000    1.94909  123.86988    6.66047 1610.93230   95.97690   70.60046    0.46210    0.04511    0.02012    0.24139    0.26150    0.30661
 2652.00000    2.05713  123.91321    6.66046 1609.40647   95.58281   70.60797    0.46289    0.04281    0.02209    0.26503    0.28712    0.32993
 2652.50000    1.93395  123.95660    6.66043 1607.88065   95.05524   70.61548    0.46368    0.04562    0.02472    0.29669    0.32141    0.36703
 2653.00000    1.90372  124.00005    6.66046 1606.35481   95.08850   70.62298    0.46448    0.04642    0.02456    0.29469    0.31925    0.36567
 2653.50000    1.96873  124.04355    6.66043 1604.82900   95.45569   70.63049    0.46528    0.04497    0.02272    0.27266    0.29538    0.34035
 2654.00000    1.89162  124.08209    8.56074 1603.47903   95.17970   70.63713    0.46598    0.04571    0.02410    0.28922    0.31332    0.35903
 2654.50000    1.96594  124.11601    8.56074 1602.29190   95.28378   70.64297    0.46661    0.04404    0.02358    0.28297    0.30655    0.35060
 2655.00000    1.86889  124.14997    8.56074 1601.10477   95.42215   70.64881    0.46723    0.04639    0.02289    0.27467    0.29756    0.34395
 2655.50000    1.95776  124.18396    8.56074 1599.91766   94.97783   70.65466    0.46786    0.04434    0.02511    0.30133    0.32644    0.37078
 2656.00000    2.04130  124.21799    8.56074 1598.73052   95.30235   70.66050    0.46848    0.04259    0.02349    0.28186    0.30535    0.34793
 2656.50000    1.81679  124.25205    8.56074 1597.54339   95.11844   70.66634    0.46911    0.04791    0.02441    0.29289    0.31730    0.36521
 2657.00000    1.95480  124.28615    8.56074 1596.35628   95.26213   70.67218    0.46974    0.04459    0.02369    0.28427    0.30796    0.35255
 2657.50000    1.83389  124.32028    8.56074 1595.16915   95.35551   70.67802    0.47037    0.04759    0.02322    0.27867    0.30189    0.34948
 2658.00000    1.91883  124.35445    8.56074 1593.98202   95.59332   70.68386    0.47101    0.04555    0.02203    0.26440    0.28643    0.33198
 2658.50000    1.84165  124.38865    8.56074 1592.79490   95.53144   70.68970    0.47164    0.04752    0.02234    0.26811    0.29046    0.33798
 2659.00000    2.25658  124.42289    8.56074 1591.60777   95.82374   70.69554    0.47227    0.03883    0.02088    0.25058    0.27146    0.31029
 2659.50000    1.87668  124.45716    8.56074 1590.42066   95.15113   70.70138    0.47291    0.04676    0.02424    0.29093    0.31518    0.36194
 2660.00000    1.99835  124.49146    8.56074 1589.23353   95.42659   70.70722    0.47355    0.04397    0.02287    0.27440    0.29727    0.34124
 2660.50000    1.98479  124.52580    8.56074 1588.04639   95.33815   70.71306    0.47419    0.04433    0.02331    0.27971    0.30302    0.34735
 2661.00000    1.88296  124.56018    8.56074 1586.85927   95.56170   70.71890    0.47483    0.04679    0.02219    0.26630    0.28849    0.33528
 2661.50000    1.96360  124.59459    8.56074 1585.67215   95.22888   70.72474    0.47547    0.04493    0.02386    0.28627    0.31012    0.35505
 2662.00000    1.89898  124.62904    8.56074 1584.48502   95.50912   70.73058    0.47611    0.04652    0.02245    0.26945    0.29191    0.33843
 2662.50000    1.94259  124.66352    8.56074 1583.29791   95.43741   70.73642    0.47676    0.04554    0.02281    0.27376    0.29657    0.34211
 2663.00000    1.95871  124.69804    8.56074 1582.11077   95.70977   70.74226    0.47740    0.04523    0.02145    0.25741    0.27886    0.32409
 2663.50000    2.24406  124.73260    8.56074 1580.92364   95.47819   70.74811    0.47805    0.03953    0.02261    0.27131    0.29392    0.33345
 2664.00000    2.15157  124.76718    8.56074 1579.73652   95.98669   70.75395    0.47870    0.04128    0.02007    0.24080    0.26087    0.30215
 2664.50000    1.85874  124.80181    8.56074 1578.54940   95.33070   70.75979    0.47935    0.04785    0.02335    0.28016    0.30350    0.35136
 2665.00000    2.03196  124.83647    8.56074 1577.36227   95.33614   70.76563    0.48000    0.04383    0.02332    0.27983    0.30315    0.34698
 2665.50000    1.86347  124.87116    8.56074 1576.17515   95.62141   70.77147    0.48065    0.04786    0.02189    0.26272    0.28461    0.33247
 2666.00000    1.94252  124.90590    8.56074 1574.98802   94.87614   70.77731    0.48131    0.04598    0.02562    0.30743    0.33305    0.37903
 2666.50000    1.86167  124.94066    8.56074 1573.80090   95.22609   70.78315    0.48196    0.04804    0.02387    0.28643    0.31030    0.35834
 2667.00000    1.93802  124.97547    8.56074 1572.61378   95.47817   70.78899    0.48262    0.04621    0.02261    0.27131    0.29392    0.34013
 2667.50000    1.95385  125.01031    8.56074 1571.42664   95.19262   70.79483    0.48328    0.04590    0.02404    0.28844    0.31248    0.35838
 2668.00000    1.92768  125.04518    8.56074 1570.23952   95.33384   70.80067    0.48394    0.04658    0.02333    0.27997    0.30330    0.34988
 2668.50000    2.02018  125.08010    8.56074 1569.05240   94.92206   70.80651    0.48460    0.04451    0.02539    0.30468    0.33007    0.37458
 2669.00000    1.90785  125.11504    8.56074 1567.86527   95.21076   70.81235    0.48526    0.04720    0.02395    0.28735    0.31130    0.35850
 2669.50000    2.04693  125.15003    8.56074 1566.67815   95.59316   70.81819    0.48592    0.04405    0.02203    0.26441    0.28644    0.33049
 2670.00000    2.20032  125.18505    8.56074 1565.49102   95.33109   70.82403    0.48659    0.04103    0.02334    0.28013    0.30348    0.34451
 2670.50000    2.28945  125.22010    8.56074 1564.30389   96.10690   70.82987    0.48725    0.03949    0.01947    0.23359    0.25305    0.29254
 2671.00000    2.03128  125.25520    8.56078 1563.11677   95.53268   70.83571    0.48792    0.04457    0.02234    0.26804    0.29038    0.33495
 2671.50000    1.99450  125.29033    8.56074 1561.92965   95.42037   70.84155    0.48859    0.04546    0.02290    0.27478    0.29768    0.34313
 2672.00000    1.94856  125.32550    8.56074 1560.74252   95.27685   70.84740    0.48926    0.04659    0.02362    0.28339    0.30700    0.35360
 2672.50000    1.99532  125.36070    8.56074 1559.55540   95.56899   70.85324    0.48993    0.04556    0.02216    0.26586    0.28802    0.33358
 2673.00000    2.31152  125.39594    8.56074 1558.36827   95.74888   70.85908    0.49061    0.03938    0.02126    0.25507    0.27632    0.31571
 2673.50000    2.04768  125.43121    8.56074 1557.18114   95.08939   70.86492    0.49128    0.04452    0.02455    0.29464    0.31919    0.36371
 2674.00000    1.94018  125.46653    8.56074 1555.99402   95.00016   70.87076    0.49196    0.04705    0.02500    0.29999    0.32499    0.37204
 2674.50000    1.98920  125.50188    8.56074 1554.80689   95.44761   70.87660    0.49264    0.04595    0.02276    0.27314    0.29591    0.34186
 2675.00000    2.01864  125.53727    8.56074 1553.61976   95.83911   70.88244    0.49332    0.04535    0.02080    0.24965    0.27046    0.31580
 2675.50000    1.92241  125.57269    8.56074 1552.43265   95.28430   70.88828    0.49400    0.04768    0.02358    0.28294    0.30652    0.35420
 2676.00000    1.77245  125.60815    8.56074 1551.24552   95.36783   70.89412    0.49468    0.05179    0.02316    0.27793    0.30109    0.35288
 2676.50000    1.70385  125.64365    8.56074 1550.05839   95.41170   70.89996    0.49536    0.05395    0.02294    0.27530    0.29824    0.35219
 2677.00000    1.71111  125.67919    8.56074 1548.87127   95.35808   70.90580    0.49605    0.05379    0.02321    0.27851    0.30172    0.35552
 2677.50000    1.79775  125.71476    8.56074 1547.68414   95.35456   70.91164    0.49674    0.05127    0.02323    0.27873    0.30195    0.35322
 2678.00000    1.69838  125.75037    8.56076 1546.49702   95.35755   70.91748    0.49742    0.05435    0.02321    0.27855    0.30176    0.35611
