~Version ---------------------------------------------------
VERS.   2.0 : CWLS log ASCII Standard -VERSION 2.0
WRAP.    NO : One line per depth step
DLM . SPACE : Column Data Section Delimiter
~Well ------------------------------------------------------
STRT   .m         2062.5 : START DEPTH
STOP   .m         6413.0 : STOP DEPTH
STEP   .m            0.5 : STEP
NULL   .          -99999 : NULL VALUE
COMP   .                 : COMPANY
WELL   .                 : WELL
FLD    .                 : FIELD
LOC    .                 : LOCATION
PROV   .                 : PROVINCE
CNTY   .                 : COUNTY
STAT   .                 : STATE
CTRY   .                 : COUNTRY
SRVC   .                 : SERVICE COMPANY
DATE   .                 : DATE
UWI    .                 : UNIQUE WELL ID
API    .                 : API NUMBER
WELL   . Simulacao_COT_3 : Well Name
GDAT   .                 : Horizontal Coordinate System
COORDEW.                 : Surface X
COORDNS.                 : Surface Y
LATI   .                 : Latitude
LONG   .                 : Longitude
~Curve Information -----------------------------------------
Profundidade [m]           .m         : 
Densidade Aparente Seca    .g/cm³     : 
Produtividade Primária     .gC/m²/yr  : 
Taxa de Sedimentação       .cm/ka     : 
Paleobatimetria            .m         : 
Fração de Areia            .%         : 
Idades                     .Ma        : 
Fluxo de Carbono [gC/m²/yr].gC/m²/yr  : 
COₘₐ [%]                   .%         : 
rCO [%]                    .%         : 
qCO [%]                    .%         : 
COₜₑ [%]                   .          : 
COT [%]                    .%         : 
~Params ----------------------------------------------------
~Other -----------------------------------------------------
~ASCII -----------------------------------------------------
# ...
 4638.50000    2.24199  147.55392    6.34087 1002.79970   94.78632   98.60039    1.08698    0.09270    0.02607    0.31282    0.33889    0.43159
 4639.00000    2.27663  147.38184    6.34074 1005.97538   93.90555   98.60827    1.08080    0.09077    0.03047    0.36567    0.39614    0.48691
 4639.50000    2.27230  147.21046    6.34049 1009.15107   93.03874   98.61616    1.07467    0.09043    0.03481    0.41768    0.45248    0.54291
 4640.00000    2.16372  147.03986    6.34057 1012.32673   92.69440   98.62405    1.06859    0.09443    0.03653    0.43834    0.47486    0.56930
 4640.50000    2.26430  146.86995    6.34100 1015.50239   93.00944   98.63193    1.06257    0.08973    0.03495    0.41943    0.45439    0.54412
 4641.00000    2.18829  146.70080    6.34070 1018.67808   96.09422   98.63982    1.05660    0.09233    0.01953    0.23435    0.25388    0.34620
 4641.50000    2.25629  146.53234    6.34049 1021.85376   95.94458   98.64770    1.05068    0.08904    0.02028    0.24333    0.26360    0.35264
 4642.00000    2.22485  146.36463    6.34050 1025.02942   95.74496   98.65559    1.04482    0.08980    0.02128    0.25530    0.27658    0.36637
 4642.50000    2.24911  146.19760    6.34049 1028.20509   95.20239   98.66347    1.03900    0.08833    0.02399    0.28786    0.31184    0.40018
 4643.00000    2.33262  146.03130    6.34051 1031.38076   94.36241   98.67136    1.03323    0.08470    0.02819    0.33826    0.36644    0.45114
 4643.50000    2.34206  145.86567    6.34066 1034.55645   95.41069   98.67925    1.02752    0.08389    0.02295    0.27536    0.29830    0.38219
 4644.00000    2.33588  145.70076    6.34049 1037.73211   95.04418   98.68713    1.02185    0.08365    0.02478    0.29735    0.32213    0.40578
 4644.50000    2.27948  145.53652    6.34049 1040.90779   94.02187   98.69502    1.01623    0.08525    0.02989    0.35869    0.38858    0.47382
 4645.00000    2.27718  145.37298    6.34058 1044.08345   94.39243   98.70290    1.01066    0.08486    0.02804    0.33645    0.36449    0.44936
 4645.50000    2.29210  145.21011    6.34079 1047.25912   94.70630   98.71079    1.00514    0.08385    0.02647    0.31762    0.34409    0.42794
 4646.00000    2.29354  145.04793    6.34071 1050.43480   94.75142   98.71867    0.99966    0.08334    0.02624    0.31491    0.34116    0.42450
 4646.50000    2.23868  144.88639    6.34049 1053.61048   92.77533   98.72656    0.99423    0.08492    0.03612    0.43348    0.46960    0.55452
 4647.00000    2.17422  144.72555    6.34060 1056.78615   95.22784   98.73445    0.98885    0.08696    0.02386    0.28633    0.31019    0.39715
 4647.50000    2.33433  144.56534    6.34058 1059.96181   95.10568   98.74233    0.98351    0.08056    0.02447    0.29366    0.31813    0.39869
 4648.00000    2.27118  144.40581    6.34073 1063.13750   94.19410   98.75022    0.97821    0.08236    0.02903    0.34835    0.37738    0.45974
 4648.50000    2.10286  144.24691    6.34049 1066.31318   94.83232   98.75810    0.97296    0.08847    0.02584    0.31006    0.33590    0.42437
 4649.00000    2.29548  144.08868    6.34054 1069.48884   95.17169   98.76599    0.96775    0.08061    0.02414    0.28970    0.31384    0.39445
 4649.50000    2.24375  143.93107    6.34049 1072.66451   93.87231   98.77387    0.96259    0.08203    0.03064    0.36766    0.39830    0.48033
 4650.00000    2.13793  143.77412    6.34049 1075.84018   94.30395   98.78176    0.95747    0.08563    0.02848    0.34176    0.37024    0.45588
 4650.50000    2.27259  143.61778    6.34059 1079.01584   94.97953   98.78965    0.95239    0.08013    0.02510    0.30123    0.32633    0.40646
 4651.00000    2.26776  143.46209    6.34061 1082.19153   92.73275   98.79753    0.94735    0.07988    0.03634    0.43603    0.47237    0.55225
 4651.50000    2.31059  143.30700    6.34049 1085.36721   94.92523   98.80542    0.94235    0.07798    0.02537    0.30449    0.32986    0.40784
 4652.00000    2.09883  143.15255    6.34054 1088.54287   95.15716   98.81330    0.93740    0.08540    0.02421    0.29057    0.31478    0.40019
 4652.50000    2.25342  142.99870    6.34072 1091.71854   95.24730   98.82119    0.93248    0.07913    0.02376    0.28516    0.30893    0.38805
 4653.00000    2.23016  142.84548    6.34067 1094.89422   92.95357   98.82907    0.92761    0.07953    0.03523    0.42279    0.45802    0.53755
 4653.50000    2.19221  142.69285    6.34049 1098.06990   93.91532   98.83696    0.92277    0.08049    0.03042    0.36508    0.39550    0.47599
 4654.00000    2.29229  142.54084    6.34064 1101.24557   95.62546   98.84485    0.91798    0.07657    0.02187    0.26247    0.28434    0.36092
 4654.50000    2.25858  142.38941    6.34065 1104.42123   94.54185   98.85273    0.91322    0.07731    0.02729    0.32749    0.35478    0.43209
 4655.00000    2.21432  142.23859    6.34074 1107.59692   93.90637   98.86062    0.90850    0.07845    0.03047    0.36562    0.39609    0.47454
 4655.50000    2.20469  142.08835    6.34049 1110.77260   95.59007   98.86850    0.90382    0.07839    0.02205    0.26460    0.28665    0.36503
 4656.00000    2.31311  141.93871    6.34057 1113.94826   94.51027   98.87639    0.89918    0.07433    0.02745    0.32938    0.35683    0.43116
 4656.50000    2.29844  141.78963    6.34052 1117.12393   94.33120   98.88427    0.89457    0.07442    0.02834    0.34013    0.36847    0.44289
 4657.00000    2.23076  141.64116    6.34049 1120.29960   94.24271   98.89216    0.89000    0.07629    0.02879    0.34544    0.37422    0.45051
 4657.50000    2.31409  141.49324    6.34052 1123.47526   94.30836   98.90004    0.88546    0.07317    0.02846    0.34150    0.36996    0.44312
 4658.00000    2.28510  141.34591    6.34057 1126.65096   94.60226   98.90793    0.88096    0.07372    0.02699    0.32386    0.35085    0.42457
 4658.50000    2.24195  141.19913    6.34049 1129.82663   92.93981   98.91582    0.87650    0.07476    0.03530    0.42361    0.45891    0.53367
 4659.00000    2.29140  141.05293    6.34050 1133.00229   91.05441   98.92370    0.87207    0.07277    0.04473    0.53674    0.58146    0.65424
 4659.50000    2.23983  140.90727    6.34065 1136.17795   94.62623   98.93159    0.86768    0.07407    0.02687    0.32243    0.34930    0.42337
 4660.00000    2.18047  140.76219    4.10163 1139.35364   92.70095   98.93947    0.86332    0.07908    0.03650    0.43794    0.47444    0.55352
 4660.50000    2.33517  140.61764    4.10163 1142.52932   92.21004   98.94736    0.85899    0.07347    0.03895    0.46740    0.50635    0.57982
 4661.00000    2.30057  140.47366    4.10163 1145.70499   94.53400   98.95525    0.85470    0.07420    0.02733    0.32796    0.35529    0.42949
 4661.50000    2.23790  140.33021    4.10163 1148.88065   94.38941   98.96313    0.85044    0.07590    0.02805    0.33664    0.36469    0.44059
 4662.00000    2.21457  140.18731    4.10163 1152.05634   93.16473   98.97102    0.84622    0.07632    0.03418    0.41012    0.44429    0.52061
 4662.50000    2.33446  140.04494    4.10163 1155.23202   90.42392   98.97890    0.84203    0.07204    0.04788    0.57456    0.62245    0.69448
 4663.00000    2.13795  139.87681    4.10163 1158.99848   93.66321   98.98826    0.83709    0.07820    0.03168    0.38021    0.41189    0.49009
 4663.50000    2.32502  139.66134    4.10167 1163.84862   94.65481   99.00044    0.83081    0.07137    0.02673    0.32071    0.34744    0.41881
 4664.00000    2.33764  139.51576    4.10163 1167.14210   94.17093   99.01264    0.82658    0.07062    0.02915    0.34974    0.37889    0.44951
 4664.50000    2.29569  139.37071    4.10163 1170.43559   94.07730   99.02483    0.82239    0.07155    0.02961    0.35536    0.38498    0.45652
 4665.00000    2.14156  139.22625    4.10163 1173.72908   93.14926   99.03702    0.81823    0.07631    0.03425    0.41104    0.44530    0.52161
 4665.50000    2.35248  139.08232    4.10163 1177.02256   94.63245   99.04921    0.81410    0.06912    0.02684    0.32205    0.34889    0.41801
 4666.00000    2.31194  138.93896    4.10163 1180.31605   94.05212   99.06140    0.81001    0.06998    0.02974    0.35687    0.38661    0.45659
