~Version ---------------------------------------------------
VERS.   2.0 : CWLS log ASCII Standard -VERSION 2.0
WRAP.    NO : One line per depth step
DLM . SPACE : Column Data Section Delimiter
~Well ------------------------------------------------------
STRT   .m         2062.5 : START DEPTH
STOP   .m         6413.0 : STOP DEPTH
STEP   .m            0.5 : STEP
NULL   .          -99999 : NULL VALUE
COMP   .                 : COMPANY
WELL   .                 : WELL
FLD    .                 : FIELD
LOC    .                 : LOCATION
PROV   .                 : PROVINCE
CNTY   .                 : COUNTY
STAT   .                 : STATE
CTRY   .                 : COUNTRY
SRVC   .                 : SERVICE COMPANY
DATE   .                 : DATE
UWI    .                 : UNIQUE WELL ID
API    .                 : API NUMBER
WELL   . Simulacao_COT_3 : Well Name
GDAT   .                 : Horizontal Coordinate System
COORDEW.                 : Surface X
COORDNS.                 : Surface Y
LATI   .                 : Latitude
LONG   .                 : Longitude
~Curve Information -----------------------------------------
Profundidade [m]           .m         : 
Densidade Aparente Seca    .g/cm³     : 
Produtividade Primária     .gC/m²/yr  : 
Taxa de Sedimentação       .cm/ka     : 
Paleobatimetria            .m         : 
Fração de Areia            .%         : 
Idades                     .Ma        : 
Fluxo de Carbono [gC/m²/yr].gC/m²/yr  : 
COₘₐ [%]                   .%         : 
rCO [%]                    .%         : 
qCO [%]                    .%         : 
COₜₑ [%]                   .          : 
COT [%]                    .%         : 
~Params ----------------------------------------------------
~Other -----------------------------------------------------
~ASCII -----------------------------------------------------
# ...
 2930.50000    2.02897  183.88946    8.74955  552.32248   94.34003   74.47421    3.18886    0.29100    0.02830    0.33960    0.36790    0.65889
 2931.00000    2.08209  183.84400    8.74862  552.69256   94.83882   74.47993    3.18500    0.28323    0.02581    0.30967    0.33548    0.61871
 2931.50000    1.98575  183.79858    8.74943  553.06264   94.68821   74.48564    3.18116    0.29661    0.02656    0.31871    0.34527    0.64188
 2932.00000    2.01905  183.75321    8.74877  553.43273   95.73876   74.49136    3.17732    0.29137    0.02131    0.25567    0.27698    0.56835
 2932.50000    1.89815  183.70787    8.74856  553.80280   95.50994   74.49707    3.17349    0.30956    0.02245    0.26940    0.29185    0.60141
 2933.00000    1.82515  183.66258    8.74924  554.17289   95.33596   74.50279    3.16967    0.32155    0.02332    0.27984    0.30316    0.62471
 2933.50000    2.07005  183.61733    8.74856  554.54297   96.61271   74.50850    3.16585    0.28317    0.01694    0.20324    0.22017    0.50334
 2934.00000    2.01834  183.57212    8.74912  554.91305   95.64294   74.51422    3.16204    0.29007    0.02179    0.26142    0.28321    0.57328
 2934.50000    2.00257  183.52695    8.74908  555.28314   96.54357   74.51993    3.15824    0.29200    0.01728    0.20739    0.22467    0.51667
 2935.00000    1.97041  183.48183    8.74856  555.65322   95.39318   74.52565    3.15445    0.29641    0.02303    0.27641    0.29944    0.59586
 2935.50000    2.02561  183.43674    8.74893  556.02330   95.41159   74.53136    3.15066    0.28799    0.02294    0.27530    0.29825    0.58624
 2936.00000    2.10586  183.39170    8.74856  556.39338   96.49347   74.53708    3.14688    0.27668    0.01753    0.21039    0.22792    0.50461
 2936.50000    2.03706  183.34669    8.74881  556.76346   95.82223   74.54279    3.14310    0.28569    0.02089    0.25067    0.27155    0.55724
 2937.00000    1.90517  183.30173    8.74938  557.13355   95.83305   74.54851    3.13934    0.30509    0.02083    0.25002    0.27085    0.57595
 2937.50000    1.99112  183.25681    8.74856  557.50363   95.84435   74.55422    3.13558    0.29158    0.02078    0.24934    0.27012    0.56170
 2938.00000    1.93620  183.21193    8.74894  557.87371   95.09324   74.55994    3.13183    0.29949    0.02453    0.29441    0.31894    0.61843
 2938.50000    1.76466  183.16709    8.74857  558.24379   94.12224   74.56565    3.12808    0.32821    0.02939    0.35267    0.38205    0.71026
 2939.00000    2.01974  183.12229    8.74863  558.61387   95.33915   74.57137    3.12434    0.28642    0.02330    0.27965    0.30296    0.58937
 2939.50000    1.94530  183.07753    8.74944  558.98396   94.83205   74.57708    3.12061    0.29702    0.02584    0.31008    0.33592    0.63293
 2940.00000    1.86929  183.03281    8.74875  559.35404   94.47099   74.58280    3.11689    0.30873    0.02765    0.33174    0.35939    0.66812
 2940.50000    2.03356  182.98813    8.74932  559.72412   95.79058   74.58851    3.11317    0.28345    0.02105    0.25257    0.27361    0.55706
 2941.00000    2.08716  182.94349    8.74888  560.09421   95.38627   74.59423    3.10946    0.27584    0.02307    0.27682    0.29989    0.57573
 2941.50000    1.88216  182.89890    8.74856  560.46429   94.28527   74.59994    3.10575    0.30552    0.02857    0.34288    0.37146    0.67698
 2942.00000    1.87463  182.85434    8.74913  560.83437   95.19975   74.60566    3.10205    0.30638    0.02400    0.28802    0.31202    0.61840
 2942.50000    2.03868  182.80982    8.74906  561.20445   95.94644   74.61137    3.09836    0.28139    0.02027    0.24321    0.26348    0.54487
 2943.00000    1.87512  182.76535    8.74901  561.57453   94.18847   74.61709    3.09468    0.30558    0.02906    0.34869    0.37775    0.68333
 2943.50000    2.30752  182.72091    8.74919  561.94462   95.67928   74.62280    3.09100    0.24802    0.02160    0.25924    0.28085    0.52887
 2944.00000    2.06184  182.67651    8.74856  562.31470   95.64618   74.62852    3.08733    0.27725    0.02177    0.26123    0.28300    0.56024
 2944.50000    1.82363  182.63216    8.74882  562.68478   94.90579   74.63423    3.08367    0.31309    0.02547    0.30565    0.33112    0.64421
 2945.00000    1.81468  182.58784    8.74906  563.05486   94.94284   74.63995    3.08001    0.31426    0.02529    0.30343    0.32872    0.64297
 2945.50000    1.79074  182.54356    8.74870  563.42494   94.73777   74.64566    3.07636    0.31808    0.02631    0.31573    0.34204    0.66013
 2946.00000    1.97332  182.49933    8.74938  563.79503   94.65306   74.65138    3.07272    0.28831    0.02673    0.32082    0.34755    0.63586
 2946.50000    1.82509  182.45513    8.74856  564.16511   94.04932   74.65709    3.06909    0.31136    0.02975    0.35704    0.38679    0.69815
 2947.00000    1.90165  182.41097    8.74863  564.53519   95.14131   74.66281    3.06546    0.29847    0.02429    0.29152    0.31581    0.61428
 2947.50000    2.13216  182.36686    8.74868  564.90527   95.80175   74.66852    3.06183    0.26589    0.02099    0.25190    0.27289    0.53877
 2948.00000    2.02520  182.32278    8.74857  565.27535   94.96982   74.67424    3.05822    0.27960    0.02515    0.30181    0.32696    0.60656
 2948.50000    1.99701  182.27874    8.74933  565.64544   94.71680   74.67995    3.05461    0.28321    0.02642    0.31699    0.34341    0.62662
 2949.00000    1.98648  182.23569    9.50131  566.00749   95.57261   74.68554    3.05108    0.28205    0.02214    0.26564    0.28778    0.56983
 2949.50000    2.04014  182.19521    9.50167  566.34825   95.29202   74.69081    3.04777    0.27433    0.02354    0.28248    0.30602    0.58035
 2950.00000    1.89646  182.15477    9.50161  566.68903   95.13043   74.69607    3.04446    0.29479    0.02435    0.29217    0.31652    0.61131
 2950.50000    2.03989  182.11435    9.50125  567.02980   94.99872   74.70133    3.04116    0.27377    0.02501    0.30008    0.32508    0.59885
 2951.00000    2.04128  182.07397    9.50163  567.37056   95.52819   74.70659    3.03787    0.27328    0.02236    0.26831    0.29067    0.56395
 2951.50000    2.05206  182.03363    9.50171  567.71133   94.49045   74.71185    3.03458    0.27155    0.02755    0.33057    0.35812    0.62968
 2952.00000    1.87086  181.99331    9.50133  568.05210   93.26009   74.71712    3.03129    0.29753    0.03370    0.40439    0.43809    0.73563
 2952.50000    1.73300  181.95303    9.50125  568.39287   93.73140   74.72238    3.02801    0.32086    0.03134    0.37612    0.40746    0.72831
 2953.00000    2.31498  181.91278    9.50148  568.73364   94.74493   74.72764    3.02474    0.23993    0.02628    0.31530    0.34158    0.58151
 2953.50000    2.17713  181.87257    9.50142  569.07441   95.94344   74.73290    3.02147    0.25485    0.02028    0.24339    0.26368    0.51853
 2954.00000    2.00617  181.83239    9.50125  569.41518   94.82873   74.73817    3.01821    0.27627    0.02586    0.31028    0.33613    0.61240
 2954.50000    1.75117  181.79224    9.50125  569.75594   95.69712   74.74343    3.01495    0.31616    0.02151    0.25817    0.27969    0.59584
 2955.00000    2.10517  181.75212    9.50138  570.09671   95.16010   74.74869    3.01170    0.26271    0.02420    0.29039    0.31459    0.57730
 2955.50000    1.92812  181.71204    9.50125  570.43748   94.72530   74.75395    3.00846    0.28652    0.02637    0.31648    0.34286    0.62938
 2956.00000    1.91257  181.67199    9.50182  570.77825   95.37817   74.75922    3.00522    0.28854    0.02311    0.27731    0.30042    0.58896
 2956.50000    1.94938  181.63197    9.50217  571.11902   95.20333   74.76448    3.00198    0.28279    0.02398    0.28780    0.31178    0.59457
 2957.00000    1.95121  181.59199    9.50156  571.45979   93.99315   74.76974    2.99875    0.28222    0.03003    0.36041    0.39045    0.67266
 2957.50000    1.77776  181.55203    9.50125  571.80056   94.81183   74.77500    2.99553    0.30942    0.02594    0.31129    0.33723    0.64665
 2958.00000    1.88904  181.51211    9.50125  572.14133   96.08733   74.78026    2.99231    0.29088    0.01956    0.23476    0.25432    0.54520
