~Version ---------------------------------------------------
VERS.   2.0 : CWLS log ASCII Standard -VERSION 2.0
WRAP.    NO : One line per depth step
DLM . SPACE : Column Data Section Delimiter
~Well ------------------------------------------------------
STRT   .m         2062.5 : START DEPTH
STOP   .m         6413.0 : STOP DEPTH
STEP   .m            0.5 : STEP
NULL   .          -99999 : NULL VALUE
COMP   .                 : COMPANY
WELL   .                 : WELL
FLD    .                 : FIELD
LOC    .                 : LOCATION
PROV   .                 : PROVINCE
CNTY   .                 : COUNTY
STAT   .                 : STATE
CTRY   .                 : COUNTRY
SRVC   .                 : SERVICE COMPANY
DATE   .                 : DATE
UWI    .                 : UNIQUE WELL ID
API    .                 : API NUMBER
WELL   . Simulacao_COT_3 : Well Name
GDAT   .                 : Horizontal Coordinate System
COORDEW.                 : Surface X
COORDNS.                 : Surface Y
LATI   .                 : Latitude
LONG   .                 : Longitude
~Curve Information -----------------------------------------
Profundidade [m]           .m         : 
Densidade Aparente Seca    .g/cm³     : 
Produtividade Primária     .gC/m²/yr  : 
Taxa de Sedimentação       .cm/ka     : 
Paleobatimetria            .m         : 
Fração de Areia            .%         : 
Idades                     .Ma        : 
Fluxo de Carbono [gC/m²/yr].gC/m²/yr  : 
COₘₐ [%]                   .%         : 
rCO [%]                    .%         : 
qCO [%]                    .%         : 
COₜₑ [%]                   .          : 
COT [%]                    .%         : 
~Params ----------------------------------------------------
~Other -----------------------------------------------------
~ASCII -----------------------------------------------------
# ...
 5506.50000    2.46658  150.56350    6.88609  949.41663   93.40077  110.70430    1.19976    0.09224    0.03300    0.39595    0.42895    0.52119
 5507.00000    2.52955  150.56350    6.88618  949.41663   97.66572  110.70935    1.19976    0.08995    0.01167    0.14006    0.15173    0.24167
 5507.50000    2.39595  150.56350    6.88653  949.41663   97.73292  110.71440    1.19976    0.09496    0.01134    0.13603    0.14736    0.24232
 5508.00000    2.37834  150.56350    6.88602  949.41663   94.99484  110.71946    1.19976    0.09566    0.02503    0.30031    0.32534    0.42100
 5508.50000    2.38691  150.56350    6.88598  949.41663   86.13318  110.72451    1.19976    0.09532    0.06933    0.83201    0.90134    0.99666
 5509.00000    2.46679  150.56350    6.88646  949.41663   90.97378  110.72988    1.19976    0.09223    0.04513    0.54157    0.58670    0.67894
 5509.50000    2.51736  150.56350    6.88648  949.41663   98.53266  110.73702    1.19976    0.09038    0.00734    0.08804    0.09538    0.18576
 5510.00000    2.48762  150.56350    6.88597  949.41663   96.94112  110.74428    1.19976    0.09146    0.01529    0.18353    0.19883    0.29029
 5510.50000    2.42075  150.56350    6.88613  949.41663   89.98292  110.75155    1.19976    0.09399    0.05009    0.60102    0.65111    0.74510
 5511.00000    2.59261  150.56350    6.88636  949.41663   95.20842  110.75881    1.19976    0.08776    0.02396    0.28749    0.31145    0.39921
 5511.50000    2.61637  150.56350    6.88596  949.41663   97.33353  110.76607    1.19976    0.08696    0.01333    0.15999    0.17332    0.26028
 5512.00000    2.62770  150.56350    6.88625  949.41663   97.73524  110.77333    1.19976    0.08659    0.01132    0.13589    0.14721    0.23380
 5512.50000    2.52677  150.56350    6.88625  949.41663   98.32571  110.78059    1.19976    0.09004    0.00837    0.10046    0.10883    0.19887
 5513.00000    2.46349  150.56350    6.88603  949.41663   94.76348  110.78785    1.19976    0.09236    0.02618    0.31419    0.34037    0.43273
 5513.50000    2.50576  150.56350    6.88636  949.41663   91.82763  110.79511    1.19976    0.09080    0.04086    0.49034    0.53120    0.62200
 5514.00000    2.64753  150.56350    6.88640  949.41663   98.04645  110.80237    1.19976    0.08594    0.00977    0.11721    0.12698    0.21292
 5514.50000    2.54527  150.56350    6.88610  949.41663   97.87063  110.80963    1.19976    0.08939    0.01065    0.12776    0.13841    0.22780
 5515.00000    2.47989  150.56350    6.88597  949.41663   94.22237  110.81689    1.19976    0.09175    0.02889    0.34666    0.37555    0.46729
 5515.50000    2.39188  150.56350    6.88652  949.41663   90.80610  110.82416    1.19976    0.09512    0.04597    0.55163    0.59760    0.69273
 5516.00000    2.62374  150.56350    6.88629  949.41663   97.84831  110.83141    1.19976    0.08672    0.01076    0.12910    0.13986    0.22658
 5516.50000    2.57606  150.56350    6.88597  949.41663   98.30051  110.83868    1.19976    0.08832    0.00850    0.10197    0.11047    0.19879
 5517.00000    2.57793  150.56350    6.88632  949.41663   98.06131  110.84594    1.19976    0.08826    0.00969    0.11632    0.12601    0.21427
 5517.50000    2.43419  150.56350    6.88649  949.41663   93.87958  110.85320    1.19976    0.09347    0.03060    0.36723    0.39783    0.49130
 5518.00000    2.59974  150.56350    6.88615  949.41663   95.74211  110.86046    1.19976    0.08752    0.02129    0.25547    0.27676    0.36428
 5518.50000    2.64443  150.56350    6.88613  949.41663   98.34101  110.86772    1.19976    0.08604    0.00829    0.09954    0.10783    0.19387
 5519.00000    2.61613  150.56350    6.88638  949.41663   97.91311  110.87498    1.19976    0.08697    0.01043    0.12521    0.13565    0.22262
 5519.50000    2.61401  150.56350    6.88633  949.41663   98.09745  110.88224    1.19976    0.08704    0.00951    0.11415    0.12367    0.21071
 5520.00000    2.57254  150.56350    6.88615  949.41663   97.07478  110.88950    1.19976    0.08844    0.01463    0.17551    0.19014    0.27858
 5520.50000    2.58189  150.56350    6.88628  949.41663   97.34843  110.89676    1.19976    0.08812    0.01326    0.15909    0.17235    0.26047
 5521.00000    2.63934  150.56350    6.88638  949.41663   98.26410  110.90402    1.19976    0.08620    0.00868    0.10415    0.11283    0.19904
 5521.50000    2.65298  150.56350    6.88618  949.41663   98.26830  110.91129    1.19976    0.08576    0.00866    0.10390    0.11256    0.19832
 5522.00000    2.63847  150.56350    6.88612  949.41663   97.86189  110.91855    1.19976    0.08623    0.01069    0.12829    0.13898    0.22521
 5522.50000    2.67073  150.56350    6.88643  949.41663   98.10908  110.92581    1.19976    0.08519    0.00945    0.11346    0.12291    0.20810
 5523.00000    2.66514  150.56350    6.88607  949.41663   97.81767  110.93307    1.19976    0.08537    0.01091    0.13094    0.14185    0.22722
 5523.50000    2.66398  150.56350    6.88603  949.41663   98.32815  110.94033    1.19976    0.08541    0.00836    0.10031    0.10867    0.19408
 5524.00000    2.65630  150.56350    5.97637  949.41663   98.28588  110.94759    1.19976    0.08688    0.00857    0.10285    0.11142    0.19829
 5524.50000    2.63590  150.56350    5.28726  949.41663   98.07732  110.95485    1.19976    0.08863    0.00961    0.11536    0.12497    0.21360
 5525.00000    2.61733  150.56350    5.28703  949.41663   98.06145  110.96211    1.19976    0.08926    0.00969    0.11631    0.12601    0.21526
 5525.50000    2.55418  150.56350    5.28689  949.41663   94.86604  110.96937    1.19976    0.09146    0.02567    0.30804    0.33371    0.42517
 5526.00000    2.64087  150.56350    5.28708  949.41663   98.50656  110.97663    1.19976    0.08846    0.00747    0.08961    0.09707    0.18553
 5526.50000    2.61596  150.56350    5.28699  949.41663   98.23326  110.98389    1.19976    0.08930    0.00883    0.10600    0.11484    0.20414
 5527.00000    2.62356  150.56350    5.28699  949.41663   98.28061  110.99115    1.19976    0.08904    0.00860    0.10316    0.11176    0.20081
 5527.50000    2.65508  150.56350    5.28689  949.41663   98.01088  110.99841    1.19976    0.08799    0.00995    0.11935    0.12929    0.21728
 5528.00000    2.65731  150.56350    5.28694  949.41663   98.32939  111.00568    1.19976    0.08791    0.00835    0.10024    0.10859    0.19650
 5528.50000    2.64561  150.56350    5.28708  949.41663   98.40164  111.01294    1.19976    0.08830    0.00799    0.09590    0.10389    0.19220
 5529.00000    2.64194  150.56350    5.28703  949.41663   98.35963  111.02020    1.19976    0.08843    0.00820    0.09842    0.10662    0.19505
 5529.50000    2.65081  150.56350    5.28689  949.41663   98.44058  111.02746    1.19976    0.08813    0.00780    0.09356    0.10136    0.18949
 5530.00000    2.64373  150.56350    5.28699  949.41663   97.92522  111.03472    1.19976    0.08837    0.01037    0.12449    0.13486    0.22323
 5530.50000    2.64059  150.56350    5.28689  949.41663   97.87923  111.04198    1.19976    0.08847    0.01060    0.12725    0.13785    0.22632
 5531.00000    2.65329  150.56350    5.28689  949.41663   98.15083  111.04924    1.19976    0.08805    0.00925    0.11095    0.12020    0.20824
 5531.50000    2.64158  150.56350    5.28689  949.41663   97.90549  111.05650    1.19976    0.08844    0.01047    0.12567    0.13614    0.22458
 5532.00000    2.65191  150.56350    5.28689  949.41663   97.84380  111.06376    1.19976    0.08809    0.01078    0.12937    0.14015    0.22825
 5532.50000    2.60470  150.56350    5.28689  949.41663   97.95997  111.07102    1.19976    0.08969    0.01020    0.12240    0.13260    0.22229
 5533.00000    2.54909  150.56350    5.28694  949.41663   95.22172  111.07829    1.19976    0.09165    0.02389    0.28670    0.31059    0.40223
 5533.50000    2.64515  150.56350    5.28689  949.41663   97.86092  111.08555    1.19976    0.08832    0.01070    0.12834    0.13904    0.22736
 5534.00000    2.63529  150.56350    5.28689  949.41663   98.41330  111.09281    1.19976    0.08865    0.00793    0.09520    0.10314    0.19178
