~Version ---------------------------------------------------
VERS.   2.0 : CWLS log ASCII Standard -VERSION 2.0
WRAP.    NO : One line per depth step
DLM . SPACE : Column Data Section Delimiter
~Well ------------------------------------------------------
STRT   .m         2062.5 : START DEPTH
STOP   .m         6413.0 : STOP DEPTH
STEP   .m            0.5 : STEP
NULL   .          -99999 : NULL VALUE
COMP   .                 : COMPANY
WELL   .                 : WELL
FLD    .                 : FIELD
LOC    .                 : LOCATION
PROV   .                 : PROVINCE
CNTY   .                 : COUNTY
STAT   .                 : STATE
CTRY   .                 : COUNTRY
SRVC   .                 : SERVICE COMPANY
DATE   .                 : DATE
UWI    .                 : UNIQUE WELL ID
API    .                 : API NUMBER
WELL   . Simulacao_COT_3 : Well Name
GDAT   .                 : Horizontal Coordinate System
COORDEW.                 : Surface X
COORDNS.                 : Surface Y
LATI   .                 : Latitude
LONG   .                 : Longitude
~Curve Information -----------------------------------------
Profundidade [m]           .m         : 
Densidade Aparente Seca    .g/cm³     : 
Produtividade Primária     .gC/m²/yr  : 
Taxa de Sedimentação       .cm/ka     : 
Paleobatimetria            .m         : 
Fração de Areia            .%         : 
Idades                     .Ma        : 
Fluxo de Carbono [gC/m²/yr].gC/m²/yr  : 
COₘₐ [%]                   .%         : 
rCO [%]                    .%         : 
qCO [%]                    .%         : 
COₜₑ [%]                   .          : 
COT [%]                    .%         : 
~Params ----------------------------------------------------
~Other -----------------------------------------------------
~ASCII -----------------------------------------------------
# ...
 4358.50000    2.20467  163.22103    8.25942  762.92184   90.62538   94.27187    1.78025    0.15037    0.04687    0.56248    0.60935    0.75972
 4359.00000    2.24800  163.07630    8.25955  764.75770   91.44648   94.27792    1.77255    0.14684    0.04277    0.51321    0.55598    0.70282
 4359.50000    2.25716  162.93203    8.25990  766.59355   92.14853   94.28398    1.76490    0.14561    0.03926    0.47109    0.51035    0.65595
 4360.00000    2.19881  162.78826    8.25988  768.42940   92.05582   94.29003    1.75730    0.14883    0.03972    0.47665    0.51637    0.66520
 4360.50000    2.25791  162.64493    8.25964  770.26525   92.25848   94.29608    1.74975    0.14431    0.03871    0.46449    0.50320    0.64751
 4361.00000    2.21784  162.50209    8.25988  772.10112   92.11192   94.30214    1.74224    0.14629    0.03944    0.47328    0.51273    0.65901
 4361.50000    2.22132  162.35969    8.25975  773.93696   91.57111   94.30819    1.73479    0.14543    0.04214    0.50573    0.54788    0.69331
 4362.00000    2.22084  162.21778    8.25955  775.77281   92.57634   94.31424    1.72739    0.14485    0.03712    0.44542    0.48254    0.62738
 4362.50000    2.24806  162.07631    8.25957  777.60866   91.18279   94.32030    1.72004    0.14248    0.04409    0.52903    0.57312    0.71560
 4363.00000    2.18527  161.93531    8.25988  779.44452   93.52664   94.32635    1.71274    0.14595    0.03237    0.38840    0.42077    0.56672
 4363.50000    2.19984  161.79474    8.25997  781.28037   93.17235   94.33240    1.70548    0.14437    0.03414    0.40966    0.44380    0.58817
 4364.00000    2.25277  161.65465    8.25942  783.11623   91.46394   94.33846    1.69827    0.14039    0.04268    0.51216    0.55484    0.69523
 4364.50000    2.25034  161.51499    8.26009  784.95209   93.03482   94.34451    1.69111    0.13994    0.03483    0.41791    0.45274    0.59268
 4365.00000    2.27724  161.37579    8.25969  786.78793   94.19096   94.35056    1.68400    0.13771    0.02905    0.34854    0.37759    0.51530
 4365.50000    2.25935  161.23702    8.25930  788.62377   93.17790   94.35662    1.67693    0.13822    0.03411    0.40933    0.44344    0.58165
 4366.00000    2.24753  161.09870    8.25963  790.45963   91.97759   94.36267    1.66991    0.13836    0.04011    0.48134    0.52146    0.65982
 4366.50000    2.20302  160.96081    8.26002  792.29549   93.73873   94.36872    1.66293    0.14057    0.03131    0.37568    0.40698    0.54755
 4367.00000    2.24383  160.82337    8.25928  794.13133   91.81498   94.37478    1.65600    0.13744    0.04093    0.49110    0.53203    0.66946
 4367.50000    2.24564  160.68635    8.25991  795.96720   91.64325   94.38083    1.64912    0.13675    0.04178    0.50141    0.54319    0.67994
 4368.00000    2.29487  160.54978    8.25988  797.80305   91.99251   94.38688    1.64228    0.13327    0.04004    0.48045    0.52049    0.65375
 4368.50000    2.26668  160.41362    8.25963  799.63889   92.99102   94.39294    1.63548    0.13437    0.03504    0.42054    0.45558    0.58995
 4369.00000    2.23457  160.27791    8.25955  801.47474   94.93382   94.39899    1.62872    0.13573    0.02533    0.30397    0.32930    0.46504
 4369.50000    2.21861  160.14260    8.25969  803.31060   93.56165   94.40505    1.62201    0.13615    0.03219    0.38630    0.41849    0.55464
 4370.00000    2.22375  160.00774    8.25980  805.14646   93.30930   94.41110    1.61535    0.13527    0.03345    0.40144    0.43490    0.57017
 4370.50000    2.18842  159.87327    8.25958  806.98231   91.96382   94.41715    1.60872    0.13689    0.04018    0.48217    0.52235    0.65924
 4371.00000    2.22603  159.73924    8.25988  808.81816   92.52341   94.42321    1.60214    0.13403    0.03738    0.44860    0.48598    0.62001
 4371.50000    2.32063  159.60561    8.25996  810.65402   91.78031   94.42926    1.59560    0.12804    0.04110    0.49318    0.53428    0.66232
 4372.00000    2.24166  159.47242    8.25957  812.48986   91.00458   94.43531    1.58910    0.13201    0.04498    0.53972    0.58470    0.71671
 4372.50000    2.19222  159.33961    8.25936  814.32571   90.50753   94.44137    1.58264    0.13444    0.04746    0.56955    0.61701    0.75145
 4373.00000    2.26318  159.20723    8.25999  816.16157   91.27804   94.44742    1.57622    0.12970    0.04361    0.52332    0.56693    0.69662
 4373.50000    2.21087  159.07525    8.25929  817.99742   91.98854   94.45347    1.56984    0.13223    0.04006    0.48069    0.52075    0.65297
 4374.00000    2.27535  158.94368    8.25964  819.83328   92.07504   94.45953    1.56350    0.12796    0.03962    0.47550    0.51512    0.64308
 4374.50000    2.21006  158.81250    8.26003  821.66913   91.27500   94.46558    1.55720    0.13121    0.04362    0.52350    0.56712    0.69834
 4375.00000    2.26083  158.68174    8.25988  823.50498   91.77356   94.47163    1.55095    0.12775    0.04113    0.49359    0.53472    0.66247
 4375.50000    2.22422  158.55136    8.25951  825.34082   91.95626   94.47769    1.54473    0.12933    0.04022    0.48262    0.52284    0.65218
 4376.00000    2.21789  158.42139    8.25948  827.17669   93.00709   94.48374    1.53854    0.12918    0.03496    0.41957    0.45454    0.58372
 4376.50000    2.19181  158.29180    8.25962  829.01254   94.50721   94.48979    1.53240    0.13020    0.02746    0.32957    0.35703    0.48723
 4377.00000    2.26312  158.16262    7.56368  830.84839   93.96933   94.49585    1.52630    0.12670    0.03015    0.36184    0.39199    0.51870
 4377.50000    2.22294  158.03381    7.56364  832.68424   91.44780   94.50190    1.52023    0.12848    0.04276    0.51313    0.55589    0.68437
 4378.00000    2.23932  157.90541    7.56371  834.52010   93.59158   94.50795    1.51420    0.12703    0.03204    0.38451    0.41655    0.54358
 4378.50000    2.24651  157.77737    7.56376  836.35595   92.14694   94.51401    1.50821    0.12613    0.03927    0.47118    0.51045    0.63658
 4379.00000    2.18066  157.64974    7.56380  838.19179   92.52153   94.52006    1.50225    0.12942    0.03739    0.44871    0.48610    0.61552
 4379.50000    2.20921  157.52247    7.56385  840.02766   91.79957   94.52612    1.49633    0.12725    0.04100    0.49203    0.53303    0.66027
 4380.00000    2.20875  157.38970    7.56352  841.94914   92.42473   94.53245    1.49018    0.12675    0.03788    0.45452    0.49239    0.61914
 4380.50000    2.20443  157.25158    7.56328  843.95396   91.78517   94.53906    1.48379    0.12645    0.04107    0.49289    0.53396    0.66042
 4381.00000    2.24125  157.11393    7.56333  845.95880   90.99257   94.54567    1.47746    0.12385    0.04504    0.54045    0.58548    0.70933
 4381.50000    2.24186  156.97671    7.56328  847.96363   91.09166   94.55228    1.47116    0.12328    0.04454    0.53450    0.57904    0.70233
 4382.00000    2.20490  156.83996    7.56337  849.96845   93.30009   94.55889    1.46490    0.12482    0.03350    0.40199    0.43549    0.56031
 4382.50000    2.18166  156.70362    7.56338  851.97327   93.32337   94.56550    1.45869    0.12561    0.03338    0.40060    0.43398    0.55959
 4383.00000    2.19423  156.56774    7.56328  853.97810   91.26761   94.57211    1.45251    0.12436    0.04366    0.52394    0.56761    0.69197
 4383.50000    2.18516  156.43228    7.56328  855.98292   91.21709   94.57873    1.44638    0.12435    0.04391    0.52697    0.57089    0.69524
 4384.00000    2.24855  156.29727    7.56346  857.98774   90.40579   94.58534    1.44029    0.12034    0.04797    0.57565    0.62362    0.74396
 4384.50000    2.20861  156.16268    7.56374  859.99256   90.78498   94.59195    1.43423    0.12200    0.04608    0.55290    0.59898    0.72098
 4385.00000    2.21109  156.02853    7.56369  861.99739   92.44571   94.59856    1.42822    0.12135    0.03777    0.45326    0.49103    0.61238
 4385.50000    2.24167  155.89479    7.56365  864.00221   95.03246   94.60517    1.42225    0.11919    0.02484    0.29805    0.32289    0.44208
 4386.00000    2.19773  155.76149    7.56360  866.00703   92.46180   94.61178    1.41631    0.12107    0.03769    0.45229    0.48998    0.61105
