~Version ---------------------------------------------------
VERS.   2.0 : CWLS log ASCII Standard -VERSION 2.0
WRAP.    NO : One line per depth step
DLM . SPACE : Column Data Section Delimiter
~Well ------------------------------------------------------
STRT   .m         2062.5 : START DEPTH
STOP   .m         6413.0 : STOP DEPTH
STEP   .m            0.5 : STEP
NULL   .          -99999 : NULL VALUE
COMP   .                 : COMPANY
WELL   .                 : WELL
FLD    .                 : FIELD
LOC    .                 : LOCATION
PROV   .                 : PROVINCE
CNTY   .                 : COUNTY
STAT   .                 : STATE
CTRY   .                 : COUNTRY
SRVC   .                 : SERVICE COMPANY
DATE   .                 : DATE
UWI    .                 : UNIQUE WELL ID
API    .                 : API NUMBER
WELL   . Simulacao_COT_3 : Well Name
GDAT   .                 : Horizontal Coordinate System
COORDEW.                 : Surface X
COORDNS.                 : Surface Y
LATI   .                 : Latitude
LONG   .                 : Longitude
~Curve Information -----------------------------------------
Profundidade [m]           .m         : 
Densidade Aparente Seca    .g/cm³     : 
Produtividade Primária     .gC/m²/yr  : 
Taxa de Sedimentação       .cm/ka     : 
Paleobatimetria            .m         : 
Fração de Areia            .%         : 
Idades                     .Ma        : 
Fluxo de Carbono [gC/m²/yr].gC/m²/yr  : 
COₘₐ [%]                   .%         : 
rCO [%]                    .%         : 
qCO [%]                    .%         : 
COₜₑ [%]                   .          : 
COT [%]                    .%         : 
~Params ----------------------------------------------------
~Other -----------------------------------------------------
~ASCII -----------------------------------------------------
# ...
 6094.50000    2.41481  150.56350    6.84841  949.41663   93.75100  119.41805    1.19976    0.09427    0.03125    0.37494    0.40619    0.50046
 6095.00000    2.44316  150.56350    6.84845  949.41663   94.49114  119.42535    1.19976    0.09318    0.02754    0.33053    0.35808    0.45125
 6095.50000    2.48892  150.56350    6.84848  949.41663   93.73914  119.43265    1.19976    0.09146    0.03130    0.37565    0.40696    0.49842
 6096.00000    2.44247  150.56350    6.84840  949.41663   92.02941  119.43995    1.19976    0.09320    0.03985    0.47824    0.51809    0.61129
 6096.50000    2.42145  150.56350    6.84847  949.41663   92.24316  119.44725    1.19976    0.09401    0.03878    0.46541    0.50419    0.59821
 6097.00000    2.47455  150.56350   10.36735  949.41663   93.65973  119.45455    1.19976    0.08826    0.03170    0.38042    0.41212    0.50038
 6097.50000    2.53029  150.56350   10.36637  949.41663   91.87175  119.46185    1.19976    0.08632    0.04064    0.48770    0.52834    0.61465
 6098.00000    2.48736  150.56350   10.36700  949.41663   91.19898  119.46915    1.19976    0.08780    0.04401    0.52806    0.57207    0.65987
 6098.50000    2.49974  150.56350   10.36735  949.41663   93.10700  119.47645    1.19976    0.08737    0.03446    0.41358    0.44804    0.53541
 6099.00000    2.49207  150.56350   10.36669  949.41663   92.36712  119.48376    1.19976    0.08764    0.03816    0.45797    0.49614    0.58378
 6099.50000    2.46506  150.56350   10.36602  949.41663   92.77645  119.49106    1.19976    0.08860    0.03612    0.43341    0.46953    0.55813
 6100.00000    2.48009  150.56350   10.36722  949.41663   91.58275  119.49836    1.19976    0.08806    0.04209    0.50504    0.54712    0.63518
 6100.50000    2.52386  150.56350   10.36725  949.41663   92.05218  119.50566    1.19976    0.08653    0.03974    0.47687    0.51661    0.60314
 6101.00000    2.51802  150.56350   10.36686  949.41663   92.25342  119.51296    1.19976    0.08674    0.03873    0.46479    0.50353    0.59026
 6101.50000    2.48102  150.56350   10.36735  949.41663   92.51243  119.52026    1.19976    0.08803    0.03744    0.44925    0.48669    0.57472
 6102.00000    2.53958  150.56350   10.36735  949.41663   92.08748  119.52756    1.19976    0.08600    0.03956    0.47475    0.51431    0.60031
 6102.50000    2.56165  150.56350   10.36691  949.41663   92.55428  119.53486    1.19976    0.08526    0.03723    0.44674    0.48397    0.56923
 6103.00000    2.53662  150.56350   10.36646  949.41663   92.11885  119.54216    1.19976    0.08610    0.03941    0.47287    0.51227    0.59837
 6103.50000    2.52591  150.56350   10.36735  949.41663   92.60610  119.54946    1.19976    0.08646    0.03697    0.44363    0.48060    0.56707
 6104.00000    2.54953  150.56350   10.36686  949.41663   93.17605  119.55676    1.19976    0.08566    0.03412    0.40944    0.44356    0.52922
 6104.50000    2.54556  150.56350   10.36656  949.41663   92.61303  119.56406    1.19976    0.08580    0.03693    0.44322    0.48015    0.56595
 6105.00000    2.54233  150.56350   10.36695  949.41663   90.34936  119.57136    1.19976    0.08591    0.04825    0.57904    0.62729    0.71320
 6105.50000    2.49911  150.56350   10.36735  949.41663   91.72603  119.57866    1.19976    0.08739    0.04137    0.49644    0.53781    0.62520
 6106.00000    2.50493  150.56350   10.36669  949.41663   92.15858  119.58597    1.19976    0.08719    0.03921    0.47049    0.50969    0.59688
 6106.50000    2.50161  150.56350   10.36621  949.41663   92.08246  119.59327    1.19976    0.08731    0.03959    0.47505    0.51464    0.60195
 6107.00000    2.52108  150.56350   10.36712  949.41663   92.00437  119.60057    1.19976    0.08663    0.03998    0.47974    0.51972    0.60635
 6107.50000    2.51858  150.56350   10.36735  949.41663   92.00066  119.60787    1.19976    0.08672    0.04000    0.47996    0.51996    0.60667
 6108.00000    2.52502  150.56350   10.36677  949.41663   92.72322  119.61517    1.19976    0.08650    0.03638    0.43661    0.47299    0.55949
 6108.50000    2.57622  150.56350   10.36735  949.41663   92.90672  119.62247    1.19976    0.08478    0.03547    0.42560    0.46106    0.54584
 6109.00000    2.47395  150.56350   10.36730  949.41663   91.50135  119.62977    1.19976    0.08828    0.04249    0.50992    0.55241    0.64069
 6109.50000    2.50268  150.56350   10.36710  949.41663   89.64002  119.63707    1.19976    0.08727    0.05180    0.62160    0.67340    0.76067
 6110.00000    2.53046  150.56350   10.36627  949.41663   90.78729  119.64258    1.19976    0.08631    0.04606    0.55276    0.59883    0.68514
 6110.50000    2.52815  150.56350   10.36735  949.41663   92.35455  119.64741    1.19976    0.08639    0.03823    0.45873    0.49695    0.58334
 6111.00000    2.54911  150.56350   10.36696  949.41663   92.44797  119.65223    1.19976    0.08568    0.03776    0.45312    0.49088    0.57656
 6111.50000    2.57377  150.56350   10.36675  949.41663   92.32808  119.65705    1.19976    0.08486    0.03836    0.46032    0.49867    0.58353
 6112.00000    2.52946  150.56350   10.36685  949.41663   92.04884  119.66188    1.19976    0.08634    0.03976    0.47707    0.51683    0.60317
 6112.50000    2.55178  150.56350   10.36735  949.41663   92.46885  119.66670    1.19976    0.08559    0.03766    0.45187    0.48952    0.57511
 6113.00000    2.53421  150.56350   10.36679  949.41663   92.06426  119.67152    1.19976    0.08618    0.03968    0.47614    0.51582    0.60200
 6113.50000    2.51338  150.56350   10.36688  949.41663   91.77083  119.67634    1.19976    0.08690    0.04115    0.49375    0.53490    0.62179
 6114.00000    2.52424  150.56350   10.36702  949.41663   92.71382  119.68117    1.19976    0.08652    0.03643    0.43717    0.47360    0.56012
 6114.50000    2.57568  150.56350   10.36735  949.41663   91.58294  119.68599    1.19976    0.08479    0.04209    0.50502    0.54711    0.63190
 6115.00000    2.58283  150.56350   10.36620  949.41663   92.61034  119.69081    1.19976    0.08456    0.03695    0.44338    0.48033    0.56489
 6115.50000    2.57158  150.56350   10.36723  949.41663   91.81821  119.69564    1.19976    0.08493    0.04091    0.49091    0.53182    0.61675
 6116.00000    2.60477  150.56350   10.36723  949.41663   93.28491  119.70046    1.19976    0.08385    0.03358    0.40291    0.43648    0.52033
 6116.50000    2.61599  150.56350   10.36729  949.41663   93.39645  119.70528    1.19976    0.08349    0.03302    0.39621    0.42923    0.51272
 6117.00000    2.55278  150.56350   10.36670  949.41663   93.32012  119.71010    1.19976    0.08555    0.03340    0.40079    0.43419    0.51975
 6117.50000    2.56640  150.56350   10.36735  949.41663   93.52173  119.71493    1.19976    0.08510    0.03239    0.38870    0.42109    0.50619
 6118.00000    2.55322  150.56350   10.36706  949.41663   93.87037  119.71975    1.19976    0.08554    0.03065    0.36778    0.39843    0.48397
 6118.50000    2.56957  150.56350   10.36634  949.41663   93.12259  119.72457    1.19976    0.08500    0.03439    0.41264    0.44703    0.53203
 6119.00000    2.54035  150.56350   10.36675  949.41663   92.37894  119.72940    1.19976    0.08597    0.03811    0.45726    0.49537    0.58134
 6119.50000    2.51953  150.56350   10.36735  949.41663   92.77081  119.73422    1.19976    0.08668    0.03615    0.43375    0.46990    0.55658
 6120.00000    2.53011  150.56350   10.36688  949.41663   92.25568  119.73904    1.19976    0.08632    0.03872    0.46466    0.50338    0.58970
 6120.50000    2.55738  150.56350   10.36669  949.41663   92.12950  119.74387    1.19976    0.08540    0.03935    0.47223    0.51158    0.59698
 6121.00000    2.53578  150.56350   10.36693  949.41663   92.31190  119.74869    1.19976    0.08613    0.03844    0.46129    0.49973    0.58585
 6121.50000    2.54992  150.56350   10.36735  949.41663   93.37873  119.75351    1.19976    0.08565    0.03311    0.39728    0.43038    0.51603
 6122.00000    2.55012  150.56350   10.36633  949.41663   93.63592  119.75834    1.19976    0.08564    0.03182    0.38184    0.41367    0.49931
