~Version ---------------------------------------------------
VERS.   2.0 : CWLS log ASCII Standard -VERSION 2.0
WRAP.    NO : One line per depth step
DLM . SPACE : Column Data Section Delimiter
~Well ------------------------------------------------------
STRT   .m         2062.5 : START DEPTH
STOP   .m         6413.0 : STOP DEPTH
STEP   .m            0.5 : STEP
NULL   .          -99999 : NULL VALUE
COMP   .                 : COMPANY
WELL   .                 : WELL
FLD    .                 : FIELD
LOC    .                 : LOCATION
PROV   .                 : PROVINCE
CNTY   .                 : COUNTY
STAT   .                 : STATE
CTRY   .                 : COUNTRY
SRVC   .                 : SERVICE COMPANY
DATE   .                 : DATE
UWI    .                 : UNIQUE WELL ID
API    .                 : API NUMBER
WELL   . Simulacao_COT_3 : Well Name
GDAT   .                 : Horizontal Coordinate System
COORDEW.                 : Surface X
COORDNS.                 : Surface Y
LATI   .                 : Latitude
LONG   .                 : Longitude
~Curve Information -----------------------------------------
Profundidade [m]           .m         : 
Densidade Aparente Seca    .g/cm³     : 
Produtividade Primária     .gC/m²/yr  : 
Taxa de Sedimentação       .cm/ka     : 
Paleobatimetria            .m         : 
Fração de Areia            .%         : 
Idades                     .Ma        : 
Fluxo de Carbono [gC/m²/yr].gC/m²/yr  : 
COₘₐ [%]                   .%         : 
rCO [%]                    .%         : 
qCO [%]                    .%         : 
COₜₑ [%]                   .          : 
COT [%]                    .%         : 
~Params ----------------------------------------------------
~Other -----------------------------------------------------
~ASCII -----------------------------------------------------
# ...
 6374.50000    2.49804  150.56350    4.92949  949.41663   92.61518  123.51601    1.19976    0.09418    0.03692    0.44309    0.48001    0.57419
 6375.00000    2.52736  150.56350    4.92949  949.41663   93.35831  123.52319    1.19976    0.09308    0.03321    0.39850    0.43171    0.52479
 6375.50000    2.48583  150.56350    4.92949  949.41663   92.82728  123.53037    1.19976    0.09464    0.03586    0.43036    0.46623    0.56087
 6376.00000    2.40720  150.56350    4.92949  949.41663   90.53847  123.53756    1.19976    0.09773    0.04731    0.56769    0.61500    0.71273
 6376.50000    2.39399  150.56350    4.92949  949.41663   91.30277  123.54474    1.19976    0.09827    0.04349    0.52183    0.56532    0.66359
 6377.00000    2.43499  150.56350    4.92949  949.41663   90.94279  123.55192    1.19976    0.09661    0.04529    0.54343    0.58872    0.68533
 6377.50000    2.45393  150.56350    4.92949  949.41663   91.34823  123.55910    1.19976    0.09587    0.04326    0.51911    0.56237    0.65823
 6378.00000    2.41282  150.56350    4.92949  949.41663   91.30059  123.56628    1.19976    0.09750    0.04350    0.52196    0.56546    0.66296
 6378.50000    2.44731  150.56350    4.92949  949.41663   91.43358  123.57347    1.19976    0.09613    0.04283    0.51398    0.55682    0.65295
 6379.00000    2.59141  150.56350    4.92949  949.41663   91.76039  123.58065    1.19976    0.09078    0.04120    0.49438    0.53557    0.62636
 6379.50000    2.54204  150.56350    4.92949  949.41663   91.60573  123.58783    1.19976    0.09255    0.04197    0.50366    0.54563    0.63817
 6380.00000    2.42106  150.56350    4.92949  949.41663   91.42300  123.59501    1.19976    0.09717    0.04288    0.51462    0.55750    0.65468
 6380.50000    2.46697  150.56350    4.92949  949.41663   91.38364  123.60220    1.19976    0.09536    0.04308    0.51698    0.56006    0.65543
 6381.00000    2.42182  150.56350    4.92949  949.41663   91.96717  123.60938    1.19976    0.09714    0.04016    0.48197    0.52213    0.61927
 6381.50000    2.48129  150.56350    4.92949  949.41663   91.21113  123.61656    1.19976    0.09481    0.04394    0.52733    0.57128    0.66609
 6382.00000    2.53423  150.56350    4.92949  949.41663   91.02710  123.62374    1.19976    0.09283    0.04486    0.53837    0.58324    0.67607
 6382.50000    2.46751  150.56350    4.92949  949.41663   91.13141  123.63093    1.19976    0.09534    0.04434    0.53212    0.57646    0.67180
 6383.00000    2.45996  150.56350    4.92949  949.41663   91.50190  123.63811    1.19976    0.09563    0.04249    0.50989    0.55238    0.64801
 6383.50000    2.46066  150.56350    4.92949  949.41663   91.78959  123.64529    1.19976    0.09561    0.04105    0.49262    0.53368    0.62928
 6384.00000    2.42127  150.56350    4.92949  949.41663   91.54876  123.65247    1.19976    0.09716    0.04226    0.50707    0.54933    0.64649
 6384.50000    2.47321  150.56350    4.92949  949.41663   90.71470  123.65966    1.19976    0.09512    0.04643    0.55712    0.60354    0.69867
 6385.00000    2.50456  150.56350    4.92949  949.41663   91.58754  123.66684    1.19976    0.09393    0.04206    0.50475    0.54681    0.64074
 6385.50000    2.47001  150.56350    4.92949  949.41663   89.85038  123.67402    1.19976    0.09525    0.05075    0.60898    0.65973    0.75497
 6386.00000    2.49175  150.56350    4.92949  949.41663   88.42063  123.68120    1.19976    0.09441    0.05790    0.69476    0.75266    0.84707
 6386.50000    2.48188  150.56350    4.92949  949.41663   88.42063  123.68839    1.19976    0.09479    0.05790    0.69476    0.75266    0.84745
 6387.00000    2.56351  150.56350    4.92949  949.41663   88.42063  123.69823    1.19976    0.09177    0.05790    0.69476    0.75266    0.84443
 6387.50000    2.64936  150.56350    4.92949  949.41663   88.42063  123.70838    1.19976    0.08880    0.05790    0.69476    0.75266    0.84146
 6388.00000    2.46545  150.56350    4.92949  949.41663   88.42063  123.71852    1.19976    0.09542    0.05790    0.69476    0.75266    0.84808
 6388.50000    2.42781  150.56350    4.92949  949.41663   88.42063  123.72866    1.19976    0.09690    0.05790    0.69476    0.75266    0.84956
 6389.00000    2.51473  150.56350    4.92949  949.41663   88.42063  123.73881    1.19976    0.09355    0.05790    0.69476    0.75266    0.84621
 6389.50000    2.53933  150.56350    4.92949  949.41663   88.42063  123.74895    1.19976    0.09264    0.05790    0.69476    0.75266    0.84530
 6390.00000    2.54975  150.56350    4.92949  949.41663   88.42063  123.75909    1.19976    0.09227    0.05790    0.69476    0.75266    0.84493
 6390.50000    2.49623  150.56350    4.92949  949.41663   88.42063  123.76924    1.19976    0.09424    0.05790    0.69476    0.75266    0.84690
 6391.00000    2.48586  150.56350    4.92949  949.41663   88.42063  123.77938    1.19976    0.09464    0.05790    0.69476    0.75266    0.84730
 6391.50000    2.52444  150.56350    4.92949  949.41663   88.42063  123.78952    1.19976    0.09319    0.05790    0.69476    0.75266    0.84585
 6392.00000    2.52072  150.56350    4.92949  949.41663   88.42063  123.79966    1.19976    0.09333    0.05790    0.69476    0.75266    0.84599
 6392.50000    2.52296  150.56350    4.92949  949.41663   88.42063  123.80981    1.19976    0.09325    0.05790    0.69476    0.75266    0.84591
 6393.00000    2.54831  150.56350    4.92949  949.41663   88.42063  123.81995    1.19976    0.09232    0.05790    0.69476    0.75266    0.84498
 6393.50000    2.60156  150.56350    4.92949  949.41663   88.42063  123.83009    1.19976    0.09043    0.05790    0.69476    0.75266    0.84309
 6394.00000    2.60619  150.56350    4.92949  949.41663   88.42063  123.84024    1.19976    0.09027    0.05790    0.69476    0.75266    0.84293
 6394.50000    2.53217  150.56350    4.92949  949.41663   88.42063  123.85038    1.19976    0.09291    0.05790    0.69476    0.75266    0.84557
 6395.00000    2.58544  150.56350    4.92949  949.41663   88.42063  123.86052    1.19976    0.09099    0.05790    0.69476    0.75266    0.84365
 6395.50000    2.56679  150.56350    4.92949  949.41663   88.42063  123.87066    1.19976    0.09165    0.05790    0.69476    0.75266    0.84431
 6396.00000    2.57648  150.56350    4.92949  949.41663   88.42063  123.88081    1.19976    0.09131    0.05790    0.69476    0.75266    0.84397
 6396.50000    2.55147  150.56350    4.92949  949.41663   88.42063  123.89095    1.19976    0.09220    0.05790    0.69476    0.75266    0.84486
 6397.00000    2.54540  150.56350    4.92949  949.41663   88.42063  123.90109    1.19976    0.09242    0.05790    0.69476    0.75266    0.84508
 6397.50000    2.54709  150.56350    4.92949  949.41663   88.42063  123.91124    1.19976    0.09236    0.05790    0.69476    0.75266    0.84502
 6398.00000    2.58489  150.56350    4.92949  949.41663   88.42063  123.92138    1.19976    0.09101    0.05790    0.69476    0.75266    0.84367
 6398.50000    2.59242  150.56350    4.92949  949.41663   88.42063  123.93152    1.19976    0.09075    0.05790    0.69476    0.75266    0.84341
 6399.00000    2.58317  150.56350    4.92949  949.41663   88.42063  123.94167    1.19976    0.09107    0.05790    0.69476    0.75266    0.84373
 6399.50000    2.58126  150.56350    4.92949  949.41663   88.42063  123.95181    1.19976    0.09114    0.05790    0.69476    0.75266    0.84380
 6400.00000    2.58723  150.56350    4.92949  949.41663   88.42063  123.96195    1.19976    0.09093    0.05790    0.69476    0.75266    0.84359
 6400.50000    2.57785  150.56350    4.92949  949.41663   88.42063  123.97210    1.19976    0.09126    0.05790    0.69476    0.75266    0.84392
 6401.00000    2.59060  150.56350    4.92949  949.41663   88.42063  123.98224    1.19976    0.09081    0.05790    0.69476    0.75266    0.84347
 6401.50000    2.61757  150.56350    4.92949  949.41663   88.42063  123.99238    1.19976    0.08988    0.05790    0.69476    0.75266    0.84253
 6402.00000    2.57667  150.56350    4.92949  949.41663   88.42063  124.00253    1.19976    0.09130    0.05790    0.69476    0.75266    0.84396
