~Version ---------------------------------------------------
VERS.   2.0 : CWLS log ASCII Standard -VERSION 2.0
WRAP.    NO : One line per depth step
DLM . SPACE : Column Data Section Delimiter
~Well ------------------------------------------------------
STRT   .m         2062.5 : START DEPTH
STOP   .m         6413.0 : STOP DEPTH
STEP   .m            0.5 : STEP
NULL   .          -99999 : NULL VALUE
COMP   .                 : COMPANY
WELL   .                 : WELL
FLD    .                 : FIELD
LOC    .                 : LOCATION
PROV   .                 : PROVINCE
CNTY   .                 : COUNTY
STAT   .                 : STATE
CTRY   .                 : COUNTRY
SRVC   .                 : SERVICE COMPANY
DATE   .                 : DATE
UWI    .                 : UNIQUE WELL ID
API    .                 : API NUMBER
WELL   . Simulacao_COT_3 : Well Name
GDAT   .                 : Horizontal Coordinate System
COORDEW.                 : Surface X
COORDNS.                 : Surface Y
LATI   .                 : Latitude
LONG   .                 : Longitude
~Curve Information -----------------------------------------
Profundidade [m]           .m         : 
Densidade Aparente Seca    .g/cm³     : 
Produtividade Primária     .gC/m²/yr  : 
Taxa de Sedimentação       .cm/ka     : 
Paleobatimetria            .m         : 
Fração de Areia            .%         : 
Idades                     .Ma        : 
Fluxo de Carbono [gC/m²/yr].gC/m²/yr  : 
COₘₐ [%]                   .%         : 
rCO [%]                    .%         : 
qCO [%]                    .%         : 
COₜₑ [%]                   .          : 
COT [%]                    .%         : 
~Params ----------------------------------------------------
~Other -----------------------------------------------------
~ASCII -----------------------------------------------------
# ...
 3210.50000    2.19785  178.96594    6.82979  594.46355   92.20548   78.43348    2.79262    0.24116    0.03897    0.46767    0.50664    0.74780
 3211.00000    1.93990  178.93131    6.82979  594.77530   92.13411   78.44080    2.78998    0.27297    0.03933    0.47195    0.51128    0.78425
 3211.50000    2.01922  178.89670    6.82979  595.08706   90.33252   78.44812    2.78734    0.26200    0.04834    0.58005    0.62839    0.89038
 3212.00000    1.88814  178.86213    6.82979  595.39881   88.56918   78.45544    2.78471    0.27992    0.05715    0.68585    0.74300    1.02292
 3212.50000    2.24728  178.82757    6.82979  595.71057   91.86240   78.46277    2.78208    0.23496    0.04069    0.48826    0.52894    0.76391
 3213.00000    2.62146  178.79304    6.82979  596.02232   91.16654   78.47009    2.77945    0.20124    0.04417    0.53001    0.57418    0.77541
 3213.50000    2.55589  178.75853    6.82979  596.33407   91.35827   78.47741    2.77683    0.20620    0.04321    0.51850    0.56171    0.76792
 3214.00000    2.13903  178.72405    6.82979  596.64583   92.65741   78.48473    2.77421    0.24616    0.03671    0.44056    0.47727    0.72342
 3214.50000    1.77534  178.68959    6.82979  596.95758   92.59775   78.49205    2.77160    0.29630    0.03701    0.44414    0.48115    0.77745
 3215.00000    2.15446  178.65516    6.82979  597.26933   92.93931   78.49937    2.76899    0.24393    0.03530    0.42364    0.45894    0.70288
 3215.50000    1.95448  178.62076    6.82979  597.58109   93.89307   78.50669    2.76638    0.26864    0.03053    0.36642    0.39695    0.66559
 3216.00000    2.00280  178.58637    6.82979  597.89284   92.92857   78.51401    2.76378    0.26191    0.03536    0.42429    0.45964    0.72155
 3216.50000    2.19351  178.55201    6.82979  598.20460   91.87320   78.52133    2.76118    0.23891    0.04063    0.48761    0.52824    0.76716
 3217.00000    1.74076  178.51768    6.82979  598.51635   91.27900   78.52865    2.75859    0.30077    0.04360    0.52326    0.56686    0.86764
 3217.50000    1.74398  178.48337    6.82979  598.82810   90.62010   78.53597    2.75600    0.29993    0.04690    0.56279    0.60969    0.90963
 3218.00000    2.01327  178.44909    6.82979  599.13985   91.35977   78.54330    2.75341    0.25957    0.04320    0.51841    0.56161    0.82119
 3218.50000    2.00450  178.41483    6.82979  599.45161   89.87951   78.55062    2.75083    0.26046    0.05060    0.60723    0.65783    0.91829
 3219.00000    2.11402  178.38059    6.82979  599.76336   90.56847   78.55794    2.74825    0.24674    0.04716    0.56589    0.61305    0.85979
 3219.50000    1.87541  178.34638    6.82979  600.07512   90.85107   78.56526    2.74567    0.27787    0.04574    0.54894    0.59468    0.87255
 3220.00000    1.94185  178.31219    6.82979  600.38687   91.53386   78.57258    2.74310    0.26811    0.04233    0.50797    0.55030    0.81841
 3220.50000    1.68649  178.27803    6.82979  600.69862   93.24228   78.57990    2.74053    0.30842    0.03379    0.40546    0.43925    0.74767
 3221.00000    1.61325  178.24389    6.82979  601.01038   93.31230   78.58722    2.73797    0.32212    0.03344    0.40126    0.43470    0.75682
 3221.50000    2.60548  178.20977    6.82979  601.32213   93.12091   78.59454    2.73541    0.19926    0.03440    0.41275    0.44714    0.64640
 3222.00000    2.59872  178.17568    6.82979  601.63389   93.52498   78.60186    2.73285    0.19959    0.03238    0.38850    0.42088    0.62047
 3222.50000    2.61253  178.14162    6.82979  601.94564   92.00884   78.60918    2.73029    0.19835    0.03996    0.47947    0.51943    0.71778
 3223.00000    1.84139  178.10758    6.82979  602.25739   92.53372   78.61650    2.72774    0.28116    0.03733    0.44798    0.48531    0.76646
 3223.50000    1.78517  178.07356    6.82979  602.56915   92.26996   78.62382    2.72520    0.28974    0.03865    0.46380    0.50245    0.79219
 3224.00000    1.68875  178.03956    6.82961  602.88090   93.04668   78.63115    2.72266    0.30600    0.03477    0.41720    0.45197    0.75796
 3224.50000    1.53445  178.00559    6.82979  603.19266   93.52993   78.63847    2.72012    0.33645    0.03235    0.38820    0.42055    0.75700
 3225.00000    1.80201  177.97165    6.82979  603.50441   92.82224   78.64579    2.71758    0.28623    0.03589    0.43067    0.46655    0.75278
 3225.50000    1.95777  177.93773    6.82979  603.81616   92.56066   78.65311    2.71505    0.26321    0.03720    0.44636    0.48356    0.74677
 3226.00000    1.87671  177.90383    6.82979  604.12792   91.20269   78.66043    2.71252    0.27432    0.04399    0.52784    0.57183    0.84615
 3226.50000    1.72760  177.86996    6.82979  604.43967   90.94927   78.66775    2.71000    0.29772    0.04525    0.54304    0.58830    0.88602
 3227.00000    1.87380  177.83611    6.82955  604.75142   90.36944   78.67507    2.70748    0.27424    0.04815    0.57783    0.62599    0.90023
 3227.50000    1.84374  177.80228    6.82979  605.06318   90.14033   78.68239    2.70496    0.27845    0.04930    0.59158    0.64088    0.91933
 3228.00000    1.90374  177.76848    6.82979  605.37493   89.62511   78.68971    2.70245    0.26942    0.05187    0.62249    0.67437    0.94379
 3228.50000    2.42670  177.73470    6.82979  605.68668   89.66057   78.69703    2.69994    0.21117    0.05170    0.62037    0.67206    0.88323
 3229.00000    2.00603  177.70094    6.82979  605.99844   91.88907   78.70435    2.69743    0.25521    0.04055    0.48666    0.52721    0.78242
 3229.50000    1.83908  177.66721    6.82979  606.31019   91.69868   78.71167    2.69493    0.27812    0.04151    0.49808    0.53959    0.81771
 3230.00000    1.80022  177.63351    6.82972  606.62194   91.92779   78.71900    2.69243    0.28386    0.04036    0.48433    0.52469    0.80855
 3230.50000    1.83067  177.59982    9.50240  606.93370   91.04708   78.72632    2.68994    0.26982    0.04476    0.53718    0.58194    0.85176
 3231.00000    1.76777  177.56681    9.50168  607.23946   90.78278   78.73350    2.68749    0.27917    0.04609    0.55303    0.59912    0.87829
 3231.50000    1.78180  177.54139    9.50125  607.47508   91.66876   78.73903    2.68561    0.27678    0.04166    0.49987    0.54153    0.81831
 3232.00000    1.96508  177.51722    9.50125  607.69918   91.50580   78.74429    2.68383    0.25080    0.04247    0.50965    0.55212    0.80292
 3232.50000    2.07031  177.49306    9.50125  607.92327   91.60683   78.74956    2.68204    0.23789    0.04197    0.50359    0.54556    0.78345
 3233.00000    2.40964  177.46892    9.50133  608.14736   92.52310   78.75482    2.68026    0.20426    0.03738    0.44861    0.48600    0.69025
 3233.50000    1.98660  177.44479    9.50171  608.37145   93.21289   78.76008    2.67848    0.24759    0.03394    0.40723    0.44116    0.68875
 3234.00000    1.96397  177.42067    9.50163  608.59555   92.78687   78.76534    2.67670    0.25027    0.03607    0.43279    0.46885    0.71913
 3234.50000    1.92568  177.39656    9.50125  608.81964   92.90067   78.77060    2.67492    0.25508    0.03550    0.42596    0.46146    0.71654
 3235.00000    1.93228  177.37247    9.50161  609.04373   93.58798   78.77587    2.67314    0.25404    0.03206    0.38472    0.41678    0.67082
 3235.50000    2.57694  177.34838    9.50167  609.26782   93.74388   78.78113    2.67137    0.19036    0.03128    0.37537    0.40665    0.59701
 3236.00000    2.59022  177.32431    9.50131  609.49191   93.28205   78.78639    2.66960    0.18926    0.03359    0.40308    0.43667    0.62593
 3236.50000    2.04248  177.30025    9.50125  609.71601   92.94544   78.79165    2.66783    0.23986    0.03527    0.42327    0.45855    0.69840
 3237.00000    1.72484  177.27621    9.50125  609.94010   90.55239   78.79692    2.66606    0.28384    0.04724    0.56686    0.61409    0.89793
 3237.50000    1.78309  177.25217    9.50138  610.16419   89.58208   78.80218    2.66429    0.27438    0.05209    0.62507    0.67716    0.95155
 3238.00000    2.04739  177.22815    9.50125  610.38828   90.81072   78.80744    2.66253    0.23881    0.04595    0.55136    0.59730    0.83611
