~Version ---------------------------------------------------
VERS.   2.0 : CWLS log ASCII Standard -VERSION 2.0
WRAP.    NO : One line per depth step
DLM . SPACE : Column Data Section Delimiter
~Well ------------------------------------------------------
STRT   .m         2062.5 : START DEPTH
STOP   .m         6413.0 : STOP DEPTH
STEP   .m            0.5 : STEP
NULL   .          -99999 : NULL VALUE
COMP   .                 : COMPANY
WELL   .                 : WELL
FLD    .                 : FIELD
LOC    .                 : LOCATION
PROV   .                 : PROVINCE
CNTY   .                 : COUNTY
STAT   .                 : STATE
CTRY   .                 : COUNTRY
SRVC   .                 : SERVICE COMPANY
DATE   .                 : DATE
UWI    .                 : UNIQUE WELL ID
API    .                 : API NUMBER
WELL   . Simulacao_COT_3 : Well Name
GDAT   .                 : Horizontal Coordinate System
COORDEW.                 : Surface X
COORDNS.                 : Surface Y
LATI   .                 : Latitude
LONG   .                 : Longitude
~Curve Information -----------------------------------------
Profundidade [m]           .m         : 
Densidade Aparente Seca    .g/cm³     : 
Produtividade Primária     .gC/m²/yr  : 
Taxa de Sedimentação       .cm/ka     : 
Paleobatimetria            .m         : 
Fração de Areia            .%         : 
Idades                     .Ma        : 
Fluxo de Carbono [gC/m²/yr].gC/m²/yr  : 
COₘₐ [%]                   .%         : 
rCO [%]                    .%         : 
qCO [%]                    .%         : 
COₜₑ [%]                   .          : 
COT [%]                    .%         : 
~Params ----------------------------------------------------
~Other -----------------------------------------------------
~ASCII -----------------------------------------------------
 2062.50000    0.71284  134.62163    9.16284 1285.70094   98.35779   62.29210    0.69417    0.17947    0.00821    0.09853    0.10674    0.28622
 2063.00000    0.71284  134.67885    9.16284 1284.22165   98.40674   62.29751    0.69562    0.17985    0.00797    0.09560    0.10356    0.28341
 2063.50000    0.71284  134.73668    9.16274 1282.72865   98.32983   62.30296    0.69708    0.18023    0.00835    0.10021    0.10856    0.28879
 2064.00000    0.71284  134.79462    9.16280 1281.23563   98.23161   62.30842    0.69854    0.18060    0.00884    0.10610    0.11495    0.29555
 2064.50000    0.71284  134.85264    9.16282 1279.74261   98.30800   62.31388    0.70002    0.18098    0.00846    0.10152    0.10998    0.29096
 2065.00000    0.71284  134.91076    9.16281 1278.24960   98.14197   62.31933    0.70149    0.18137    0.00929    0.11148    0.12077    0.30214
 2065.50000    0.71284  134.96896    9.16284 1276.75659   98.25997   62.32479    0.70297    0.18175    0.00870    0.10440    0.11310    0.29485
 2066.00000    0.71284  135.02727    9.16281 1275.26356   98.30232   62.33025    0.70446    0.18213    0.00849    0.10186    0.11035    0.29248
 2066.50000    0.71284  135.08566    9.16284 1273.77056   98.23259   62.33570    0.70595    0.18252    0.00884    0.10604    0.11488    0.29740
 2067.00000    0.71284  135.14415    9.16284 1272.27754   98.13877   62.34116    0.70744    0.18291    0.00931    0.11167    0.12098    0.30389
 2067.50000    0.71284  135.20274    9.16284 1270.78452   98.48599   62.34662    0.70895    0.18329    0.00757    0.09084    0.09841    0.28170
 2068.00000    0.71284  135.26142    9.16281 1269.29151   97.83269   62.35207    0.71045    0.18368    0.01084    0.13004    0.14088    0.32456
 2068.50000    0.71284  135.32019    9.16280 1267.79849   98.13434   62.35753    0.71196    0.18407    0.00933    0.11194    0.12127    0.30534
 2069.00000    0.71284  135.37906    9.16281 1266.30548   98.38435   62.36299    0.71348    0.18446    0.00808    0.09694    0.10502    0.28948
 2069.50000    0.71284  135.43802    9.16282 1264.81246   98.09081   62.36844    0.71500    0.18486    0.00955    0.11455    0.12410    0.30896
 2070.00000    0.71284  135.49708    9.16284 1263.31945   97.77858   62.37390    0.71652    0.18525    0.01111    0.13329    0.14439    0.32964
 2070.50000    0.71284  135.55623    9.16274 1261.82643   97.80459   62.37936    0.71805    0.18565    0.01098    0.13172    0.14270    0.32835
 2071.00000    0.71284  135.61548    9.16279 1260.33343   98.29056   62.38481    0.71959    0.18605    0.00855    0.10257    0.11111    0.29716
 2071.50000    0.71284  135.67482    9.16283 1258.84040   98.13692   62.39027    0.72113    0.18644    0.00932    0.11178    0.12110    0.30754
 2072.00000    0.71284  135.73427    9.16282 1257.34740   98.24945   62.39573    0.72268    0.18684    0.00875    0.10503    0.11379    0.30063
 2072.50000    0.71284  135.79380    9.16284 1255.85439   98.30463   62.40118    0.72423    0.18724    0.00848    0.10172    0.11020    0.29744
 2073.00000    0.71284  135.85344    9.16282 1254.36137   98.53715   62.40664    0.72578    0.18765    0.00731    0.08777    0.09509    0.28273
 2073.50000    0.71284  135.91317    9.16284 1252.86836   98.13431   62.41210    0.72734    0.18805    0.00933    0.11194    0.12127    0.30932
 2074.00000    0.71284  135.97301    9.16284 1251.37534   98.25327   62.41756    0.72891    0.18846    0.00873    0.10480    0.11354    0.30199
 2074.50000    0.71284  136.03293    9.16284 1249.88233   98.07287   62.42301    0.73048    0.18886    0.00964    0.11563    0.12526    0.31413
 2075.00000    0.71284  136.09296    9.16280 1248.38931   97.96484   62.42847    0.73206    0.18927    0.01018    0.12211    0.13229    0.32155
 2075.50000    0.71284  136.15308    9.16279 1246.89631   97.81207   62.43393    0.73364    0.18968    0.01094    0.13128    0.14222    0.33189
 2076.00000    0.71284  136.21331    9.16282 1245.40329   98.02489   62.43938    0.73523    0.19009    0.00988    0.11851    0.12838    0.31847
 2076.50000    0.71284  136.27363    9.16280 1243.91027   97.81610   62.44484    0.73682    0.19050    0.01092    0.13103    0.14195    0.33245
 2077.00000    0.71284  136.33405    9.16280 1242.41726   98.11570   62.45030    0.73842    0.19091    0.00942    0.11306    0.12248    0.31339
 2077.50000    0.71284  136.39457    9.16275 1240.92424   98.01628   62.45575    0.74003    0.19133    0.00992    0.11902    0.12894    0.32027
 2078.00000    0.71284  136.45520    9.16279 1239.43123   97.94217   62.46121    0.74164    0.19175    0.01029    0.12347    0.13376    0.32550
 2078.50000    0.71284  136.51592    9.16284 1237.93821   98.07352   62.46667    0.74325    0.19216    0.00963    0.11559    0.12522    0.31738
 2079.00000    0.71284  136.57674    9.16279 1236.44520   98.01464   62.47212    0.74487    0.19258    0.00993    0.11912    0.12905    0.32163
 2079.50000    0.71284  136.63766    9.16284 1234.95218   97.74397   62.47758    0.74650    0.19300    0.01128    0.13536    0.14664    0.33964
 2080.00000    0.71284  136.69869    9.16282 1233.45917   98.06434   62.48304    0.74813    0.19342    0.00968    0.11614    0.12582    0.31924
 2080.50000    0.71284  136.75981    9.16284 1231.96615   98.33037   62.48849    0.74977    0.19385    0.00835    0.10018    0.10853    0.30237
 2081.00000    0.71284  136.82104    9.16284 1230.47314   98.19647   62.49395    0.75141    0.19427    0.00902    0.10821    0.11723    0.31150
 2081.50000    0.71284  136.88236    9.16284 1228.98012   98.37055   62.49941    0.75306    0.19470    0.00815    0.09777    0.10591    0.30061
 2082.00000    0.71284  136.94379    9.16279 1227.48711   97.90691   62.50487    0.75471    0.19513    0.01047    0.12559    0.13605    0.33118
 2082.50000    0.71284  137.00532    9.16284 1225.99409   97.87290   62.51032    0.75637    0.19555    0.01064    0.12763    0.13826    0.33382
 2083.00000    0.71284  137.06696    9.16282 1224.50108   97.77775   62.51578    0.75803    0.19598    0.01111    0.13334    0.14445    0.34043
 2083.50000    0.71284  137.12869    9.16279 1223.00806   97.75201   62.52124    0.75970    0.19642    0.01124    0.13488    0.14612    0.34254
 2084.00000    0.71284  137.19054    9.16280 1221.51506   97.73814   62.52669    0.76138    0.19685    0.01131    0.13571    0.14702    0.34387
 2084.50000    0.71284  137.25248    9.16277 1220.02204   97.93198   62.53215    0.76306    0.19729    0.01034    0.12408    0.13442    0.33171
 2085.00000    0.71284  137.31453    9.16279 1218.52903   97.81117   62.53761    0.76475    0.19772    0.01094    0.13133    0.14227    0.34000
 2085.50000    0.71284  137.37668    9.16284 1217.03603   97.58520   62.54306    0.76645    0.19816    0.01207    0.14489    0.15696    0.35512
 2086.00000    0.71284  137.43894    9.16279 1215.54300   97.58575   62.54852    0.76814    0.19860    0.01207    0.14485    0.15693    0.35552
 2086.50000    0.71284  137.50130    9.16284 1214.04999   98.08645   62.55398    0.76985    0.19904    0.00957    0.11481    0.12438    0.32342
 2087.00000    0.71284  137.56377    9.16283 1212.55698   98.05621   62.55943    0.77156    0.19948    0.00972    0.11663    0.12635    0.32583
 2087.50000    0.71284  137.62634    9.16284 1211.06396   97.68153   62.56489    0.77328    0.19993    0.01159    0.13911    0.15070    0.35063
 2088.00000    0.71284  137.68902    9.16283 1209.57094   97.32681   62.57035    0.77500    0.20037    0.01337    0.16039    0.17376    0.37413
 2088.50000    0.71284  137.75180    9.16284 1208.07793   97.84372   62.57580    0.77673    0.20082    0.01078    0.12938    0.14016    0.34098
 2089.00000    0.71284  137.81469    9.16278 1206.58492   97.83811   62.58126    0.77847    0.20127    0.01081    0.12971    0.14052    0.34179
 2089.50000    0.71284  137.87769    9.16284 1205.09190   97.81461   62.58672    0.78021    0.20172    0.01093    0.13112    0.14205    0.34377
 2090.00000    0.71284  137.94079    9.16279 1203.59889   97.63434   62.59217    0.78196    0.20217    0.01183    0.14194    0.15377    0.35594
