~Version ---------------------------------------------------
VERS.   2.0 : CWLS log ASCII Standard -VERSION 2.0
WRAP.    NO : One line per depth step
DLM . SPACE : Column Data Section Delimiter
~Well ------------------------------------------------------
STRT   .m         2062.5 : START DEPTH
STOP   .m         6413.0 : STOP DEPTH
STEP   .m            0.5 : STEP
NULL   .          -99999 : NULL VALUE
COMP   .                 : COMPANY
WELL   .                 : WELL
FLD    .                 : FIELD
LOC    .                 : LOCATION
PROV   .                 : PROVINCE
CNTY   .                 : COUNTY
STAT   .                 : STATE
CTRY   .                 : COUNTRY
SRVC   .                 : SERVICE COMPANY
DATE   .                 : DATE
UWI    .                 : UNIQUE WELL ID
API    .                 : API NUMBER
WELL   . Simulacao_COT_3 : Well Name
GDAT   .                 : Horizontal Coordinate System
COORDEW.                 : Surface X
COORDNS.                 : Surface Y
LATI   .                 : Latitude
LONG   .                 : Longitude
~Curve Information -----------------------------------------
Profundidade [m]           .m         : 
Densidade Aparente Seca    .g/cm³     : 
Produtividade Primária     .gC/m²/yr  : 
Taxa de Sedimentação       .cm/ka     : 
Paleobatimetria            .m         : 
Fração de Areia            .%         : 
Idades                     .Ma        : 
Fluxo de Carbono [gC/m²/yr].gC/m²/yr  : 
COₘₐ [%]                   .%         : 
rCO [%]                    .%         : 
qCO [%]                    .%         : 
COₜₑ [%]                   .          : 
COT [%]                    .%         : 
~Params ----------------------------------------------------
~Other -----------------------------------------------------
~ASCII -----------------------------------------------------
# ...
 3798.50000    2.09903  146.64818    6.03947 1019.66843   92.80719   86.65884    1.05475    0.09655    0.03596    0.43157    0.46753    0.56408
 3799.00000    2.09972  146.71529    6.03947 1018.40538   93.26016   86.66712    1.05711    0.09674    0.03370    0.40439    0.43809    0.53483
 3799.50000    2.07644  146.78250    6.03947 1017.14234   93.13570   86.67540    1.05948    0.09804    0.03432    0.41186    0.44618    0.54422
 3800.00000    2.07619  146.84984    6.03969 1015.87930   93.11953   86.68368    1.06186    0.09827    0.03440    0.41283    0.44723    0.54550
 3800.50000    2.03438  146.91728    6.03963 1014.61627   93.44273   86.69196    1.06425    0.10052    0.03279    0.39344    0.42622    0.52674
 3801.00000    2.05698  146.98485    6.03961 1013.35323   92.91307   86.70024    1.06664    0.09964    0.03543    0.42522    0.46065    0.56029
 3801.50000    2.05993  147.05252    6.03947 1012.09020   93.29370   86.70852    1.06904    0.09972    0.03353    0.40238    0.43591    0.53563
 3802.00000    2.10753  147.12032    6.03954 1010.82716   93.40274   86.71679    1.07146    0.09769    0.03299    0.39584    0.42882    0.52651
 3802.50000    2.06247  147.18823    6.03947 1009.56412   93.09117   86.72507    1.07388    0.10004    0.03454    0.41453    0.44907    0.54912
 3803.00000    2.08966  147.25626    6.03960 1008.30108   93.58026   86.73335    1.07630    0.09897    0.03210    0.38518    0.41728    0.51625
 3803.50000    2.07403  147.32440    6.03981 1007.03803   92.98513   86.74163    1.07874    0.09994    0.03507    0.42089    0.45597    0.55590
 3804.00000    2.07184  147.39266    6.03947 1005.77500   93.08933   86.74991    1.08119    0.10027    0.03455    0.41464    0.44919    0.54946
 3804.50000    2.05475  147.46104    6.03947 1004.51197   92.93698   86.75819    1.08364    0.10133    0.03532    0.42378    0.45910    0.56043
 3805.00000    2.10531  147.52953    6.03947 1003.24893   93.15603   86.76647    1.08610    0.09912    0.03422    0.41064    0.44486    0.54398
 3805.50000    2.10114  147.59815    6.03947 1001.98589   92.77183   86.77474    1.08858    0.09955    0.03614    0.43369    0.46983    0.56938
 3806.00000    2.04630  147.66688    6.37519 1000.72285   93.42814   86.78302    1.09106    0.10190    0.03286    0.39431    0.42717    0.52907
 3806.50000    2.07150  147.73573    6.84826  999.45981   93.80088   86.79130    1.09355    0.10017    0.03100    0.37195    0.40294    0.50311
 3807.00000    2.07964  147.80470    6.84832  998.19677   93.24973   86.79958    1.09604    0.10000    0.03375    0.40502    0.43877    0.53877
 3807.50000    2.10479  147.87379    6.84833  996.93374   93.01237   86.80786    1.09855    0.09903    0.03494    0.41926    0.45420    0.55323
 3808.00000    2.03763  147.94300    6.84837  995.67070   92.63080   86.81614    1.10107    0.10253    0.03685    0.44215    0.47900    0.58153
 3808.50000    2.07038  148.01233    6.84841  994.40766   93.47995   86.82442    1.10359    0.10114    0.03260    0.39120    0.42380    0.52494
 3809.00000    2.09079  148.08166    6.84840  993.14690   93.51121   86.83268    1.10612    0.10038    0.03244    0.38933    0.42177    0.52215
 3809.50000    2.10921  148.14452    6.84855  992.00548   93.48730   86.84016    1.10842    0.09971    0.03256    0.39076    0.42333    0.52304
 3810.00000    2.06123  148.20597    6.84851  990.89165   93.27871   86.84746    1.11067    0.10224    0.03361    0.40328    0.43688    0.53912
 3810.50000    2.10935  148.26750    6.84847  989.77782   93.78035   86.85477    1.11293    0.10011    0.03110    0.37318    0.40428    0.50439
 3811.00000    2.10775  148.32914    6.84843  988.66398   93.75920   86.86207    1.11519    0.10039    0.03120    0.37445    0.40565    0.50604
 3811.50000    2.08101  148.39086    6.84839  987.55015   93.85920   86.86937    1.11746    0.10189    0.03070    0.36845    0.39915    0.50104
 3812.00000    2.12649  148.45269    6.84882  986.43632   93.56483   86.87667    1.11974    0.09991    0.03218    0.38611    0.41829    0.51820
 3812.50000    2.07568  148.51461    6.84882  985.32249   93.42847   86.88397    1.12202    0.10257    0.03286    0.39429    0.42715    0.52972
 3813.00000    2.08735  148.57662    6.84880  984.20865   93.27832   86.89127    1.12432    0.10220    0.03361    0.40330    0.43691    0.53911
 3813.50000    2.05701  148.63873    6.84879  983.09482   93.47995   86.89857    1.12662    0.10392    0.03260    0.39120    0.42380    0.52772
 3814.00000    1.99880  148.70094    6.84877  981.98099   93.05080   86.90587    1.12892    0.10717    0.03475    0.41695    0.45170    0.55887
 3814.50000    2.06201  148.76324    6.84882  980.86715   93.53214   86.91317    1.13124    0.10409    0.03234    0.38807    0.42041    0.52451
 3815.00000    2.04096  148.82565    6.84880  979.75332   93.85114   86.92047    1.13356    0.10538    0.03074    0.36893    0.39968    0.50506
 3815.50000    2.04406  148.88814    6.84882  978.63949   93.88943   86.92777    1.13589    0.10544    0.03055    0.36663    0.39719    0.50263
 3816.00000    2.07679  148.95074    6.84865  977.52565   93.51437   86.93507    1.13822    0.10399    0.03243    0.38914    0.42157    0.52556
 3816.50000    2.12466  149.01343    6.84840  976.41182   93.44763   86.94237    1.14057    0.10186    0.03276    0.39314    0.42590    0.52776
 3817.00000    2.09514  149.07623    6.84844  975.29798   92.80419   86.94967    1.14292    0.10351    0.03598    0.43175    0.46773    0.57124
 3817.50000    2.06092  149.13912    6.84848  974.18415   93.15620   86.95698    1.14528    0.10544    0.03422    0.41063    0.44485    0.55029
 3818.00000    2.05883  149.20211    6.84851  973.07032   93.94868   86.96428    1.14765    0.10577    0.03026    0.36308    0.39334    0.49910
 3818.50000    2.10165  149.26519    6.84855  971.95648   94.10793   86.97158    1.15002    0.10383    0.02946    0.35352    0.38298    0.48681
 3819.00000    2.06628  149.32838    6.84844  970.84265   93.88702   86.97888    1.15240    0.10582    0.03056    0.36678    0.39734    0.50317
 3819.50000    2.13635  149.39166    6.84840  969.72882   93.23942   86.98618    1.15479    0.10257    0.03380    0.40563    0.43944    0.54200
 3820.00000    2.15188  149.45505    6.84836  968.61499   93.64148   86.99348    1.15719    0.10204    0.03179    0.38151    0.41330    0.51534
 3820.50000    2.10133  149.50098    6.84833  967.80891   93.87141   87.00078    1.15893    0.10465    0.03064    0.36772    0.39836    0.50301
 3821.00000    2.07342  149.40041    6.84860  969.57500   93.39137   87.00808    1.15512    0.10571    0.03304    0.39652    0.42956    0.53527
 3821.50000    2.07898  149.30009    6.84882  971.34110   93.25884   87.01538    1.15134    0.10508    0.03371    0.40447    0.43818    0.54325
 3822.00000    2.12968  149.20002    6.84877  973.10718   93.17813   87.02268    1.14757    0.10224    0.03411    0.40931    0.44342    0.54566
 3822.50000    2.07290  149.10019    6.84879  974.87327   93.27620   87.02998    1.14382    0.10470    0.03362    0.40343    0.43705    0.54175
 3823.00000    2.11230  149.00062    6.84873  976.63937   93.17051   87.03728    1.14009    0.10241    0.03415    0.40977    0.44392    0.54633
 3823.50000    2.07819  148.90129    6.84871  978.40546   93.10309   87.04458    1.13638    0.10375    0.03448    0.41381    0.44830    0.55205
 3824.00000    2.05387  148.80221    6.84881  980.17155   93.56833   87.05189    1.13269    0.10464    0.03216    0.38590    0.41806    0.52270
 3824.50000    2.10213  148.70336    6.84882  981.93765   94.18261   87.05919    1.12901    0.10191    0.02909    0.34904    0.37813    0.48004
 3825.00000    2.06791  148.60477    6.84882  983.70374   93.45462   87.06649    1.12536    0.10326    0.03273    0.39272    0.42545    0.52871
 3825.50000    2.20341  148.50641    6.84882  985.46984   93.30123   87.07379    1.12172    0.09660    0.03349    0.40193    0.43542    0.53202
 3826.00000    2.15383  148.40830    6.84851  987.23593   93.07006   87.08109    1.11810    0.09850    0.03465    0.41580    0.45045    0.54895
