~Version ---------------------------------------------------
VERS.   2.0 : CWLS log ASCII Standard -VERSION 2.0
WRAP.    NO : One line per depth step
DLM . SPACE : Column Data Section Delimiter
~Well ------------------------------------------------------
STRT   .m         2062.5 : START DEPTH
STOP   .m         6413.0 : STOP DEPTH
STEP   .m            0.5 : STEP
NULL   .          -99999 : NULL VALUE
COMP   .                 : COMPANY
WELL   .                 : WELL
FLD    .                 : FIELD
LOC    .                 : LOCATION
PROV   .                 : PROVINCE
CNTY   .                 : COUNTY
STAT   .                 : STATE
CTRY   .                 : COUNTRY
SRVC   .                 : SERVICE COMPANY
DATE   .                 : DATE
UWI    .                 : UNIQUE WELL ID
API    .                 : API NUMBER
WELL   . Simulacao_COT_3 : Well Name
GDAT   .                 : Horizontal Coordinate System
COORDEW.                 : Surface X
COORDNS.                 : Surface Y
LATI   .                 : Latitude
LONG   .                 : Longitude
~Curve Information -----------------------------------------
Profundidade [m]           .m         : 
Densidade Aparente Seca    .g/cm³     : 
Produtividade Primária     .gC/m²/yr  : 
Taxa de Sedimentação       .cm/ka     : 
Paleobatimetria            .m         : 
Fração de Areia            .%         : 
Idades                     .Ma        : 
Fluxo de Carbono [gC/m²/yr].gC/m²/yr  : 
COₘₐ [%]                   .%         : 
rCO [%]                    .%         : 
qCO [%]                    .%         : 
COₜₑ [%]                   .          : 
COT [%]                    .%         : 
~Params ----------------------------------------------------
~Other -----------------------------------------------------
~ASCII -----------------------------------------------------
# ...
 5786.50000    2.49259  150.56350    5.81369  949.41663   90.17121  114.79657    1.19976    0.09284    0.04914    0.58973    0.63887    0.73171
 5787.00000    2.54742  150.56350    5.81369  949.41663   93.48560  114.80517    1.19976    0.09084    0.03257    0.39086    0.42344    0.51428
 5787.50000    2.48084  150.56350    5.81369  949.41663   92.82524  114.81377    1.19976    0.09328    0.03587    0.43049    0.46636    0.55964
 5788.00000    2.46983  150.56350    5.81376  949.41663   89.48307  114.82237    1.19976    0.09369    0.05258    0.63102    0.68360    0.77729
 5788.50000    2.43888  150.56350    5.81394  949.41663   89.00096  114.83097    1.19976    0.09488    0.05500    0.65994    0.71494    0.80982
 5789.00000    2.40737  150.56350    5.81387  949.41663   88.89077  114.83957    1.19976    0.09612    0.05555    0.66655    0.72210    0.81822
 5789.50000    2.52947  150.56350    5.81369  949.41663   90.46051  114.84817    1.19976    0.09148    0.04770    0.57237    0.62007    0.71155
 5790.00000    2.63958  150.56350    5.81378  949.41663   90.50687  114.85677    1.19976    0.08767    0.04747    0.56959    0.61705    0.70472
 5790.50000    2.56335  150.56350    5.81369  949.41663   89.11135  114.86538    1.19976    0.09028    0.05444    0.65332    0.70776    0.79804
 5791.00000    2.52467  150.56350    5.81384  949.41663   87.52042  114.87398    1.19976    0.09166    0.06240    0.74877    0.81117    0.90283
 5791.50000    2.57286  150.56350    5.81411  949.41663   91.25082  114.88258    1.19976    0.08994    0.04375    0.52495    0.56870    0.65864
 5792.00000    2.55882  150.56350    5.81387  949.41663   91.57295  114.89118    1.19976    0.09043    0.04214    0.50562    0.54776    0.63819
 5792.50000    2.58638  150.56350    5.81369  949.41663   92.25124  114.89978    1.19976    0.08947    0.03874    0.46493    0.50367    0.59314
 5793.00000    2.59204  150.56350    5.81370  949.41663   93.40550  114.90838    1.19976    0.08928    0.03297    0.39567    0.42864    0.51792
 5793.50000    2.53910  150.56350    5.81369  949.41663   92.46325  114.91698    1.19976    0.09114    0.03768    0.45221    0.48989    0.58103
 5794.00000    2.51976  150.56350    5.81370  949.41663   89.63035  114.92558    1.19976    0.09184    0.05185    0.62218    0.67403    0.76586
 5794.50000    2.60317  150.56350    5.81399  949.41663   96.38956  114.93418    1.19976    0.08889    0.01805    0.21663    0.23468    0.32357
 5795.00000    2.64880  150.56350    5.81378  949.41663   98.62120  114.94278    1.19976    0.08736    0.00689    0.08273    0.08962    0.17698
 5795.50000    2.65445  150.56350    5.81369  949.41663   98.72562  114.95138    1.19976    0.08718    0.00637    0.07646    0.08283    0.17001
 5796.00000    2.61888  150.56350    5.70069  949.41663   97.16057  114.95998    1.19976    0.08853    0.01420    0.17037    0.18456    0.27310
 5796.50000    2.52892  150.56350    5.09870  949.41663   98.32197  114.96858    1.19976    0.09271    0.00839    0.10068    0.10907    0.20179
 5797.00000    2.52129  150.56350    5.09870  949.41663   97.95850  114.97718    1.19976    0.09299    0.01021    0.12249    0.13270    0.22569
 5797.50000    2.53778  150.56350    5.09880  949.41663   97.97236  114.98578    1.19976    0.09239    0.01014    0.12166    0.13180    0.22419
 5798.00000    2.53078  150.56350    5.09893  949.41663   98.33541  114.99438    1.19976    0.09264    0.00832    0.09988    0.10820    0.20084
 5798.50000    2.57610  150.56350    5.09897  949.41663   98.83635  115.00298    1.19976    0.09101    0.00582    0.06982    0.07564    0.16665
 5799.00000    2.61612  150.56350    5.09871  949.41663   97.96009  115.01158    1.19976    0.08962    0.01020    0.12239    0.13259    0.22222
 5799.50000    2.61486  150.56350    5.09872  949.41663   92.95812  115.02018    1.19976    0.08967    0.03521    0.42251    0.45772    0.54739
 5800.00000    2.56777  150.56350    5.09873  949.41663   93.27145  115.02878    1.19976    0.09131    0.03364    0.40371    0.43736    0.52867
 5800.50000    2.57117  150.56350    5.09902  949.41663   92.12213  115.03738    1.19976    0.09119    0.03939    0.47267    0.51206    0.60325
 5801.00000    2.54817  150.56350    5.09891  949.41663   92.47615  115.04598    1.19976    0.09201    0.03762    0.45143    0.48905    0.58106
 5801.50000    2.57875  150.56350    5.09876  949.41663   91.99263  115.05458    1.19976    0.09092    0.04004    0.48044    0.52048    0.61140
 5802.00000    2.58206  150.56350    5.09870  949.41663   92.44606  115.06318    1.19976    0.09081    0.03777    0.45324    0.49101    0.58181
 5802.50000    2.60340  150.56350    5.09893  949.41663   92.96917  115.07178    1.19976    0.09006    0.03515    0.42185    0.45700    0.54706
 5803.00000    2.59615  150.56350    5.09891  949.41663   92.81981  115.08038    1.19976    0.09031    0.03590    0.43081    0.46671    0.55702
 5803.50000    2.56952  150.56350    5.09884  949.41663   90.89366  115.08898    1.19976    0.09125    0.04553    0.54638    0.59191    0.68316
 5804.00000    2.66798  150.56350    5.09875  949.41663   92.59109  115.09758    1.19976    0.08788    0.03704    0.44453    0.48158    0.56946
 5804.50000    2.68201  150.56350    5.09870  949.41663   92.65633  115.10618    1.19976    0.08742    0.03672    0.44062    0.47734    0.56476
 5805.00000    2.64883  150.56350    5.09883  949.41663   92.94196  115.11478    1.19976    0.08852    0.03529    0.42348    0.45877    0.54729
 5805.50000    2.64328  150.56350    5.09881  949.41663   91.17473  115.12338    1.19976    0.08870    0.04413    0.52952    0.57364    0.66234
 5806.00000    2.66288  150.56350    5.09895  949.41663   92.92416  115.13198    1.19976    0.08805    0.03538    0.42455    0.45993    0.54798
 5806.50000    2.68274  150.56350    5.09870  949.41663   92.46449  115.14058    1.19976    0.08740    0.03768    0.45213    0.48981    0.57721
 5807.00000    2.63730  150.56350    5.09870  949.41663   89.65890  115.14918    1.19976    0.08890    0.05171    0.62047    0.67217    0.76107
 5807.50000    2.67485  150.56350    5.09872  949.41663   92.62132  115.15778    1.19976    0.08765    0.03689    0.44272    0.47961    0.56727
 5808.00000    2.67652  150.56350    5.09897  949.41663   95.27826  115.16638    1.19976    0.08760    0.02361    0.28330    0.30691    0.39451
 5808.50000    2.68988  150.56350    5.09902  949.41663   97.19827  115.17498    1.19976    0.08716    0.01401    0.16810    0.18211    0.26928
 5809.00000    2.71127  150.56350    5.09875  949.41663   98.25306  115.18367    1.19976    0.08648    0.00873    0.10482    0.11355    0.20003
 5809.50000    2.70342  150.56350    5.09870  949.41663   98.32380  115.19332    1.19976    0.08673    0.00838    0.10057    0.10895    0.19568
 5810.00000    2.68998  150.56350    5.09879  949.41663   98.56915  115.20312    1.19976    0.08716    0.00715    0.08585    0.09301    0.18017
 5810.50000    2.66872  150.56350    5.09894  949.41663   96.80162  115.21293    1.19976    0.08786    0.01599    0.19190    0.20789    0.29575
 5811.00000    2.58822  150.56350    5.09882  949.41663   94.31736  115.22274    1.19976    0.09059    0.02841    0.34096    0.36937    0.45996
 5811.50000    2.66256  150.56350    5.09884  949.41663   96.14379  115.23254    1.19976    0.08806    0.01928    0.23137    0.25065    0.33871
 5812.00000    2.68263  150.56350    5.09870  949.41663   98.00732  115.24235    1.19976    0.08740    0.00996    0.11956    0.12952    0.21692
 5812.50000    2.63966  150.56350    5.09885  949.41663   98.62875  115.25216    1.19976    0.08882    0.00686    0.08228    0.08913    0.17795
 5813.00000    2.68363  150.56350    5.09883  949.41663   97.98926  115.26196    1.19976    0.08737    0.01005    0.12064    0.13070    0.21807
 5813.50000    2.69457  150.56350    5.09892  949.41663   96.12636  115.27177    1.19976    0.08701    0.01937    0.23242    0.25179    0.33880
 5814.00000    2.64816  150.56350    5.09870  949.41663   94.68458  115.28157    1.19976    0.08854    0.02658    0.31893    0.34550    0.43404
