~Version ---------------------------------------------------
VERS.   2.0 : CWLS log ASCII Standard -VERSION 2.0
WRAP.    NO : One line per depth step
DLM . SPACE : Column Data Section Delimiter
~Well ------------------------------------------------------
STRT   .m         2062.5 : START DEPTH
STOP   .m         6413.0 : STOP DEPTH
STEP   .m            0.5 : STEP
NULL   .          -99999 : NULL VALUE
COMP   .                 : COMPANY
WELL   .                 : WELL
FLD    .                 : FIELD
LOC    .                 : LOCATION
PROV   .                 : PROVINCE
CNTY   .                 : COUNTY
STAT   .                 : STATE
CTRY   .                 : COUNTRY
SRVC   .                 : SERVICE COMPANY
DATE   .                 : DATE
UWI    .                 : UNIQUE WELL ID
API    .                 : API NUMBER
WELL   . Simulacao_COT_3 : Well Name
GDAT   .                 : Horizontal Coordinate System
COORDEW.                 : Surface X
COORDNS.                 : Surface Y
LATI   .                 : Latitude
LONG   .                 : Longitude
~Curve Information -----------------------------------------
Profundidade [m]           .m         : 
Densidade Aparente Seca    .g/cm³     : 
Produtividade Primária     .gC/m²/yr  : 
Taxa de Sedimentação       .cm/ka     : 
Paleobatimetria            .m         : 
Fração de Areia            .%         : 
Idades                     .Ma        : 
Fluxo de Carbono [gC/m²/yr].gC/m²/yr  : 
COₘₐ [%]                   .%         : 
rCO [%]                    .%         : 
qCO [%]                    .%         : 
COₜₑ [%]                   .          : 
COT [%]                    .%         : 
~Params ----------------------------------------------------
~Other -----------------------------------------------------
~ASCII -----------------------------------------------------
# ...
 4946.50000    2.54989  196.87786    6.49118  459.08193   94.07191  103.42317    4.45188    0.33306    0.02964    0.35569    0.38533    0.71838
 4947.00000    2.55602  196.43955    6.49118  461.86283   92.68433  103.43243    4.40363    0.32866    0.03658    0.43894    0.47552    0.80418
 4947.50000    2.51981  196.02501    6.49118  464.51334   93.62645  103.44125    4.35839    0.32995    0.03187    0.38241    0.41428    0.74424
 4948.00000    2.49887  195.66597    6.49116  466.82659   92.79582  103.44895    4.31949    0.32975    0.03602    0.43225    0.46827    0.79802
 4948.50000    2.50987  195.30925    6.49065  469.13985   93.46209  103.45666    4.28114    0.32539    0.03269    0.39227    0.42496    0.75036
 4949.00000    2.49380  194.95499    6.49095  471.45340   94.21177  103.46436    4.24330    0.32459    0.02894    0.34729    0.37624    0.70083
 4949.50000    2.49730  194.60304    6.49118  473.76666   95.14810  103.47206    4.20599    0.32129    0.02426    0.29111    0.31537    0.63666
 4950.00000    2.53582  194.25349    6.49118  476.08021   94.92345  103.47977    4.16917    0.31364    0.02538    0.30459    0.32998    0.64361
 4950.50000    2.52224  193.90621    6.49118  478.39347   94.61836  103.48747    4.13287    0.31258    0.02691    0.32290    0.34981    0.66239
 4951.00000    2.50082  193.56130    6.49103  480.70687   94.52873  103.49517    4.09704    0.31252    0.02736    0.32828    0.35563    0.66816
 4951.50000    2.47512  193.21855    6.49081  483.02028   95.20659  103.50287    4.06170    0.31305    0.02397    0.28760    0.31157    0.62462
 4952.00000    2.50790  192.87815    6.49118  485.33359   95.45764  103.51058    4.02683    0.30630    0.02271    0.27254    0.29525    0.60156
 4952.50000    2.54366  192.53985    6.49118  487.64709   95.65099  103.51828    3.99243    0.29942    0.02175    0.26094    0.28269    0.58210
 4953.00000    2.56111  192.20386    6.49118  489.96034   94.26630  103.52598    3.95848    0.29485    0.02867    0.34402    0.37269    0.66754
 4953.50000    2.54480  191.86991    6.49118  492.27390   92.96533  103.53369    3.92497    0.29422    0.03517    0.42208    0.45725    0.75148
 4954.00000    2.43603  191.53823    6.49118  494.58715   93.00720  103.54139    3.89190    0.30477    0.03496    0.41957    0.45453    0.75930
 4954.50000    2.47419  191.20853    6.49118  496.90071   95.11730  103.54909    3.85927    0.29756    0.02441    0.29296    0.31738    0.61493
 4955.00000    2.51012  190.88106    6.49118  499.21396   94.76117  103.55679    3.82706    0.29085    0.02619    0.31433    0.34052    0.63137
 4955.50000    2.46837  190.55558    6.49073  501.52721   94.43797  103.56450    3.79526    0.29331    0.02781    0.33372    0.36153    0.65484
 4956.00000    2.42832  190.23218    6.49099  503.84077   92.66001  103.57220    3.76387    0.29568    0.03670    0.44040    0.47710    0.77278
 4956.50000    2.49514  189.91077    6.49118  506.15402   94.19341  103.57990    3.73289    0.28539    0.02903    0.34840    0.37743    0.66282
 4957.00000    2.51922  189.59141    6.49118  508.46758   95.10879  103.58761    3.70229    0.28035    0.02446    0.29347    0.31793    0.59828
 4957.50000    2.54005  189.27399    6.49118  510.78083   94.64318  103.59531    3.67209    0.27578    0.02678    0.32141    0.34819    0.62398
 4958.00000    2.49292  188.95859    6.49099  513.09425   93.92894  103.60301    3.64227    0.27871    0.03036    0.36426    0.39462    0.67333
 4958.50000    2.52110  188.64505    6.49073  515.40764   94.31323  103.61071    3.61282    0.27337    0.02843    0.34121    0.36964    0.64301
 4959.00000    2.46654  188.33353    6.49118  517.72098   94.78890  103.61842    3.58374    0.27717    0.02606    0.31267    0.33872    0.61589
 4959.50000    2.41422  188.02380    6.49118  520.03445   94.94747  103.62612    3.55502    0.28091    0.02526    0.30315    0.32841    0.60932
 4960.00000    2.38931  187.71606    6.49118  522.34771   95.62204  103.63382    3.52667    0.28157    0.02189    0.26268    0.28457    0.56614
 4960.50000    2.35888  187.41007    6.49118  524.66126   95.44198  103.64153    3.49865    0.28294    0.02279    0.27348    0.29627    0.57921
 4961.00000    2.35748  187.10604    8.82404  526.97452   94.97735  103.64923    3.47099    0.27237    0.02511    0.30136    0.32647    0.59885
 4961.50000    2.34729  186.80371    8.82398  529.28807   94.50969  103.65693    3.44366    0.27140    0.02745    0.32942    0.35687    0.62827
 4962.00000    2.42369  186.50330    8.82392  531.60133   94.29642  103.66463    3.41666    0.26079    0.02852    0.34221    0.37073    0.63152
 4962.50000    2.50901  186.20460    8.82385  533.91458   94.68086  103.67234    3.39000    0.24995    0.02660    0.31915    0.34574    0.59570
 4963.00000    2.41398  185.90770    8.82385  536.22814   95.09911  103.68004    3.36365    0.25777    0.02450    0.29405    0.31856    0.57633
 4963.50000    2.36189  185.61251    8.82435  538.54139   91.74960  103.68774    3.33762    0.26142    0.04125    0.49502    0.53628    0.79769
 4964.00000    2.40932  185.31909    8.82439  540.85495   94.11312  103.69545    3.31190    0.25430    0.02943    0.35321    0.38265    0.63695
 4964.50000    2.39242  185.02735    8.82448  543.16820   94.71006  103.70315    3.28650    0.25413    0.02645    0.31740    0.34385    0.59798
 4965.00000    2.41126  184.73735    8.82445  545.48164   95.45978  103.71085    3.26139    0.25022    0.02270    0.27241    0.29511    0.54533
 4965.50000    2.37962  184.44898    8.82450  547.79501   95.67327  103.71855    3.23657    0.25161    0.02163    0.25960    0.28124    0.53285
 4966.00000    2.33597  184.16233    8.82440  550.10837   94.77468  103.72626    3.21206    0.25438    0.02613    0.31352    0.33965    0.59402
 4966.50000    2.37072  183.87725    8.82437  552.42182   94.76091  103.73396    3.18782    0.24876    0.02620    0.31435    0.34054    0.58930
 4967.00000    2.37753  183.59389    8.82431  554.73508   95.16796  103.74166    3.16387    0.24618    0.02416    0.28992    0.31408    0.56026
 4967.50000    2.37917  183.31204    8.82425  557.04863   95.51188  103.74936    3.14020    0.24417    0.02244    0.26929    0.29173    0.53590
 4968.00000    2.41033  183.03189    8.82385  559.36189   95.22184  103.75707    3.11681    0.23922    0.02389    0.28669    0.31058    0.54980
 4968.50000    2.43254  182.75323    8.82396  561.67544   95.84177  103.76477    3.09368    0.23528    0.02079    0.24949    0.27029    0.50556
 4969.00000    2.47042  182.47622    8.82402  563.98870   95.63570  103.77247    3.07082    0.22996    0.02182    0.26186    0.28368    0.51364
 4969.50000    2.49182  182.20071    8.82409  566.30195   95.32562  103.78018    3.04822    0.22630    0.02337    0.28046    0.30383    0.53014
 4970.00000    2.38018  181.92676    8.82415  568.61551   93.04297  103.78788    3.02588    0.23518    0.03479    0.41742    0.45221    0.68739
 4970.50000    2.45304  181.65431    8.82421  570.92876   93.42559  103.79558    3.00379    0.22653    0.03287    0.39446    0.42734    0.65387
 4971.00000    2.43990  181.38339    8.82451  573.24232   93.37273  103.80329    2.98195    0.22609    0.03314    0.39764    0.43077    0.65687
 4971.50000    2.45101  181.11394    8.82455  575.55557   93.48662  103.81099    2.96035    0.22344    0.03257    0.39080    0.42337    0.64681
 4972.00000    2.46757  180.84600    8.82419  577.86903   94.22238  103.81869    2.93900    0.22034    0.02889    0.34666    0.37555    0.59588
 4972.50000    2.38638  180.57948    8.82455  580.18238   94.51686  103.82639    2.91789    0.22620    0.02742    0.32899    0.35640    0.58260
 4973.00000    2.53477  180.31446    8.82406  582.49576   93.87293  103.83410    2.89701    0.21143    0.03064    0.36762    0.39826    0.60969
 4973.50000    2.55320  180.05082    8.82357  584.80919   94.04189  103.84180    2.87636    0.20841    0.02979    0.35749    0.38728    0.59569
 4974.00000    2.47690  179.83716    8.82372  586.69363   92.76856  103.84807    2.85971    0.21359    0.03616    0.43389    0.47004    0.68363
