~Version ---------------------------------------------------
VERS.   2.0 : CWLS log ASCII Standard -VERSION 2.0
WRAP.    NO : One line per depth step
DLM . SPACE : Column Data Section Delimiter
~Well ------------------------------------------------------
STRT   .m         2062.5 : START DEPTH
STOP   .m         6413.0 : STOP DEPTH
STEP   .m            0.5 : STEP
NULL   .          -99999 : NULL VALUE
COMP   .                 : COMPANY
WELL   .                 : WELL
FLD    .                 : FIELD
LOC    .                 : LOCATION
PROV   .                 : PROVINCE
CNTY   .                 : COUNTY
STAT   .                 : STATE
CTRY   .                 : COUNTRY
SRVC   .                 : SERVICE COMPANY
DATE   .                 : DATE
UWI    .                 : UNIQUE WELL ID
API    .                 : API NUMBER
WELL   . Simulacao_COT_3 : Well Name
GDAT   .                 : Horizontal Coordinate System
COORDEW.                 : Surface X
COORDNS.                 : Surface Y
LATI   .                 : Latitude
LONG   .                 : Longitude
~Curve Information -----------------------------------------
Profundidade [m]           .m         : 
Densidade Aparente Seca    .g/cm³     : 
Produtividade Primária     .gC/m²/yr  : 
Taxa de Sedimentação       .cm/ka     : 
Paleobatimetria            .m         : 
Fração de Areia            .%         : 
Idades                     .Ma        : 
Fluxo de Carbono [gC/m²/yr].gC/m²/yr  : 
COₘₐ [%]                   .%         : 
rCO [%]                    .%         : 
qCO [%]                    .%         : 
COₜₑ [%]                   .          : 
COT [%]                    .%         : 
~Params ----------------------------------------------------
~Other -----------------------------------------------------
~ASCII -----------------------------------------------------
# ...
 4078.50000    2.18379  130.98326    5.39980 1384.76975   92.19050   90.56748    0.60715    0.05402    0.03905    0.46857    0.50762    0.56164
 4079.00000    2.12806  131.14553    5.39992 1380.13301   91.93300   90.57674    0.61083    0.05577    0.04033    0.48402    0.52435    0.58013
 4079.50000    2.13129  131.30851    5.39995 1375.49627   92.39129   90.58600    0.61455    0.05603    0.03804    0.45652    0.49457    0.55059
 4080.00000    2.16533  131.47229    5.39978 1370.85951   92.00119   90.59526    0.61831    0.05548    0.03999    0.47993    0.51992    0.57541
 4080.50000    2.20041  131.63679    5.39971 1366.22275   91.17654   90.60452    0.62210    0.05493    0.04412    0.52941    0.57352    0.62846
 4081.00000    2.19824  131.80209    5.39987 1361.58601   91.02323   90.61378    0.62593    0.05533    0.04488    0.53861    0.58349    0.63882
 4081.50000    2.13812  131.96813    5.40004 1356.94927   92.36280   90.62304    0.62979    0.05723    0.03819    0.45823    0.49642    0.55365
 4082.00000    2.16778  132.13498    5.39988 1352.31251   92.29889   90.63230    0.63370    0.05680    0.03851    0.46207    0.50057    0.55737
 4082.50000    2.20537  132.30258    5.39971 1347.67575   91.06160   90.64156    0.63764    0.05618    0.04469    0.53630    0.58100    0.63718
 4083.00000    2.16002  132.47101    5.39978 1343.03901   92.81752   90.65082    0.64161    0.05772    0.03591    0.43095    0.46686    0.52458
 4083.50000    2.15481  132.64020    5.39995 1338.40227   92.56509   90.66008    0.64563    0.05822    0.03717    0.44609    0.48327    0.54149
 4084.00000    2.15230  132.81023    5.39992 1333.76552   91.77851   90.66934    0.64969    0.05865    0.04111    0.49329    0.53440    0.59305
 4084.50000    2.15778  132.98104    5.39980 1329.12876   91.56690   90.67860    0.65378    0.05887    0.04217    0.50599    0.54815    0.60702
 4085.00000    2.03288  133.15270    5.39978 1324.49201   91.72726   90.68786    0.65792    0.06289    0.04136    0.49636    0.53773    0.60061
 4085.50000    2.15618  133.32515    5.39985 1319.85527   91.99431   90.69712    0.66209    0.05967    0.04003    0.48034    0.52037    0.58004
 4086.00000    2.18017  133.49847    5.39992 1315.21852   91.22442   90.70638    0.66631    0.05939    0.04388    0.52654    0.57041    0.62980
 4086.50000    2.18694  133.67259    5.39990 1310.58177   87.18392   90.71564    0.67057    0.05958    0.06408    0.76897    0.83305    0.89263
 4087.00000    2.08851  133.84759    5.39978 1305.94501   90.33470   90.72490    0.67488    0.06279    0.04833    0.57992    0.62824    0.69103
 4087.50000    2.16801  134.02340    5.39976 1301.30826   91.92366   90.73416    0.67922    0.06088    0.04038    0.48458    0.52496    0.58584
 4088.00000    2.18143  134.20012    5.39992 1296.67153   91.62929   90.74341    0.68361    0.06089    0.04185    0.50224    0.54410    0.60499
 4088.50000    2.10374  134.37766    5.39999 1292.03478   93.34630   90.75267    0.68804    0.06355    0.03327    0.39922    0.43249    0.49604
 4089.00000    1.84144  134.55612    5.39982 1287.39802   92.69385   90.76193    0.69252    0.07307    0.03653    0.43837    0.47490    0.54797
 4089.50000    2.18570  134.73542    5.39966 1282.76126   91.88950   90.77119    0.69705    0.06197    0.04055    0.48663    0.52718    0.58915
 4090.00000    1.79660  134.91564    5.39983 1278.12452   92.45318   90.78045    0.70162    0.07588    0.03773    0.45281    0.49054    0.56642
 4090.50000    2.20936  135.09673    5.40000 1273.48778   92.84383   90.78971    0.70623    0.06211    0.03578    0.42937    0.46515    0.52726
 4091.00000    2.22856  135.27876    5.39992 1268.85103   92.48310   90.79897    0.71090    0.06198    0.03758    0.45101    0.48860    0.55058
 4091.50000    2.14258  135.46167    5.39975 1264.21427   91.81545   90.80823    0.71561    0.06490    0.04092    0.49107    0.53200    0.59689
 4092.00000    2.17586  135.64553    5.39978 1259.57752   91.21878   90.81749    0.72037    0.06433    0.04391    0.52687    0.57078    0.63511
 4092.50000    2.22510  135.83029    5.40032 1254.94078   91.90704   90.82675    0.72518    0.06333    0.04046    0.48558    0.52604    0.58937
 4093.00000    2.13577  136.01602    6.11493 1250.30403   92.41616   90.83601    0.73004    0.06560    0.03792    0.45503    0.49295    0.55855
 4093.50000    2.16501  136.20265    6.11483 1245.66728   92.53782   90.84527    0.73495    0.06515    0.03731    0.44773    0.48504    0.55019
 4094.00000    2.08393  136.39028    6.11493 1241.03052   92.76202   90.85453    0.73991    0.06814    0.03619    0.43428    0.47047    0.53861
 4094.50000    2.08913  136.57883    6.11489 1236.39378   92.54471   90.86379    0.74493    0.06843    0.03728    0.44732    0.48459    0.55302
 4095.00000    2.16550  136.76840    6.11493 1231.75703   91.86940   90.87305    0.75000    0.06646    0.04065    0.48784    0.52849    0.59495
 4095.50000    2.16222  136.95890    6.11495 1227.12029   91.58334   90.88231    0.75512    0.06702    0.04208    0.50500    0.54708    0.61410
 4096.00000    2.13871  137.13233    6.11493 1222.92067   92.62375   90.89069    0.75980    0.06818    0.03688    0.44257    0.47946    0.54763
 4096.50000    2.20782  137.30217    6.11501 1218.82607   92.16876   90.89887    0.76441    0.06644    0.03916    0.46987    0.50903    0.57547
 4097.00000    2.15539  137.47284    6.11488 1214.73146   92.51674   90.90705    0.76907    0.06847    0.03742    0.44900    0.48641    0.55489
 4097.50000    2.21706  137.64426    6.11507 1210.63686   91.19320   90.91523    0.77377    0.06698    0.04403    0.52841    0.57244    0.63942
 4098.00000    2.18071  137.81651    6.11482 1206.54225   92.47558   90.92340    0.77852    0.06851    0.03762    0.45147    0.48909    0.55760
 4098.50000    2.11296  137.98952    6.11503 1202.44765   91.51926   90.93158    0.78331    0.07114    0.04240    0.50884    0.55125    0.62239
 4099.00000    2.13858  138.16338    6.11475 1198.35305   92.48093   90.93976    0.78814    0.07072    0.03760    0.45114    0.48874    0.55946
 4099.50000    2.16645  138.33802    6.11497 1194.25844   92.24788   90.94793    0.79303    0.07025    0.03876    0.46513    0.50389    0.57413
 4100.00000    2.15864  138.51352    6.11474 1190.16384   92.43007   90.95611    0.79796    0.07094    0.03785    0.45420    0.49205    0.56299
 4100.50000    2.15082  138.68981    6.11491 1186.06923   92.28767   90.96429    0.80293    0.07164    0.03856    0.46274    0.50130    0.57294
 4101.00000    2.19190  138.86697    6.11474 1181.97462   92.46950   90.97246    0.80796    0.07074    0.03765    0.45183    0.48948    0.56022
 4101.50000    2.17255  139.04494    6.11485 1177.88003   92.94118   90.98064    0.81304    0.07182    0.03529    0.42353    0.45882    0.53064
 4102.00000    2.15144  139.22379    6.11474 1173.78541   92.79556   90.98882    0.81816    0.07298    0.03602    0.43227    0.46829    0.54127
 4102.50000    2.29775  139.40346    6.11479 1169.69082   92.83833   90.99699    0.82334    0.06876    0.03581    0.42970    0.46551    0.53427
 4103.00000    2.16136  139.59164    6.11474 1165.42410   92.39714   91.00517    0.82878    0.07359    0.03801    0.45617    0.49419    0.56777
 4103.50000    2.15420  139.78518    6.11473 1161.05734   93.27778   91.01335    0.83442    0.07433    0.03361    0.40333    0.43694    0.51128
 4104.00000    2.11625  139.97975    6.11474 1156.69055   92.28139   91.02152    0.84011    0.07618    0.03859    0.46312    0.50171    0.57789
 4104.50000    2.19876  140.17529    6.11467 1152.32379   92.36727   91.02970    0.84586    0.07383    0.03816    0.45796    0.49613    0.56995
 4105.00000    2.15484  140.37189    6.11479 1147.95700   91.33967   91.03788    0.85168    0.07585    0.04330    0.51962    0.56292    0.63877
 4105.50000    2.14083  140.56948    6.11461 1143.59025   92.76423   91.04606    0.85756    0.07687    0.03618    0.43415    0.47032    0.54720
 4106.00000    2.14465  140.76814    6.11485 1139.22345   92.52452   91.05423    0.86350    0.07727    0.03738    0.44853    0.48591    0.56317
