~Version ---------------------------------------------------
VERS.   2.0 : CWLS log ASCII Standard -VERSION 2.0
WRAP.    NO : One line per depth step
DLM . SPACE : Column Data Section Delimiter
~Well ------------------------------------------------------
STRT   .m         2062.5 : START DEPTH
STOP   .m         6413.0 : STOP DEPTH
STEP   .m            0.5 : STEP
NULL   .          -99999 : NULL VALUE
COMP   .                 : COMPANY
WELL   .                 : WELL
FLD    .                 : FIELD
LOC    .                 : LOCATION
PROV   .                 : PROVINCE
CNTY   .                 : COUNTY
STAT   .                 : STATE
CTRY   .                 : COUNTRY
SRVC   .                 : SERVICE COMPANY
DATE   .                 : DATE
UWI    .                 : UNIQUE WELL ID
API    .                 : API NUMBER
WELL   . Simulacao_COT_3 : Well Name
GDAT   .                 : Horizontal Coordinate System
COORDEW.                 : Surface X
COORDNS.                 : Surface Y
LATI   .                 : Latitude
LONG   .                 : Longitude
~Curve Information -----------------------------------------
Profundidade [m]           .m         : 
Densidade Aparente Seca    .g/cm³     : 
Produtividade Primária     .gC/m²/yr  : 
Taxa de Sedimentação       .cm/ka     : 
Paleobatimetria            .m         : 
Fração de Areia            .%         : 
Idades                     .Ma        : 
Fluxo de Carbono [gC/m²/yr].gC/m²/yr  : 
COₘₐ [%]                   .%         : 
rCO [%]                    .%         : 
qCO [%]                    .%         : 
COₜₑ [%]                   .          : 
COT [%]                    .%         : 
~Params ----------------------------------------------------
~Other -----------------------------------------------------
~ASCII -----------------------------------------------------
# ...
 2342.50000    0.71284  151.07165    3.66889  940.78949   97.81646   65.93710    1.21968    0.34557    0.01092    0.13101    0.14193    0.48750
 2343.00000    0.71284  151.06824    3.66889  940.84715   98.05932   65.95073    1.21955    0.34553    0.00970    0.11644    0.12614    0.47167
 2343.50000    0.71284  151.06482    3.66889  940.90480   97.81850   65.96435    1.21941    0.34549    0.01091    0.13089    0.14180    0.48729
 2344.00000    0.71284  151.06140    3.66889  940.96246   97.72784   65.97798    1.21928    0.34545    0.01136    0.13633    0.14769    0.49314
 2344.50000    0.71284  151.05799    3.66889  941.02011   97.79070   65.99161    1.21914    0.34541    0.01105    0.13256    0.14360    0.48902
 2345.00000    0.71284  151.12090    3.66889  939.95942   97.78678   66.00524    1.22163    0.34612    0.01107    0.13279    0.14386    0.48998
 2345.50000    0.71284  151.29046    3.66889  937.10782   97.90366   66.01887    1.22834    0.34802    0.01048    0.12578    0.13626    0.48428
 2346.00000    0.71284  151.46075    3.66889  934.25622   97.84984   66.03249    1.23512    0.34994    0.01075    0.12901    0.13976    0.48970
 2346.50000    0.71284  151.63173    3.66889  931.40463   97.52047   66.04612    1.24195    0.35187    0.01240    0.14877    0.16117    0.51304
 2347.00000    0.71284  151.80346    3.66889  928.55303   98.19722   66.05975    1.24884    0.35383    0.00901    0.10817    0.11718    0.47101
 2347.50000    0.71284  151.97588    3.66889  925.70143   97.98338   66.07338    1.25579    0.35580    0.01008    0.12100    0.13108    0.48688
 2348.00000    0.71284  152.14906    3.66889  922.84983   97.59691   66.08701    1.26280    0.35778    0.01202    0.14419    0.15620    0.51398
 2348.50000    0.71284  152.32294    3.66889  919.99823   97.65391   66.10063    1.26988    0.35979    0.01173    0.14077    0.15250    0.51228
 2349.00000    0.71284  152.49759    3.66889  917.14663   98.04130   66.11426    1.27701    0.36181    0.00979    0.11752    0.12732    0.48912
 2349.50000    0.71284  152.67296    3.66889  914.29504   97.96047   66.12789    1.28421    0.36385    0.01020    0.12237    0.13257    0.49642
 2350.00000    0.71284  152.84911    3.66889  911.44343   97.72360   66.14152    1.29147    0.36590    0.01138    0.13658    0.14797    0.51387
 2350.50000    0.71284  153.02599    3.66889  908.59184   97.73175   66.15515    1.29879    0.36798    0.01134    0.13610    0.14744    0.51541
 2351.00000    0.71284  153.20365    3.66889  905.74023   97.85635   66.16878    1.30618    0.37007    0.01072    0.12862    0.13934    0.50941
 2351.50000    0.71284  153.36464    6.13364  903.16640   97.53617   66.18108    1.31290    0.35334    0.01232    0.14783    0.16015    0.51349
 2352.00000    0.71284  153.47170    6.13364  901.46069   97.70293   66.18923    1.31739    0.35455    0.01149    0.13782    0.14931    0.50386
 2352.50000    0.71284  153.57902    6.13364  899.75498   97.21438   66.19738    1.32190    0.35576    0.01393    0.16714    0.18107    0.53683
 2353.00000    0.71284  153.68662    6.13361  898.04927   98.04825   66.20553    1.32643    0.35698    0.00976    0.11711    0.12686    0.48385
 2353.50000    0.71284  153.79450    6.13359  896.34355   97.53037   66.21368    1.33099    0.35821    0.01235    0.14818    0.16053    0.51874
 2354.00000    0.71284  153.90267    6.13363  894.63785   97.75378   66.22184    1.33557    0.35945    0.01123    0.13477    0.14600    0.50545
 2354.50000    0.71284  154.01112    6.13364  892.93213   97.84373   66.22999    1.34018    0.36068    0.01078    0.12938    0.14016    0.50084
 2355.00000    0.71284  154.11985    6.13364  891.22643   97.91697   66.23814    1.34481    0.36193    0.01042    0.12498    0.13540    0.49733
 2355.50000    0.71284  154.22887    6.13364  889.52071   97.49061   66.24629    1.34947    0.36318    0.01255    0.15056    0.16311    0.52630
 2356.00000    0.71284  154.33817    6.13362  887.81501   97.52578   66.25444    1.35415    0.36445    0.01237    0.14845    0.16082    0.52527
 2356.50000    0.71284  154.44776    6.13364  886.10929   97.56490   66.26259    1.35886    0.36571    0.01218    0.14611    0.15828    0.52399
 2357.00000    0.71284  154.55765    6.13364  884.40357   97.82333   66.27075    1.36359    0.36699    0.01088    0.13060    0.14148    0.50847
 2357.50000    0.71284  154.66781    6.13364  882.69787   97.75754   66.27890    1.36835    0.36827    0.01121    0.13455    0.14576    0.51403
 2358.00000    0.71284  154.77828    6.13364  880.99216   97.85156   66.28705    1.37314    0.36955    0.01074    0.12891    0.13965    0.50920
 2358.50000    0.71284  154.88903    6.13364  879.28645   97.67185   66.29520    1.37795    0.37085    0.01164    0.13969    0.15133    0.52218
 2359.00000    0.71284  155.00009    6.13363  877.58073   97.70609   66.30335    1.38278    0.37215    0.01147    0.13763    0.14910    0.52126
 2359.50000    0.71284  155.11143    6.13364  875.87502   97.69771   66.31151    1.38765    0.37346    0.01151    0.13814    0.14965    0.52311
 2360.00000    0.71284  155.22308    6.13364  874.16931   97.74790   66.31966    1.39254    0.37478    0.01126    0.13513    0.14639    0.52116
 2360.50000    0.71284  155.33502    6.13364  872.46362   97.99014   66.32781    1.39745    0.37610    0.01005    0.12059    0.13064    0.50674
 2361.00000    0.71284  155.44727    6.13364  870.75790   97.92253   66.33596    1.40240    0.37743    0.01039    0.12465    0.13504    0.51246
 2361.50000    0.71284  155.55981    6.13364  869.05218   97.87768   66.34411    1.40737    0.37877    0.01061    0.12734    0.13795    0.51672
 2362.00000    0.71284  155.67266    6.13364  867.34648   98.09757   66.35226    1.41237    0.38011    0.00951    0.11415    0.12366    0.50377
 2362.50000    0.71284  155.78580    6.13364  865.64076   98.11769   66.36042    1.41739    0.38146    0.00941    0.11294    0.12235    0.50381
 2363.00000    0.71284  155.89927    6.13363  863.93506   97.73182   66.36857    1.42245    0.38283    0.01134    0.13609    0.14743    0.53026
 2363.50000    0.71284  156.01303    6.13363  862.22934   97.63707   66.37672    1.42753    0.38419    0.01181    0.14178    0.15359    0.53778
 2364.00000    0.71284  156.12710    6.13361  860.52363   97.84097   66.38487    1.43264    0.38557    0.01080    0.12954    0.14034    0.52591
 2364.50000    0.71284  156.24148    6.13364  858.81792   97.98515   66.39302    1.43778    0.38695    0.01007    0.12089    0.13097    0.51792
 2365.00000    0.71284  156.35618    6.13364  857.11221   98.16838   66.40117    1.44294    0.38834    0.00916    0.10990    0.11906    0.50740
 2365.50000    0.71284  156.47118    6.13364  855.40650   97.78989   66.40933    1.44814    0.38974    0.01105    0.13261    0.14366    0.53340
 2366.00000    0.71284  156.58651    6.13362  853.70079   97.47935   66.41748    1.45337    0.39115    0.01260    0.15124    0.16384    0.55499
 2366.50000    0.71284  156.70214    6.13361  851.99508   97.91370   66.42563    1.45862    0.39256    0.01043    0.12518    0.13561    0.52817
 2367.00000    0.71284  156.81810    6.13362  850.28936   98.02442   66.43378    1.46390    0.39398    0.00988    0.11853    0.12841    0.52240
 2367.50000    0.71284  156.93437    6.13364  848.58366   98.19484   66.44193    1.46922    0.39541    0.00903    0.10831    0.11734    0.51275
 2368.00000    0.71284  157.05097    6.13364  846.87795   97.83153   66.45009    1.47456    0.39685    0.01084    0.13011    0.14095    0.53780
 2368.50000    0.71284  157.16788    6.13364  845.17224   97.86741   66.45824    1.47994    0.39830    0.01066    0.12796    0.13862    0.53692
 2369.00000    0.71284  157.28513    6.13363  843.46652   97.39068   66.46639    1.48534    0.39975    0.01305    0.15656    0.16961    0.56936
 2369.50000    0.71284  157.40268    6.13363  841.76080   97.79559   66.47454    1.49078    0.40122    0.01102    0.13226    0.14329    0.54450
 2370.00000    0.71284  157.52058    6.13363  840.05510   97.72767   66.48269    1.49625    0.40269    0.01136    0.13634    0.14770    0.55039
