~Version ---------------------------------------------------
VERS.   2.0 : CWLS log ASCII Standard -VERSION 2.0
WRAP.    NO : One line per depth step
DLM . SPACE : Column Data Section Delimiter
~Well ------------------------------------------------------
STRT   .m         2062.5 : START DEPTH
STOP   .m         6413.0 : STOP DEPTH
STEP   .m            0.5 : STEP
NULL   .          -99999 : NULL VALUE
COMP   .                 : COMPANY
WELL   .                 : WELL
FLD    .                 : FIELD
LOC    .                 : LOCATION
PROV   .                 : PROVINCE
CNTY   .                 : COUNTY
STAT   .                 : STATE
CTRY   .                 : COUNTRY
SRVC   .                 : SERVICE COMPANY
DATE   .                 : DATE
UWI    .                 : UNIQUE WELL ID
API    .                 : API NUMBER
WELL   . Simulacao_COT_3 : Well Name
GDAT   .                 : Horizontal Coordinate System
COORDEW.                 : Surface X
COORDNS.                 : Surface Y
LATI   .                 : Latitude
LONG   .                 : Longitude
~Curve Information -----------------------------------------
Profundidade [m]           .m         : 
Densidade Aparente Seca    .g/cm³     : 
Produtividade Primária     .gC/m²/yr  : 
Taxa de Sedimentação       .cm/ka     : 
Paleobatimetria            .m         : 
Fração de Areia            .%         : 
Idades                     .Ma        : 
Fluxo de Carbono [gC/m²/yr].gC/m²/yr  : 
COₘₐ [%]                   .%         : 
rCO [%]                    .%         : 
qCO [%]                    .%         : 
COₜₑ [%]                   .          : 
COT [%]                    .%         : 
~Params ----------------------------------------------------
~Other -----------------------------------------------------
~ASCII -----------------------------------------------------
# ...
 3490.50000    2.29785  140.95315    7.67673 1135.17623   93.14847   82.21938    0.86906    0.07095    0.03426    0.41109    0.44535    0.51630
 3491.00000    1.65836  140.92487    7.67630 1135.79360   93.25654   82.22589    0.86821    0.09821    0.03372    0.40461    0.43832    0.53654
 3491.50000    1.62565  140.89661    7.67664 1136.41096   92.03259   82.23241    0.86736    0.10009    0.03984    0.47804    0.51788    0.61797
 3492.00000    1.84692  140.86837    7.67625 1137.02832   91.97248   82.23892    0.86651    0.08801    0.04014    0.48165    0.52179    0.60980
 3492.50000    1.89314  140.84014    7.67654 1137.64568   92.99689   82.24544    0.86566    0.08578    0.03502    0.42019    0.45520    0.54098
 3493.00000    1.80418  140.81195    7.67657 1138.26304   92.73118   82.25195    0.86481    0.08992    0.03634    0.43613    0.47247    0.56239
 3493.50000    1.78148  140.78377    7.67645 1138.88041   92.87596   82.25846    0.86397    0.09098    0.03562    0.42744    0.46306    0.55404
 3494.00000    1.70179  140.75561    7.67657 1139.49777   93.31828   82.26497    0.86312    0.09514    0.03341    0.40090    0.43431    0.52945
 3494.50000    1.70517  140.72747    7.67649 1140.11513   92.37732   82.27149    0.86228    0.09486    0.03811    0.45736    0.49547    0.59034
 3495.00000    1.76280  140.69935    7.67657 1140.73249   92.83923   82.27800    0.86144    0.09167    0.03580    0.42965    0.46545    0.55712
 3495.50000    1.85456  140.67126    7.67659 1141.34985   93.03142   82.28451    0.86060    0.08705    0.03484    0.41811    0.45296    0.54001
 3496.00000    1.61346  140.64318    7.67658 1141.96722   93.65681   82.29103    0.85976    0.09996    0.03172    0.38059    0.41231    0.51227
 3496.50000    1.76595  140.61513    7.67668 1142.58457   93.47453   82.29754    0.85892    0.09124    0.03263    0.39153    0.42416    0.51540
 3497.00000    1.78829  140.58710    7.67634 1143.20194   93.48880   82.30406    0.85808    0.09001    0.03256    0.39067    0.42323    0.51324
 3497.50000    1.86169  140.55908    7.67678 1143.81930   93.81296   82.31057    0.85725    0.08638    0.03094    0.37122    0.40216    0.48854
 3498.00000    1.90182  140.53109    7.67644 1144.43666   93.17559   82.31708    0.85641    0.08447    0.03412    0.40946    0.44359    0.52806
 3498.50000    1.86782  140.50312    7.67674 1145.05402   93.21398   82.32360    0.85558    0.08593    0.03393    0.40716    0.44109    0.52702
 3499.00000    1.83485  140.47517    7.67653 1145.67138   93.30073   82.33011    0.85475    0.08739    0.03350    0.40196    0.43545    0.52284
 3499.50000    1.86215  140.44724    7.67620 1146.28875   93.69053   82.33662    0.85392    0.08602    0.03155    0.37857    0.41012    0.49614
 3500.00000    1.85681  140.41933    8.27839 1146.90611   93.14199   82.34314    0.85309    0.08554    0.03429    0.41148    0.44577    0.53131
 3500.50000    1.64302  140.39144    8.27841 1147.52347   92.40003   82.34965    0.85226    0.09657    0.03800    0.45600    0.49400    0.59057
 3501.00000    1.84601  140.36358    8.27839 1148.14083   91.84798   82.35616    0.85143    0.08587    0.04076    0.48912    0.52988    0.61575
 3501.50000    1.78635  140.33573    8.27852 1148.75819   91.54504   82.36268    0.85061    0.08865    0.04227    0.50730    0.54957    0.63823
 3502.00000    1.70330  140.30790    8.27824 1149.37555   91.26657   82.36919    0.84978    0.09289    0.04367    0.52401    0.56767    0.66056
 3502.50000    1.71154  140.28009    8.27863 1149.99292   91.21875   82.37570    0.84896    0.09235    0.04391    0.52688    0.57078    0.66313
 3503.00000    1.87298  140.25327    8.27843 1150.58880   91.83797   82.38199    0.84817    0.08431    0.04081    0.48972    0.53053    0.61484
 3503.50000    1.88935  140.22753    8.27874 1151.16126   91.69560   82.38803    0.84741    0.08350    0.04152    0.49826    0.53979    0.62329
 3504.00000    1.88350  140.20180    8.27873 1151.73372   91.53082   82.39407    0.84665    0.08369    0.04235    0.50815    0.55050    0.63419
 3504.50000    1.93456  140.17608    8.27885 1152.30619   91.39698   82.40011    0.84589    0.08141    0.04302    0.51618    0.55920    0.64060
 3505.00000    1.95681  140.15039    8.27866 1152.87865   92.91307   82.40615    0.84513    0.08041    0.03543    0.42522    0.46065    0.54106
 3505.50000    1.91101  140.12471    8.27811 1153.45111   92.66121   82.41219    0.84437    0.08226    0.03669    0.44033    0.47702    0.55928
 3506.00000    1.88686  140.09905    8.27855 1154.02357   91.45045   82.41823    0.84362    0.08324    0.04275    0.51297    0.55572    0.63896
 3506.50000    1.89964  140.07341    8.27817 1154.59604   91.62992   82.42427    0.84286    0.08261    0.04185    0.50220    0.54405    0.62666
 3507.00000    1.97888  140.04778    8.27844 1155.16850   91.17233   82.43031    0.84211    0.07923    0.04414    0.52966    0.57380    0.65303
 3507.50000    2.00937  140.02217    8.27828 1155.74096   90.56534   82.43635    0.84136    0.07796    0.04717    0.56608    0.61325    0.69121
 3508.00000    1.90273  139.99658    8.27878 1156.31342   90.55795   82.44239    0.84060    0.08225    0.04721    0.56652    0.61373    0.69598
 3508.50000    1.95649  139.97101    8.27840 1156.88589   90.20386   82.44843    0.83985    0.07992    0.04898    0.58777    0.63675    0.71667
 3509.00000    1.89481  139.94545    8.27873 1157.45835   90.40645   82.45447    0.83910    0.08245    0.04797    0.57561    0.62358    0.70603
 3509.50000    1.79133  139.91991    8.27851 1158.03081   90.31363   82.46051    0.83836    0.08713    0.04843    0.58118    0.62961    0.71675
 3510.00000    1.89001  139.89439    8.27873 1158.60327   90.44890   82.46655    0.83761    0.08251    0.04776    0.57307    0.62082    0.70333
 3510.50000    1.88461  139.86889    8.27811 1159.17574   91.15237   82.47259    0.83686    0.08267    0.04424    0.53086    0.57510    0.65777
 3511.00000    1.91487  139.84340    8.27873 1159.74820   90.80376   82.47863    0.83612    0.08129    0.04598    0.55177    0.59776    0.67905
 3511.50000    1.90005  139.81793    8.27839 1160.32066   91.09365   82.48467    0.83537    0.08186    0.04453    0.53438    0.57891    0.66077
 3512.00000    1.97680  139.79248    8.27873 1160.89313   91.35795   82.49070    0.83463    0.07861    0.04321    0.51852    0.56173    0.64034
 3512.50000    2.00104  139.76704    8.27828 1161.46559   91.49050   82.49674    0.83389    0.07759    0.04255    0.51057    0.55312    0.63070
 3513.00000    1.92901  139.74162    8.27884 1162.03805   91.55409   82.50279    0.83315    0.08041    0.04223    0.50675    0.54898    0.62940
 3513.50000    1.95770  139.71622    8.27817 1162.61051   91.96218   82.50882    0.83241    0.07916    0.04019    0.48227    0.52246    0.60162
 3514.00000    1.95571  139.69084    8.27856 1163.18297   92.50782   82.51486    0.83167    0.07917    0.03746    0.44953    0.48699    0.56616
 3514.50000    1.96690  139.66547    8.27816 1163.75544   92.46416   82.52090    0.83093    0.07865    0.03768    0.45215    0.48983    0.56848
 3515.00000    1.97615  139.64012    8.27867 1164.32790   91.41472   82.52694    0.83019    0.07822    0.04293    0.51512    0.55804    0.63626
 3515.50000    1.97054  139.61479    8.27811 1164.90036   91.28876   82.53298    0.82946    0.07837    0.04356    0.52267    0.56623    0.64460
 3516.00000    1.97686  139.58947    8.27873 1165.47282   90.90430   82.53902    0.82872    0.07805    0.04548    0.54574    0.59122    0.66927
 3516.50000    1.98213  139.56417    8.27874 1166.04528   91.08596   82.54506    0.82799    0.07777    0.04457    0.53484    0.57941    0.65718
 3517.00000    1.96304  139.53889    8.27873 1166.61775   91.09556   82.55110    0.82725    0.07846    0.04452    0.53427    0.57879    0.65725
 3517.50000    1.96778  139.51363    8.27862 1167.19021   91.20246   82.55714    0.82652    0.07820    0.04399    0.52785    0.57184    0.65004
 3518.00000    1.93689  139.48838    8.27855 1167.76268   91.64756   82.56318    0.82579    0.07938    0.04176    0.50115    0.54291    0.62229
