~Version ---------------------------------------------------
VERS.   2.0 : CWLS log ASCII Standard -VERSION 2.0
WRAP.    NO : One line per depth step
DLM . SPACE : Column Data Section Delimiter
~Well ------------------------------------------------------
STRT   .m         2062.5 : START DEPTH
STOP   .m         6413.0 : STOP DEPTH
STEP   .m            0.5 : STEP
NULL   .          -99999 : NULL VALUE
COMP   .                 : COMPANY
WELL   .                 : WELL
FLD    .                 : FIELD
LOC    .                 : LOCATION
PROV   .                 : PROVINCE
CNTY   .                 : COUNTY
STAT   .                 : STATE
CTRY   .                 : COUNTRY
SRVC   .                 : SERVICE COMPANY
DATE   .                 : DATE
UWI    .                 : UNIQUE WELL ID
API    .                 : API NUMBER
WELL   . Simulacao_COT_3 : Well Name
GDAT   .                 : Horizontal Coordinate System
COORDEW.                 : Surface X
COORDNS.                 : Surface Y
LATI   .                 : Latitude
LONG   .                 : Longitude
~Curve Information -----------------------------------------
Profundidade [m]           .m         : 
Densidade Aparente Seca    .g/cm³     : 
Produtividade Primária     .gC/m²/yr  : 
Taxa de Sedimentação       .cm/ka     : 
Paleobatimetria            .m         : 
Fração de Areia            .%         : 
Idades                     .Ma        : 
Fluxo de Carbono [gC/m²/yr].gC/m²/yr  : 
COₘₐ [%]                   .%         : 
rCO [%]                    .%         : 
qCO [%]                    .%         : 
COₜₑ [%]                   .          : 
COT [%]                    .%         : 
~Params ----------------------------------------------------
~Other -----------------------------------------------------
~ASCII -----------------------------------------------------
# ...
 5226.50000    2.64991  150.56350    7.07439  949.41663   93.55295  107.08868    1.19976    0.08563    0.03224    0.38682    0.41906    0.50469
 5227.00000    2.59217  150.56350    7.07435  949.41663   91.72526  107.09575    1.19976    0.08754    0.04137    0.49648    0.53786    0.62539
 5227.50000    2.57535  150.56350    7.07455  949.41663   92.98493  107.10281    1.19976    0.08811    0.03508    0.42090    0.45598    0.54409
 5228.00000    2.59948  150.56350    7.07435  949.41663   91.69647  107.10988    1.19976    0.08729    0.04152    0.49821    0.53973    0.62702
 5228.50000    2.55298  150.56350    7.07423  949.41663   92.34745  107.11695    1.19976    0.08888    0.03826    0.45915    0.49742    0.58630
 5229.00000    2.56999  150.56350    7.07435  949.41663   93.50172  107.12402    1.19976    0.08829    0.03249    0.38990    0.42239    0.51068
 5229.50000    2.56746  150.56350    7.07455  949.41663   90.87347  107.13108    1.19976    0.08838    0.04563    0.54759    0.59322    0.68160
 5230.00000    2.60788  150.56350    7.07410  949.41663   93.26085  107.13815    1.19976    0.08701    0.03370    0.40435    0.43804    0.52505
 5230.50000    2.55907  150.56350    7.07438  949.41663   92.74805  107.14522    1.19976    0.08867    0.03626    0.43512    0.47138    0.56005
 5231.00000    2.53197  150.56350    7.07455  949.41663   92.62616  107.15229    1.19976    0.08962    0.03687    0.44243    0.47930    0.56892
 5231.50000    2.50727  150.56350    7.07398  949.41663   90.16535  107.15936    1.19976    0.09050    0.04917    0.59008    0.63925    0.72975
 5232.00000    2.55030  150.56350    7.07431  949.41663   91.89898  107.16642    1.19976    0.08897    0.04051    0.48606    0.52657    0.61554
 5232.50000    2.57463  150.56350    7.07455  949.41663   92.58765  107.17349    1.19976    0.08813    0.03706    0.44474    0.48180    0.56994
 5233.00000    2.53662  150.56350    7.07447  949.41663   92.05147  107.18056    1.19976    0.08945    0.03974    0.47691    0.51665    0.60611
 5233.50000    2.55815  150.56350    7.07397  949.41663   89.39744  107.18763    1.19976    0.08870    0.05301    0.63615    0.68917    0.77787
 5234.00000    2.62358  150.56350    7.07455  949.41663   93.40489  107.19469    1.19976    0.08649    0.03298    0.39571    0.42868    0.51517
 5234.50000    2.63270  150.56350    7.07440  949.41663   94.16419  107.20176    1.19976    0.08619    0.02918    0.35015    0.37933    0.46552
 5235.00000    2.60545  150.56350    7.07409  949.41663   94.43461  107.20883    1.19976    0.08709    0.02783    0.33392    0.36175    0.44884
 5235.50000    2.59873  150.56350    7.07455  949.41663   96.11268  107.21590    1.19976    0.08732    0.01944    0.23324    0.25268    0.33999
 5236.00000    2.59403  150.56350    7.07435  949.41663   95.91978  107.22297    1.19976    0.08747    0.02040    0.24481    0.26521    0.35269
 5236.50000    2.62043  150.56350    7.07423  949.41663   95.94434  107.23003    1.19976    0.08659    0.02028    0.24334    0.26362    0.35021
 5237.00000    2.55161  150.56350    7.07434  949.41663   93.58173  107.23710    1.19976    0.08893    0.03209    0.38510    0.41719    0.50612
 5237.50000    2.62529  150.56350    7.07455  949.41663   93.88740  107.24417    1.19976    0.08643    0.03056    0.36676    0.39732    0.48375
 5238.00000    2.62010  150.56350    7.07411  949.41663   94.18159  107.25124    1.19976    0.08660    0.02909    0.34910    0.37820    0.46480
 5238.50000    2.61084  150.56350    7.07437  949.41663   94.66174  107.25830    1.19976    0.08691    0.02669    0.32030    0.34699    0.43390
 5239.00000    2.62704  150.56350    7.07455  949.41663   94.79914  107.26537    1.19976    0.08637    0.02600    0.31205    0.33806    0.42443
 5239.50000    2.61315  150.56350    7.07399  949.41663   96.76580  107.27244    1.19976    0.08683    0.01617    0.19405    0.21022    0.29706
 5240.00000    2.61418  150.56350    7.07431  949.41663   97.40304  107.27951    1.19976    0.08680    0.01298    0.15582    0.16880    0.25560
 5240.50000    2.60286  150.56350    7.07455  949.41663   97.04419  107.28658    1.19976    0.08718    0.01478    0.17735    0.19213    0.27930
 5241.00000    2.59450  150.56350    7.07430  949.41663   94.27929  107.29364    1.19976    0.08746    0.02860    0.34324    0.37185    0.45930
 5241.50000    2.60622  150.56350    7.07396  949.41663   94.35088  107.30071    1.19976    0.08707    0.02825    0.33895    0.36719    0.45426
 5242.00000    2.61396  150.56350   10.60348  949.41663   94.87870  107.30778    1.19976    0.08336    0.02561    0.30728    0.33288    0.41625
 5242.50000    2.60556  150.56350   12.30576  949.41663   93.11258  107.31485    1.19976    0.08240    0.03444    0.41325    0.44768    0.53008
 5243.00000    2.59854  150.56350   12.30478  949.41663   94.68067  107.32191    1.19976    0.08262    0.02660    0.31916    0.34576    0.42838
 5243.50000    2.59147  150.56350   12.30421  949.41663   93.57599  107.32898    1.19976    0.08285    0.03212    0.38544    0.41756    0.50041
 5244.00000    2.60160  150.56350   12.30539  949.41663   94.68532  107.33605    1.19976    0.08252    0.02657    0.31888    0.34545    0.42798
 5244.50000    2.59736  150.56350   12.30515  949.41663   93.49172  107.34312    1.19976    0.08266    0.03254    0.39050    0.42304    0.50570
 5245.00000    2.58669  150.56350   12.30421  949.41663   94.28858  107.35018    1.19976    0.08300    0.02856    0.34269    0.37124    0.45424
 5245.50000    2.56239  150.56350   12.30502  949.41663   93.48757  107.35725    1.19976    0.08379    0.03256    0.39075    0.42331    0.50709
 5246.00000    2.55921  150.56350   12.30490  949.41663   93.88969  107.36432    1.19976    0.08389    0.03055    0.36662    0.39717    0.48106
 5246.50000    2.59861  150.56350   12.30564  949.41663   94.06564  107.37139    1.19976    0.08262    0.02967    0.35606    0.38573    0.46835
 5247.00000    2.64160  150.56350   12.30421  949.41663   94.92853  107.37846    1.19976    0.08127    0.02536    0.30429    0.32965    0.41092
 5247.50000    2.64508  150.56350   12.30453  949.41663   94.32439  107.38552    1.19976    0.08117    0.02838    0.34054    0.36891    0.45008
 5248.00000    2.63638  150.56350   12.30583  949.41663   92.90615  107.39259    1.19976    0.08143    0.03547    0.42563    0.46110    0.54253
 5248.50000    2.60223  150.56350   12.30421  949.41663   93.00247  107.39966    1.19976    0.08250    0.03499    0.41985    0.45484    0.53734
 5249.00000    2.66691  150.56350   12.30438  949.41663   95.06152  107.40673    1.19976    0.08050    0.02469    0.29631    0.32100    0.40150
 5249.50000    2.67935  150.56350   12.30603  949.41663   95.29277  107.41379    1.19976    0.08013    0.02354    0.28243    0.30597    0.38610
 5250.00000    2.60104  150.56350   12.30583  949.41663   93.95296  107.42086    1.19976    0.08254    0.03024    0.36282    0.39306    0.47560
 5250.50000    2.57657  150.56350   12.30463  949.41663   93.18734  107.42793    1.19976    0.08332    0.03406    0.40876    0.44282    0.52615
 5251.00000    2.58891  150.56350   12.30421  949.41663   92.55319  107.43500    1.19976    0.08293    0.03723    0.44681    0.48404    0.56697
 5251.50000    2.59982  150.56350   12.30554  949.41663   93.10939  107.44207    1.19976    0.08258    0.03445    0.41344    0.44789    0.53047
 5252.00000    2.64065  150.56350   12.30500  949.41663   92.13276  107.44913    1.19976    0.08130    0.03934    0.47203    0.51137    0.59267
 5252.50000    2.66993  150.56350   12.30421  949.41663   93.25271  107.45620    1.19976    0.08041    0.03374    0.40484    0.43857    0.51898
 5253.00000    2.67134  150.56350   12.30517  949.41663   93.16394  107.46327    1.19976    0.08037    0.03418    0.41016    0.44434    0.52471
 5253.50000    2.58392  150.56350   12.30537  949.41663   93.43478  107.47034    1.19976    0.08309    0.03283    0.39391    0.42674    0.50983
 5254.00000    2.69621  150.56350   12.30549  949.41663   94.77878  107.47740    1.19976    0.07963    0.02611    0.31327    0.33938    0.41901
