~Version
 VERS              .         2.0                           : CWLS LOG ASCII STANDARD - VERSION 2.0
 WRAP              .         NO                            : ONE LINE PER DEPTH STEP
 DLM               .         SPACE                         : DELIMITING CHARACTER(SPACE TAB OR COMMA)
~Well Information
#_______________________________________________________________________________
#
#PARAMETER_NAME    .UNIT     VALUE                         : DESCRIPTION
#_______________________________________________________________________________
STRT               .m        2400                          : First reference value
STOP               .m        5381.8                        : Last reference value
STEP               .m        0.2                           : Step increment
NULL               .         -9999                         : Missing value
COMP               .                                       : Company
WELL               .         1-ESS-86A-ES                  : Well name
FLD                .                                       : Field
LOC                .                                       : Location
CNTY               .                                       : County
STAT               .                                       : State
CTRY               .                                       : Country
SRVC               .                                       : Service Company
DATE               .                                       : Date
API                .                                       : API number
~Parameter Information Block
#_______________________________________________________________________________
#
#PARAMETER_NAME    .UNIT     VALUE                         : DESCRIPTION
#_______________________________________________________________________________
SET                .         AchillesBR                    : 
TLFamily_Densidade_Aparente_Seca .         Bulk Density                  : 
TLFamily_Fração_de_Areia .                                       : 
TLFamily_Idade__Ma_ .                                       : 
TLFamily_MD        .         Measured Depth                : 
TLFamily_Paleobatimetria_1 .                                       : 
TLFamily_Paleobatimetria_2 .                                       : 
TLFamily_Produtividade_Primária_1 .                                       : 
TLFamily_Produtividade_Primária_2 .                                       : 
TLFamily_Taxa_de_Sedimentação .                                       : 
~Curve Information
#_______________________________________________________________________________
#
#LOGNAME           .UNIT     LOG_ID                        : DESCRIPTION
#_______________________________________________________________________________
MD                 .m                                      :  
Densidade Aparente Seca .g/cm3                                  :  
Fração de Areia    .%                                      :  
Idade         .                                       : [Ma] 
Paleobatimetria_1  .m                                      :  
Paleobatimetria_2  .m                                      :  
Produtividade Primária_1 .                                       : [gC/m²/yr] 
Produtividade Primária_2 .                                       : [gC/m²/yr] 
Taxa de Sedimentação  .                                       : [cm/ka] 
~Ascii
# ...
3193.8     1.922478   67.20419   72.13619   649.2444   -9999      173.2367   -9999      8.963774  
3194       1.93986    67.3968    72.13842   648.0153   -9999      173.3579   -9999      8.963774  
3194.2     1.927917   65.36468   72.14066   646.7861   -9999      173.4795   -9999      8.963774  
3194.4     1.912257   64.54558   72.14288   645.5569   -9999      173.6013   -9999      8.963774  
3194.6     1.896556   65.90257   72.14512   644.3278   -9999      173.7235   -9999      8.963774  
3194.8     1.904622   68.74022   72.14735   643.0986   -9999      173.846    -9999      8.960587  
3195       1.908143   70.29593   72.14958   641.8694   -9999      173.9688   -9999      8.960587  
3195.2     1.91446    69.3521    72.15181   640.6403   -9999      174.0919   -9999      8.960587  
3195.4     1.910524   65.60159   72.15405   639.4111   -9999      174.2153   -9999      8.960587  
3195.6     1.85564    61.60564   72.15627   638.182    -9999      174.3391   -9999      8.960587  
3195.8     1.806855   57.50591   72.15851   636.9528   -9999      174.4632   -9999      8.963786  
3196       1.812795   56.3492    72.16074   635.7237   -9999      174.5876   -9999      8.963786  
3196.2     1.876535   57.36423   72.16297   634.4946   -9999      174.7124   -9999      8.963786  
3196.4     1.896162   58.99108   72.1652    633.2654   -9999      174.8375   -9999      8.963786  
3196.6     1.897807   61.91391   72.16743   632.0363   -9999      174.9629   -9999      8.963786  
3196.8     1.875042   62.76794   72.16966   630.8071   -9999      175.0887   -9999      8.963786  
3197       1.865203   63.66343   72.17189   629.5779   -9999      175.2148   -9999      8.963786  
3197.2     1.882758   65.33985   72.17413   628.3488   -9999      175.3412   -9999      8.963786  
3197.4     1.891535   66.49374   72.17635   627.1196   -9999      175.468    -9999      8.963786  
3197.6     1.880069   65.4241    72.17859   625.8905   -9999      175.5951   -9999      8.963786  
3197.8     1.88938    62.07381   72.18082   624.6614   -9999      175.7225   -9999      8.963774  
3198       1.872876   63.76511   72.18305   623.4322   -9999      175.8503   -9999      8.963774  
3198.2     1.857722   63.18512   72.18528   622.2031   -9999      175.9785   -9999      8.963774  
3198.4     1.893465   64.68369   72.18752   620.9739   -9999      176.107    -9999      8.963774  
3198.6     1.886616   63.73973   72.18974   619.7448   -9999      176.2358   -9999      8.963774  
3198.8     1.840717   63.99699   72.19198   618.5156   -9999      176.365    -9999      8.960587  
3199       1.85948    64.80421   72.19421   617.2864   -9999      176.4945   -9999      8.960587  
3199.2     1.883724   64.30334   72.19644   616.0573   -9999      176.6244   -9999      8.960587  
3199.4     1.891589   64.16251   72.19867   614.8281   -9999      176.7547   -9999      8.960587  
3199.6     1.889481   63.69617   72.2009    613.599    -9999      176.8853   -9999      8.960587  
3199.8     1.898398   64.43024   72.20313   612.3698   -9999      177.0163   -9999      8.963786  
3200       1.862667   64.81806   72.20536   611.1407   -9999      177.1476   -9999      8.963786  
3200.2     1.890982   66.35746   72.2076    609.9115   -9999      177.2793   -9999      8.963786  
3200.4     1.920988   63.77848   72.20982   608.6824   -9999      177.4113   -9999      8.963786  
3200.6     1.920047   61.61264   72.21206   607.4532   -9999      177.5437   -9999      8.963786  
3200.8     1.913364   58.50383   72.21429   606.2241   -9999      177.6765   -9999      8.963786  
3201       1.917501   57.42097   72.21652   604.9949   -9999      177.8097   -9999      8.963786  
3201.2     1.906905   57.90129   72.21875   603.7658   -9999      177.9432   -9999      8.963786  
3201.4     1.914472   58.0976    72.22099   602.5366   -9999      178.0771   -9999      8.963786  
3201.6     1.912744   59.25692   72.22321   601.3075   -9999      178.2114   -9999      8.963786  
3201.8     1.92196    63.48135   72.22545   600.0783   -9999      178.346    -9999      8.963774  
3202       1.918904   63.01672   72.22768   598.8492   -9999      178.481    -9999      8.963774  
3202.2     1.904743   64.55638   72.22991   597.6201   -9999      178.6165   -9999      8.963774  
3202.4     1.897819   63.06871   72.23214   596.3909   -9999      178.7522   -9999      8.963774  
3202.6     1.898754   64.5078    72.23438   595.1617   -9999      178.8884   -9999      8.963774  
3202.8     1.903225   66.37125   72.2366    593.9326   -9999      179.025    -9999      8.960587  
3203       1.896639   66.84967   72.23884   592.7034   -9999      179.1619   -9999      8.960587  
3203.2     1.900335   66.45821   72.24107   591.4742   -9999      179.2993   -9999      8.960587  
3203.4     1.910939   68.51473   72.2433    590.2451   -9999      179.437    -9999      8.960587  
3203.6     1.925154   70.62128   72.24553   589.0159   -9999      179.5751   -9999      8.960587  
3203.8     1.936536   74.08223   72.24786   587.7328   -9999      179.7197   -9999      8.025672  
3204       1.925042   73.9952    72.25035   586.36     -9999      179.8749   -9999      8.025672  
3204.2     1.889517   70.61666   72.25285   584.9871   -9999      180.0306   -9999      8.025672  
3204.4     1.901633   64.51946   72.25533   583.6143   -9999      180.1868   -9999      8.025672  
3204.6     1.912151   60.76339   72.25783   582.2414   -9999      180.3435   -9999      8.025672  
3204.8     1.908891   58.51757   72.26032   580.8685   -9999      180.5007   -9999      8.023117  
3205       1.911572   58.65826   72.26281   579.4956   -9999      180.6584   -9999      8.023117  
3205.2     1.912236   61.51527   72.2653    578.1227   -9999      180.8167   -9999      8.023117  
3205.4     1.914353   62.72961   72.2678    576.7499   -9999      180.9754   -9999      8.023117  
3205.6     1.927912   64.66991   72.27029   575.377    -9999      181.1347   -9999      8.023117  
3205.8     1.938074   63.32809   72.27278   574.0042   -9999      181.2945   -9999      8.025682  
3206       1.950144   64.12429   72.27528   572.6313   -9999      181.4548   -9999      8.025682  
3206.2     1.914057   63.86879   72.27776   571.2584   -9999      181.6156   -9999      8.025682  
3206.4     1.908813   65.45205   72.28026   569.8856   -9999      181.777    -9999      8.025672  
3206.6     1.938804   65.80255   72.28275   568.5127   -9999      181.9389   -9999      8.025672  
3206.8     1.94536    67.02101   72.28525   567.1398   -9999      182.1013   -9999      8.025672  
3207       1.930234   68.7646    72.28773   565.767    -9999      182.2643   -9999      8.025672  
3207.2     1.959261   70.75488   72.29023   564.3941   -9999      182.4278   -9999      8.025672  
3207.4     1.960243   67.89204   72.29272   563.0212   -9999      182.5919   -9999      8.023117  
3207.6     1.939191   64.17347   72.29521   561.6484   -9999      182.7565   -9999      8.023117  
3207.8     1.919144   61.04774   72.29771   560.2755   -9999      182.9216   -9999      8.023117  
3208       1.900371   59.89813   72.30019   558.9026   -9999      183.0874   -9999      8.023117  
3208.2     1.913817   61.78201   72.30269   557.5298   -9999      183.2536   -9999      8.023117  
3208.4     1.906932   64.75983   72.30518   556.1569   -9999      183.4205   -9999      8.025682  
3208.6     1.909146   65.80387   72.30767   554.7841   -9999      183.5879   -9999      8.025682  
3208.8     1.922764   67.92825   72.31017   553.4112   -9999      183.7558   -9999      8.025682  
3209       1.932244   67.95922   72.31266   552.0383   -9999      183.9244   -9999      8.025672  
3209.2     1.954363   68.47803   72.31515   550.6655   -9999      184.0935   -9999      8.025672  
3209.4     1.954598   66.53139   72.31764   549.2926   -9999      184.2632   -9999      8.025672  
3209.6     1.930354   65.60796   72.32014   547.9197   -9999      184.4335   -9999      8.025672  
3209.8     1.92907    65.61557   72.32262   546.5469   -9999      184.6043   -9999      8.025672  
