~Version
 VERS              .         2.0                           : CWLS LOG ASCII STANDARD - VERSION 2.0
 WRAP              .         NO                            : ONE LINE PER DEPTH STEP
 DLM               .         SPACE                         : DELIMITING CHARACTER(SPACE TAB OR COMMA)
~Well Information
#_______________________________________________________________________________
#
#PARAMETER_NAME    .UNIT     VALUE                         : DESCRIPTION
#_______________________________________________________________________________
STRT               .m        2400                          : First reference value
STOP               .m        5381.8                        : Last reference value
STEP               .m        0.2                           : Step increment
NULL               .         -9999                         : Missing value
COMP               .                                       : Company
WELL               .         1-ESS-86A-ES                  : Well name
FLD                .                                       : Field
LOC                .                                       : Location
CNTY               .                                       : County
STAT               .                                       : State
CTRY               .                                       : Country
SRVC               .                                       : Service Company
DATE               .                                       : Date
API                .                                       : API number
~Parameter Information Block
#_______________________________________________________________________________
#
#PARAMETER_NAME    .UNIT     VALUE                         : DESCRIPTION
#_______________________________________________________________________________
SET                .         AchillesBR                    : 
TLFamily_Densidade_Aparente_Seca .         Bulk Density                  : 
TLFamily_Fração_de_Areia .                                       : 
TLFamily_Idade__Ma_ .                                       : 
TLFamily_MD        .         Measured Depth                : 
TLFamily_Paleobatimetria_1 .                                       : 
TLFamily_Paleobatimetria_2 .                                       : 
TLFamily_Produtividade_Primária_1 .                                       : 
TLFamily_Produtividade_Primária_2 .                                       : 
TLFamily_Taxa_de_Sedimentação .                                       : 
~Curve Information
#_______________________________________________________________________________
#
#LOGNAME           .UNIT     LOG_ID                        : DESCRIPTION
#_______________________________________________________________________________
MD                 .m                                      :  
Densidade Aparente Seca .g/cm3                                  :  
Fração de Areia    .%                                      :  
Idade         .                                       : [Ma] 
Paleobatimetria_1  .m                                      :  
Paleobatimetria_2  .m                                      :  
Produtividade Primária_1 .                                       : [gC/m²/yr] 
Produtividade Primária_2 .                                       : [gC/m²/yr] 
Taxa de Sedimentação  .                                       : [cm/ka] 
~Ascii
# ...
2805       1.766728   42.40741   66.27776   760.9229   -9999      163.3792   -9999      8.716864  
2805.2     1.771779   41.41667   66.28006   760.3676   -9999      163.4232   -9999      8.71385   
2805.4     1.769044   48.18097   66.28236   759.8123   -9999      163.4673   -9999      8.71385   
2805.6     1.773843   50.30852   66.28465   759.257    -9999      163.5114   -9999      8.716876  
2805.8     1.784543   52.81392   66.28694   758.7017   -9999      163.5555   -9999      8.716876  
2806       1.768082   53.89757   66.28924   758.1465   -9999      163.5997   -9999      8.716864  
2806.2     1.73839    52.6459    66.29153   757.5912   -9999      163.644    -9999      8.716864  
2806.4     1.773046   51.72686   66.29382   757.0359   -9999      163.6883   -9999      8.71385   
2806.6     1.774112   52.41743   66.29612   756.4807   -9999      163.7326   -9999      8.71385   
2806.8     1.77735    53.73545   66.29842   755.9254   -9999      163.777    -9999      8.716876  
2807       1.751459   57.20738   66.30071   755.3701   -9999      163.8214   -9999      8.716876  
2807.2     1.726324   57.87345   66.303     754.8148   -9999      163.8659   -9999      8.716864  
2807.4     1.747179   58.9066    66.3053    754.2595   -9999      163.9104   -9999      8.716864  
2807.6     1.753205   57.83014   66.30759   753.7042   -9999      163.955    -9999      8.71385   
2807.8     1.753405   56.63582   66.30989   753.149    -9999      163.9996   -9999      8.716876  
2808       1.739081   56.32141   66.31218   752.5937   -9999      164.0443   -9999      8.716876  
2808.2     1.736625   59.44542   66.31448   752.0385   -9999      164.0889   -9999      8.716876  
2808.4     1.73268    59.25149   66.31677   751.4832   -9999      164.1337   -9999      8.716864  
2808.6     1.726159   57.71724   66.31907   750.9279   -9999      164.1785   -9999      8.71385   
2808.8     1.715023   55.94429   66.32136   750.3726   -9999      164.2233   -9999      8.71385   
2809       1.705376   56.06043   66.32365   749.8173   -9999      164.2682   -9999      8.716876  
2809.2     1.71426    57.56177   66.32595   749.262    -9999      164.3131   -9999      8.716876  
2809.4     1.727776   55.28638   66.32825   748.7068   -9999      164.3581   -9999      8.716876  
2809.6     1.732868   50.14989   66.33054   748.1515   -9999      164.4031   -9999      8.716864  
2809.8     1.743912   47.83736   66.33283   747.5962   -9999      164.4482   -9999      8.71385   
2810       1.770648   46.42245   66.33513   747.041    -9999      164.4933   -9999      8.71385   
2810.2     1.758274   51.35537   66.33743   746.4857   -9999      164.5384   -9999      8.716876  
2810.4     1.727464   51.98832   66.33972   745.9304   -9999      164.5836   -9999      8.716876  
2810.6     1.763051   52.0492    66.34201   745.3751   -9999      164.6289   -9999      8.716864  
2810.8     1.782805   49.5958    66.34431   744.8198   -9999      164.6741   -9999      8.716864  
2811       1.760956   51.91255   66.3466    744.2646   -9999      164.7195   -9999      8.71385   
2811.2     1.774288   53.80696   66.3489    743.7093   -9999      164.7649   -9999      8.716876  
2811.4     1.788603   50.68498   66.35119   743.154    -9999      164.8103   -9999      8.716876  
2811.6     1.787046   49.45057   66.35349   742.5988   -9999      164.8558   -9999      8.716876  
2811.8     1.816415   46.35371   66.35578   742.0435   -9999      164.9013   -9999      8.716864  
2812       1.801317   47.46263   66.35808   741.4882   -9999      164.9469   -9999      8.716864  
2812.2     1.783088   47.64104   66.36037   740.9329   -9999      164.9925   -9999      8.71385   
2812.4     1.770654   45.83503   66.36266   740.3776   -9999      165.0381   -9999      8.716876  
2812.6     1.770435   46.95158   66.36496   739.8224   -9999      165.0839   -9999      8.716876  
2812.8     1.776225   48.16457   66.36726   739.2671   -9999      165.1296   -9999      8.716876  
2813       1.781478   48.76211   66.36954   738.7118   -9999      165.1754   -9999      8.716864  
2813.2     1.779003   46.81778   66.37184   738.1565   -9999      165.2213   -9999      8.71385   
2813.4     1.78014    44.44315   66.37414   737.6013   -9999      165.2672   -9999      8.71385   
2813.6     1.769775   44.46063   66.37643   737.046    -9999      165.3131   -9999      8.716876  
2813.8     1.78368    46.70406   66.37873   736.4907   -9999      165.3591   -9999      8.716876  
2814       1.789699   49.51552   66.38102   735.9354   -9999      165.4052   -9999      8.716864  
2814.2     1.787834   49.16415   66.38332   735.3802   -9999      165.4512   -9999      8.716864  
2814.4     1.792515   48.79493   66.38561   734.8249   -9999      165.4974   -9999      8.71385   
2814.6     1.775125   48.76299   66.3879    734.2696   -9999      165.5436   -9999      8.716876  
2814.8     1.750401   49.24382   66.3902    733.7143   -9999      165.5898   -9999      8.716876  
2815       1.754178   47.22958   66.39249   733.1591   -9999      165.6361   -9999      8.716876  
2815.2     1.777008   41.59238   66.39479   732.6038   -9999      165.6824   -9999      8.716864  
2815.4     1.781113   42.05639   66.39709   732.0485   -9999      165.7288   -9999      8.716864  
2815.6     1.761144   45.21099   66.39938   731.4932   -9999      165.7752   -9999      8.71385   
2815.8     1.740831   49.24387   66.40167   730.9379   -9999      165.8217   -9999      8.716876  
2816       1.752722   47.88708   66.40397   730.3827   -9999      165.8682   -9999      8.716876  
2816.2     1.777823   47.64289   66.40627   729.8274   -9999      165.9148   -9999      8.716876  
2816.4     1.762833   48.16402   66.40855   729.2721   -9999      165.9614   -9999      8.716864  
2816.6     1.744562   49.97808   66.41085   728.7168   -9999      166.008    -9999      8.71385   
2816.8     1.754238   52.78234   66.41315   728.1616   -9999      166.0548   -9999      8.71385   
2817       1.755021   52.09695   66.41544   727.6063   -9999      166.1015   -9999      8.716876  
2817.2     1.75924    54.24065   66.41773   727.051    -9999      166.1483   -9999      8.716876  
2817.4     1.750578   54.12233   66.42003   726.4957   -9999      166.1952   -9999      8.716864  
2817.6     1.75266    55.33151   66.42233   725.9405   -9999      166.2421   -9999      8.716864  
2817.8     1.799389   52.63033   66.42462   725.3852   -9999      166.2891   -9999      8.71385   
2818       1.812888   50.6853    66.42691   724.8299   -9999      166.3361   -9999      8.71385   
2818.2     1.82189    52.58646   66.42921   724.2746   -9999      166.3831   -9999      8.716876  
2818.4     1.889487   54.74361   66.4315    723.7194   -9999      166.4302   -9999      8.716876  
2818.6     1.871255   52.84298   66.4338    723.1641   -9999      166.4774   -9999      8.716864  
2818.8     1.82919    49.04982   66.43609   722.6088   -9999      166.5246   -9999      8.716864  
2819       1.722672   43.30191   66.43839   722.0535   -9999      166.5719   -9999      8.71385   
2819.2     1.698083   41.09014   66.44068   721.4982   -9999      166.6192   -9999      8.716876  
2819.4     1.735226   39.1222    66.44298   720.943    -9999      166.6665   -9999      8.716876  
2819.6     1.762831   39.28903   66.44527   720.3877   -9999      166.7139   -9999      8.716876  
2819.8     1.748583   42.21526   66.44756   719.8324   -9999      166.7614   -9999      8.716864  
2820       1.730248   45.53236   66.44986   719.2771   -9999      166.8089   -9999      8.71385   
2820.2     1.728096   47.62596   66.45216   718.7219   -9999      166.8564   -9999      8.71385   
2820.4     1.765643   49.14926   66.45445   718.1666   -9999      166.9041   -9999      8.716876  
2820.6     1.778271   51.94373   66.45674   717.6113   -9999      166.9517   -9999      8.716876  
2820.8     1.768692   56.17826   66.45904   717.056    -9999      166.9994   -9999      8.716876  
2821       1.773064   62.61148   66.46133   716.5008   -9999      167.0472   -9999      8.716864  
