~Version
 VERS              .         2.0                           : CWLS LOG ASCII STANDARD - VERSION 2.0
 WRAP              .         NO                            : ONE LINE PER DEPTH STEP
 DLM               .         SPACE                         : DELIMITING CHARACTER(SPACE TAB OR COMMA)
~Well Information
#_______________________________________________________________________________
#
#PARAMETER_NAME    .UNIT     VALUE                         : DESCRIPTION
#_______________________________________________________________________________
STRT               .m        2400                          : First reference value
STOP               .m        5381.8                        : Last reference value
STEP               .m        0.2                           : Step increment
NULL               .         -9999                         : Missing value
COMP               .                                       : Company
WELL               .         1-ESS-86A-ES                  : Well name
FLD                .                                       : Field
LOC                .                                       : Location
CNTY               .                                       : County
STAT               .                                       : State
CTRY               .                                       : Country
SRVC               .                                       : Service Company
DATE               .                                       : Date
API                .                                       : API number
~Parameter Information Block
#_______________________________________________________________________________
#
#PARAMETER_NAME    .UNIT     VALUE                         : DESCRIPTION
#_______________________________________________________________________________
SET                .         AchillesBR                    : 
TLFamily_Densidade_Aparente_Seca .         Bulk Density                  : 
TLFamily_Fração_de_Areia .                                       : 
TLFamily_Idade__Ma_ .                                       : 
TLFamily_MD        .         Measured Depth                : 
TLFamily_Paleobatimetria_1 .                                       : 
TLFamily_Paleobatimetria_2 .                                       : 
TLFamily_Produtividade_Primária_1 .                                       : 
TLFamily_Produtividade_Primária_2 .                                       : 
TLFamily_Taxa_de_Sedimentação .                                       : 
~Curve Information
#_______________________________________________________________________________
#
#LOGNAME           .UNIT     LOG_ID                        : DESCRIPTION
#_______________________________________________________________________________
MD                 .m                                      :  
Densidade Aparente Seca .g/cm3                                  :  
Fração de Areia    .%                                      :  
Idade         .                                       : [Ma] 
Paleobatimetria_1  .m                                      :  
Paleobatimetria_2  .m                                      :  
Produtividade Primária_1 .                                       : [gC/m²/yr] 
Produtividade Primária_2 .                                       : [gC/m²/yr] 
Taxa de Sedimentação  .                                       : [cm/ka] 
~Ascii
2400.0     1.822233   87.98238   59.97823   1849.391   -9999      117.7165   -9999      7.308659  
2400.2     1.844949   90.16867   59.98096   1849.391   -9999      117.7165   -9999      7.308446  
2400.4     1.80196    90.42087   59.9837    1849.391   -9999      117.7165   -9999      7.308659  
2400.6     1.752311   89.75121   59.98644   1849.391   -9999      117.7165   -9999      7.308659  
2400.8     1.750906   89.83743   59.98917   1849.391   -9999      117.7165   -9999      7.308659  
2401       1.777878   91.43796   59.99191   1849.391   -9999      117.7165   -9999      7.308659  
2401.2     1.785419   92.07097   59.99465   1849.391   -9999      117.7165   -9999      7.308659  
2401.4     1.781466   91.83578   59.99738   1849.391   -9999      117.7165   -9999      7.308659  
2401.6     1.715767   90.00566   60.00012   1849.366   1849.366   117.7171   117.7171   7.308659  
2401.8     1.681094   88.3853    60.00286   1848.786   -9999      117.7307   -9999      7.308659  
2402       1.685314   89.54996   60.00559   1848.207   -9999      117.7443   -9999      7.308659  
2402.2     1.746533   91.81604   60.00833   1847.628   -9999      117.7579   -9999      7.308659  
2402.4     1.814921   94.51627   60.01107   1847.049   -9999      117.7716   -9999      7.308659  
2402.6     1.813709   92.87065   60.01381   1846.469   -9999      117.7852   -9999      7.308659  
2402.8     1.711086   89.57131   60.01654   1845.89    -9999      117.7989   -9999      7.308659  
2403       1.648711   87.85923   60.01928   1845.311   -9999      117.8125   -9999      7.308659  
2403.2     1.686693   88.72211   60.02201   1844.732   -9999      117.8262   -9999      7.308659  
2403.4     1.726735   90.96716   60.02475   1844.152   -9999      117.8398   -9999      7.308659  
2403.6     1.789218   91.28046   60.02748   1843.573   -9999      117.8535   -9999      7.308446  
2403.8     1.841911   89.5481    60.03022   1842.994   -9999      117.8671   -9999      7.308659  
2404       1.83451    87.77727   60.03296   1842.415   -9999      117.8808   -9999      7.308659  
2404.2     1.781435   86.89597   60.03569   1841.835   -9999      117.8945   -9999      7.308659  
2404.4     1.733201   87.10445   60.03843   1841.256   -9999      117.9082   -9999      7.308659  
2404.6     1.719293   88.2239    60.04117   1840.677   -9999      117.9219   -9999      7.308659  
2404.8     1.802273   88.40096   60.0439    1840.098   -9999      117.9356   -9999      7.308659  
2405       1.780865   88.28798   60.04664   1839.518   -9999      117.9493   -9999      7.308659  
2405.2     1.774096   88.16782   60.04938   1838.939   -9999      117.963    -9999      7.308659  
2405.4     1.8144     88.85605   60.05211   1838.36    -9999      117.9767   -9999      7.308659  
2405.6     1.870939   88.89621   60.05485   1837.781   -9999      117.9904   -9999      7.308659  
2405.8     1.864088   88.94254   60.05759   1837.201   -9999      118.0042   -9999      7.308659  
2406       1.823523   87.442     60.06033   1836.622   -9999      118.0179   -9999      7.308659  
2406.2     1.831705   87.36771   60.06306   1836.043   -9999      118.0317   -9999      7.308659  
2406.4     1.810653   86.84604   60.0658    1835.464   -9999      118.0454   -9999      7.308659  
2406.6     1.788321   86.0205    60.06853   1834.884   -9999      118.0592   -9999      7.308659  
2406.8     1.764584   84.63991   60.07127   1834.305   -9999      118.0729   -9999      7.308659  
2407       1.713774   83.83631   60.07401   1833.726   -9999      118.0867   -9999      7.308446  
2407.2     1.69143    85.43181   60.07674   1833.147   -9999      118.1005   -9999      7.308659  
2407.4     1.689593   87.02999   60.07948   1832.567   -9999      118.1142   -9999      7.308659  
2407.6     1.750615   88.90416   60.08221   1831.988   -9999      118.128    -9999      7.308446  
2407.8     1.757447   89.28275   60.08495   1831.409   -9999      118.1418   -9999      7.308659  
2408       1.759413   89.40052   60.08769   1830.83    -9999      118.1556   -9999      7.308659  
2408.2     1.755094   90.33015   60.09042   1830.25    -9999      118.1694   -9999      7.308659  
2408.4     1.793269   90.95139   60.09316   1829.671   -9999      118.1832   -9999      7.308659  
2408.6     1.777103   90.58845   60.0959    1829.092   -9999      118.197    -9999      7.308659  
2408.8     1.738812   90.48933   60.09884   1828.469   -9999      118.2119   -9999      6.518564  
2409       1.734675   89.30558   60.10191   1827.819   -9999      118.2274   -9999      6.518395  
2409.2     1.812401   88.11076   60.10498   1827.17    -9999      118.2429   -9999      6.518395  
2409.4     1.850398   87.96422   60.10805   1826.52    -9999      118.2584   -9999      6.518565  
2409.6     1.784757   86.62054   60.11111   1825.871   -9999      118.2739   -9999      6.518565  
2409.8     1.691733   86.88737   60.11418   1825.221   -9999      118.2895   -9999      6.518564  
2410       1.608973   85.96983   60.11725   1824.572   -9999      118.305    -9999      6.518564  
2410.2     1.625509   85.11159   60.12032   1823.922   -9999      118.3206   -9999      6.518395  
2410.4     1.652468   86.13238   60.12339   1823.273   -9999      118.3361   -9999      6.518565  
2410.6     1.757588   87.66407   60.12646   1822.624   -9999      118.3517   -9999      6.518565  
2410.8     1.771612   89.031     60.12952   1821.974   -9999      118.3672   -9999      6.518565  
2411       1.799      89.56431   60.13259   1821.325   -9999      118.3828   -9999      6.518564  
2411.2     1.826793   89.05417   60.13566   1820.675   -9999      118.3984   -9999      6.518395  
2411.4     1.824819   89.24297   60.13873   1820.026   -9999      118.414    -9999      6.518395  
2411.6     1.85097    88.03749   60.1418    1819.376   -9999      118.4296   -9999      6.518565  
2411.8     1.842716   87.09502   60.14486   1818.727   -9999      118.4452   -9999      6.518565  
2412       1.842087   86.54538   60.14793   1818.077   -9999      118.4608   -9999      6.518564  
2412.2     1.879479   87.70478   60.151     1817.428   -9999      118.4764   -9999      6.518564  
2412.4     1.897712   88.39304   60.15407   1816.778   -9999      118.4921   -9999      6.518395  
2412.6     1.852453   88.69701   60.15714   1816.129   -9999      118.5077   -9999      6.518565  
2412.8     1.770795   88.44082   60.16021   1815.479   -9999      118.5234   -9999      6.518565  
2413       1.722042   88.54548   60.16327   1814.83    -9999      118.539    -9999      6.518565  
2413.2     1.750257   88.78455   60.16634   1814.181   -9999      118.5547   -9999      6.518564  
2413.4     1.827735   87.88226   60.16941   1813.531   -9999      118.5704   -9999      6.518395  
2413.6     1.801498   85.44778   60.17248   1812.882   -9999      118.586    -9999      6.518395  
2413.8     1.803269   84.26954   60.17555   1812.232   -9999      118.6017   -9999      6.518565  
2414       1.788212   81.86881   60.17862   1811.583   -9999      118.6174   -9999      6.518565  
2414.2     1.749977   84.37787   60.18168   1810.933   -9999      118.6331   -9999      6.518564  
2414.4     1.768977   85.97093   60.18475   1810.284   -9999      118.6488   -9999      6.518564  
2414.6     1.751423   88.40225   60.18782   1809.634   -9999      118.6645   -9999      6.518395  
2414.8     1.808457   90.39821   60.19089   1808.985   -9999      118.6803   -9999      6.518565  
2415       1.822569   90.97541   60.19395   1808.335   -9999      118.696    -9999      6.518565  
2415.2     1.860162   93.07133   60.19703   1807.686   -9999      118.7117   -9999      6.518565  
2415.4     1.870386   92.62132   60.20009   1807.036   -9999      118.7275   -9999      6.518564  
2415.6     1.876535   92.4119    60.20316   1806.387   -9999      118.7432   -9999      6.518395  
2415.8     1.82861    90.72394   60.20623   1805.737   -9999      118.759    -9999      6.518395  
2416       1.777316   88.7524    60.2093    1805.088   -9999      118.7748   -9999      6.518565  
