~Version
 VERS              .         2.0                           : CWLS LOG ASCII STANDARD - VERSION 2.0
 WRAP              .         NO                            : ONE LINE PER DEPTH STEP
 DLM               .         SPACE                         : DELIMITING CHARACTER(SPACE TAB OR COMMA)
~Well Information
#_______________________________________________________________________________
#
#PARAMETER_NAME    .UNIT     VALUE                         : DESCRIPTION
#_______________________________________________________________________________
STRT               .m        2400                          : First reference value
STOP               .m        5381.8                        : Last reference value
STEP               .m        0.2                           : Step increment
NULL               .         -9999                         : Missing value
COMP               .                                       : Company
WELL               .         1-ESS-86A-ES                  : Well name
FLD                .                                       : Field
LOC                .                                       : Location
CNTY               .                                       : County
STAT               .                                       : State
CTRY               .                                       : Country
SRVC               .                                       : Service Company
DATE               .                                       : Date
API                .                                       : API number
~Parameter Information Block
#_______________________________________________________________________________
#
#PARAMETER_NAME    .UNIT     VALUE                         : DESCRIPTION
#_______________________________________________________________________________
SET                .         AchillesBR                    : 
TLFamily_Densidade_Aparente_Seca .         Bulk Density                  : 
TLFamily_Fração_de_Areia .                                       : 
TLFamily_Idade__Ma_ .                                       : 
TLFamily_MD        .         Measured Depth                : 
TLFamily_Paleobatimetria_1 .                                       : 
TLFamily_Paleobatimetria_2 .                                       : 
TLFamily_Produtividade_Primária_1 .                                       : 
TLFamily_Produtividade_Primária_2 .                                       : 
TLFamily_Taxa_de_Sedimentação .                                       : 
~Curve Information
#_______________________________________________________________________________
#
#LOGNAME           .UNIT     LOG_ID                        : DESCRIPTION
#_______________________________________________________________________________
MD                 .m                                      :  
Densidade Aparente Seca .g/cm3                                  :  
Fração de Areia    .%                                      :  
Idade         .                                       : [Ma] 
Paleobatimetria_1  .m                                      :  
Paleobatimetria_2  .m                                      :  
Produtividade Primária_1 .                                       : [gC/m²/yr] 
Produtividade Primária_2 .                                       : [gC/m²/yr] 
Taxa de Sedimentação  .                                       : [cm/ka] 
~Ascii
# ...
5369.4     2.650543   90.35113   104.7696   839.1977   -9999      157.58     -9999      10.16673  
5369.6     2.666222   89.21839   104.7716   839.616    -9999      157.551    -9999      10.16673  
5369.8     2.670917   86.04607   104.7736   840.0344   -9999      157.522    -9999      10.16673  
5370       2.658498   82.68287   104.7755   840.4528   -9999      157.4931   -9999      10.16673  
5370.200000000001 2.641931   80.22647   104.7775   840.8712   -9999      157.4641   -9999      10.16673  
5370.4     2.632368   77.44357   104.7795   841.2896   -9999      157.4352   -9999      10.16673  
5370.6     2.618745   70.94075   104.7814   841.7079   -9999      157.4063   -9999      10.16673  
5370.8     2.621337   72.19847   104.7834   842.1263   -9999      157.3775   -9999      10.16673  
5371       2.610371   77.97722   104.7854   842.5446   -9999      157.3486   -9999      10.16673  
5371.200000000001 2.63938    86.72428   104.7873   842.963    -9999      157.3198   -9999      10.16673  
5371.4     2.664236   91.46249   104.7893   843.3813   -9999      157.291    -9999      10.16672  
5371.6     2.675971   94.3034    104.7913   843.7997   -9999      157.2622   -9999      10.16673  
5371.8     2.679111   96.33468   104.7932   844.2181   -9999      157.2334   -9999      10.16673  
5372       2.686103   97.38394   104.7952   844.6365   -9999      157.2047   -9999      10.16673  
5372.200000000001 2.676683   96.48154   104.7972   845.0549   -9999      157.1759   -9999      10.16673  
5372.4     2.67694    95.0154    104.7991   845.4732   -9999      157.1472   -9999      10.16673  
5372.6     2.672481   92.89069   104.8011   845.8916   -9999      157.1185   -9999      10.16673  
5372.8     2.668018   91.59017   104.8031   846.3099   -9999      157.0899   -9999      10.16673  
5373       2.662078   91.80654   104.805    846.7283   -9999      157.0612   -9999      10.16673  
5373.200000000001 2.651516   91.88581   104.807    847.1467   -9999      157.0326   -9999      10.16673  
5373.4     2.642486   88.29158   104.809    847.5651   -9999      157.004    -9999      10.16673  
5373.6     2.659262   86.35094   104.8109   847.9835   -9999      156.9754   -9999      10.16673  
5373.8     2.677565   88.36746   104.8129   848.4018   -9999      156.9468   -9999      10.16673  
5374       2.678382   93.8239    104.8149   848.8202   -9999      156.9182   -9999      10.16673  
5374.200000000001 2.675822   99.00738   104.8168   849.2386   -9999      156.8897   -9999      10.16673  
5374.4     2.675505   99.77745   104.8188   849.6569   -9999      156.8612   -9999      10.16673  
5374.6     2.681995   96.47746   104.8208   850.0753   -9999      156.8327   -9999      10.16673  
5374.8     2.676841   92.13258   104.8227   850.4937   -9999      156.8042   -9999      10.16673  
5375       2.650807   88.36736   104.8247   850.912    -9999      156.7757   -9999      10.16673  
5375.200000000001 2.653531   87.98367   104.8267   851.3304   -9999      156.7473   -9999      10.16673  
5375.4     2.671182   88.27815   104.8286   851.7488   -9999      156.7189   -9999      10.16673  
5375.6     2.674808   86.52399   104.8306   852.1672   -9999      156.6905   -9999      10.16673  
5375.8     2.672749   83.44512   104.8326   852.5855   -9999      156.6621   -9999      10.16673  
5376       2.667805   82.49418   104.8345   853.0039   -9999      156.6337   -9999      10.16262  
5376.200000000001 2.657212   83.39406   104.8365   853.4223   -9999      156.6054   -9999      10.16673  
5376.4     2.660851   85.15757   104.8385   853.8406   -9999      156.577    -9999      10.16673  
5376.6     2.663452   85.53943   104.8404   854.259    -9999      156.5487   -9999      10.16673  
5376.8     2.657477   85.73096   104.8424   854.6774   -9999      156.5204   -9999      10.16673  
5377       2.662245   85.4062    104.8444   855.0958   -9999      156.4922   -9999      10.16673  
5377.200000000001 2.666408   84.4464    104.8464   855.5141   -9999      156.4639   -9999      10.16673  
5377.4     2.663603   83.68127   104.8483   855.9325   -9999      156.4357   -9999      10.16673  
5377.6     2.659733   83.26218   104.8503   856.3509   -9999      156.4075   -9999      10.16673  
5377.8     2.656456   82.72182   104.8522   856.7692   -9999      156.3793   -9999      10.16673  
5378       2.662872   83.37849   104.8542   857.1876   -9999      156.3511   -9999      10.16673  
5378.200000000001 2.667742   84.17376   104.8562   857.606    -9999      156.3229   -9999      10.16673  
5378.4     2.677117   85.33209   104.8582   858.0244   -9999      156.2948   -9999      10.16673  
5378.6     2.673597   86.32716   104.8601   858.4427   -9999      156.2667   -9999      10.16673  
5378.8     2.67768    86.3847    104.8621   858.8611   -9999      156.2386   -9999      10.16673  
5379       2.672343   86.86077   104.8641   859.2794   -9999      156.2105   -9999      10.16673  
5379.200000000001 2.661548   86.6731    104.866    859.6978   -9999      156.1824   -9999      10.16673  
5379.4     2.648781   86.57738   104.868    860.1162   -9999      156.1544   -9999      10.16673  
5379.6     2.65996    85.77305   104.87     860.5345   -9999      156.1264   -9999      10.16673  
5379.8     2.662641   85.26614   104.8719   860.9529   -9999      156.0984   -9999      10.16673  
5380       2.662948   85.75738   104.8739   861.3713   -9999      156.0704   -9999      10.16673  
5380.200000000001 2.652318   85.61217   104.8759   861.7897   -9999      156.0424   -9999      10.16673  
5380.4     2.651612   85.30557   104.8778   862.208    -9999      156.0145   -9999      10.16673  
5380.6     2.651573   85.05984   104.8798   862.6264   -9999      155.9865   -9999      10.16673  
5380.8     2.651303   85.40051   104.8818   863.0448   -9999      155.9586   -9999      10.16673  
5381       2.651383   86.24492   104.8837   863.4631   -9999      155.9307   -9999      10.16673  
5381.200000000001 2.655882   86.36481   104.8857   863.8815   -9999      155.9028   -9999      10.16673  
5381.4     2.65882    86.37124   104.8877   864.2999   -9999      155.875    -9999      10.16673  
5381.6     2.662363   86.12746   104.8896   864.7183   -9999      155.8471   -9999      10.16673  
5381.8     2.652173   86.16388   104.8916   865.1367   865.1367   155.8193   155.8193   10.16673  
