~Version
 VERS              .         2.0                           : CWLS LOG ASCII STANDARD - VERSION 2.0
 WRAP              .         NO                            : ONE LINE PER DEPTH STEP
 DLM               .         SPACE                         : DELIMITING CHARACTER(SPACE TAB OR COMMA)
~Well Information
#_______________________________________________________________________________
#
#PARAMETER_NAME    .UNIT     VALUE                         : DESCRIPTION
#_______________________________________________________________________________
STRT               .m        2400                          : First reference value
STOP               .m        5381.8                        : Last reference value
STEP               .m        0.2                           : Step increment
NULL               .         -9999                         : Missing value
COMP               .                                       : Company
WELL               .         1-ESS-86A-ES                  : Well name
FLD                .                                       : Field
LOC                .                                       : Location
CNTY               .                                       : County
STAT               .                                       : State
CTRY               .                                       : Country
SRVC               .                                       : Service Company
DATE               .                                       : Date
API                .                                       : API number
~Parameter Information Block
#_______________________________________________________________________________
#
#PARAMETER_NAME    .UNIT     VALUE                         : DESCRIPTION
#_______________________________________________________________________________
SET                .         AchillesBR                    : 
TLFamily_Densidade_Aparente_Seca .         Bulk Density                  : 
TLFamily_Fração_de_Areia .                                       : 
TLFamily_Idade__Ma_ .                                       : 
TLFamily_MD        .         Measured Depth                : 
TLFamily_Paleobatimetria_1 .                                       : 
TLFamily_Paleobatimetria_2 .                                       : 
TLFamily_Produtividade_Primária_1 .                                       : 
TLFamily_Produtividade_Primária_2 .                                       : 
TLFamily_Taxa_de_Sedimentação .                                       : 
~Curve Information
#_______________________________________________________________________________
#
#LOGNAME           .UNIT     LOG_ID                        : DESCRIPTION
#_______________________________________________________________________________
MD                 .m                                      :  
Densidade Aparente Seca .g/cm3                                  :  
Fração de Areia    .%                                      :  
Idade         .                                       : [Ma] 
Paleobatimetria_1  .m                                      :  
Paleobatimetria_2  .m                                      :  
Produtividade Primária_1 .                                       : [gC/m²/yr] 
Produtividade Primária_2 .                                       : [gC/m²/yr] 
Taxa de Sedimentação  .                                       : [cm/ka] 
~Ascii
# ...
4969.4     2.359499   30.96253   98.92412   812.1044   -9999      159.5004   -9999      6.012506  
4969.6     2.366141   25.29025   98.92744   812.9673   -9999      159.4378   -9999      6.012506  
4969.8     2.37082    27.8677    98.93077   813.8303   -9999      159.3754   -9999      6.012506  
4970       2.381848   37.57662   98.9341    814.6932   -9999      159.3131   -9999      6.011066  
4970.200000000001 2.379119   41.19904   98.93742   815.5561   -9999      159.2508   -9999      6.0125    
4970.4     2.36278    43.60534   98.94075   816.419    -9999      159.1887   -9999      6.012506  
4970.6     2.360725   35.44446   98.94408   817.282    -9999      159.1266   -9999      6.012506  
4970.8     2.338029   29.60173   98.9474    818.1449   -9999      159.0647   -9999      6.012506  
4971       2.337714   26.33322   98.95073   819.0079   -9999      159.0028   -9999      6.012506  
4971.200000000001 2.339919   26.63455   98.95406   819.8708   -9999      158.941    -9999      6.012506  
4971.4     2.338395   27.67486   98.95738   820.7337   -9999      158.8793   -9999      6.012506  
4971.6     2.340405   27.54493   98.96071   821.5967   -9999      158.8177   -9999      6.012506  
4971.8     2.309911   28.88552   98.96404   822.4596   -9999      158.7561   -9999      6.011066  
4972       2.316944   33.15665   98.96736   823.3225   -9999      158.6947   -9999      6.0125    
4972.200000000001 2.334751   33.10227   98.97069   824.1854   -9999      158.6334   -9999      6.012506  
4972.4     2.326517   31.79336   98.97401   825.0484   -9999      158.5721   -9999      6.012506  
4972.6     2.336324   34.72577   98.97733   825.9088   -9999      158.5111   -9999      6.16067   
4972.8     2.387369   41.78512   98.98058   826.7509   -9999      158.4515   -9999      6.16067   
4973       2.412605   46.18879   98.98383   827.5931   -9999      158.392    -9999      6.16067   
4973.200000000001 2.402463   45.30404   98.98707   828.4353   -9999      158.3325   -9999      6.16067   
4973.4     2.34591    35.41456   98.99032   829.2775   -9999      158.2731   -9999      6.16067   
4973.6     2.3307     31.84083   98.99356   830.1196   -9999      158.2138   -9999      6.16067   
4973.8     2.349538   27.3973    98.99681   830.9619   -9999      158.1546   -9999      6.16067   
4974       2.355975   26.04938   99.00005   831.821    831.821    158.0943   158.0943   6.16067   
4974.200000000001 2.340942   28.79146   99.0033    833.6508   -9999      157.9662   -9999      6.159159  
4974.4     2.340229   29.92014   99.00655   835.4804   -9999      157.8384   -9999      6.160664  
4974.6     2.346485   36.05826   99.0098    837.3101   -9999      157.711    -9999      6.160664  
4974.8     2.357105   37.99691   99.01304   839.1398   -9999      157.584    -9999      6.16067   
4975       2.362002   39.29332   99.01629   840.9695   -9999      157.4573   -9999      6.16067   
4975.200000000001 2.361279   42.20562   99.01953   842.7992   -9999      157.3311   -9999      6.16067   
4975.4     2.351664   43.46454   99.02278   844.6289   -9999      157.2052   -9999      6.16067   
4975.6     2.349496   44.56473   99.02603   846.4586   -9999      157.0797   -9999      6.16067   
4975.8     2.382035   46.29162   99.02927   848.2883   -9999      156.9545   -9999      6.16067   
4976       2.420829   46.44742   99.03252   850.118    -9999      156.8298   -9999      6.16067   
4976.200000000001 2.425169   50.01303   99.03577   851.9477   -9999      156.7054   -9999      6.16067   
4976.4     2.393524   47.71049   99.03902   853.7774   -9999      156.5813   -9999      6.16067   
4976.6     2.357021   44.41018   99.04226   855.6071   -9999      156.4576   -9999      6.16067   
4976.8     2.346943   37.77301   99.04551   857.4368   -9999      156.3343   -9999      6.16067   
4977       2.345555   33.06499   99.04875   859.2665   -9999      156.2114   -9999      6.159159  
4977.200000000001 2.354182   33.73881   99.052     861.0962   -9999      156.0888   -9999      6.159159  
4977.4     2.373966   35.88819   99.05524   862.9258   -9999      155.9665   -9999      6.160664  
4977.6     2.384626   38.50471   99.05849   864.7556   -9999      155.8447   -9999      6.16067   
4977.8     2.372813   40.91592   99.06174   866.5853   -9999      155.7231   -9999      6.16067   
4978       2.377388   40.84819   99.06499   868.4149   -9999      155.6019   -9999      6.16067   
4978.200000000001 2.376766   43.23429   99.06823   870.2446   -9999      155.4811   -9999      6.16067   
4978.4     2.377785   45.44938   99.07148   872.0743   -9999      155.3606   -9999      6.16067   
4978.6     2.364782   46.35371   99.07472   873.9041   -9999      155.2405   -9999      6.16067   
4978.8     2.352103   47.81457   99.07797   875.7338   -9999      155.1207   -9999      6.16067   
4979       2.356265   44.6089    99.08121   877.5634   -9999      155.0012   -9999      6.16067   
4979.200000000001 2.36078    42.49966   99.08447   879.3931   -9999      154.8821   -9999      6.16067   
4979.4     2.368633   41.40335   99.08771   881.2228   -9999      154.7633   -9999      6.16067   
4979.6     2.359728   40.27465   99.09096   883.0526   -9999      154.6449   -9999      6.16067   
4979.8     2.34714    38.83155   99.09421   884.8823   -9999      154.5268   -9999      6.159159  
4980       2.360014   35.90683   99.09745   886.7119   -9999      154.409    -9999      6.159159  
4980.200000000001 2.370008   35.6463    99.1007    888.5416   -9999      154.2916   -9999      6.160664  
4980.4     2.382122   38.69395   99.10394   890.3713   -9999      154.1745   -9999      6.16067   
4980.6     2.383258   42.2691    99.10719   892.201    -9999      154.0577   -9999      6.16067   
4980.8     2.380034   41.58158   99.11044   894.0307   -9999      153.9412   -9999      6.16067   
4981       2.370835   37.88015   99.11369   895.8604   -9999      153.8251   -9999      6.16067   
4981.200000000001 2.356918   35.34151   99.11693   897.6901   -9999      153.7093   -9999      6.16067   
4981.4     2.340088   35.16536   99.12018   899.5198   -9999      153.5938   -9999      6.16067   
4981.6     2.349144   38.67994   99.12342   901.3495   -9999      153.4787   -9999      6.16067   
4981.8     2.363161   46.05463   99.12667   903.1792   -9999      153.3638   -9999      6.16067   
4982       2.398302   52.4866    99.12991   905.0089   -9999      153.2493   -9999      6.16067   
4982.200000000001 2.44599    55.19353   99.13316   906.8386   -9999      153.1351   -9999      6.16067   
4982.4     2.442454   54.24507   99.13641   908.6683   -9999      153.0212   -9999      6.16067   
4982.6     2.425088   48.02393   99.13966   910.498    -9999      152.9077   -9999      6.159159  
4982.8     2.393789   42.23933   99.1429    912.3277   -9999      152.7944   -9999      6.159159  
4983       2.368874   38.35423   99.14615   914.1573   -9999      152.6815   -9999      6.160664  
4983.200000000001 2.359365   37.54609   99.1494    915.987    -9999      152.5688   -9999      6.160664  
4983.4     2.359039   34.97254   99.15264   917.8167   -9999      152.4565   -9999      6.16067   
4983.6     2.371613   33.93563   99.15589   919.6464   -9999      152.3445   -9999      6.16067   
4983.8     2.375646   33.9805    99.15913   921.4761   -9999      152.2327   -9999      6.16067   
4984       2.387033   33.65091   99.16238   923.3058   -9999      152.1213   -9999      6.16067   
4984.200000000001 2.388692   34.66485   99.16563   925.1355   -9999      152.0102   -9999      6.16067   
4984.4     2.395133   31.69739   99.16888   926.9652   -9999      151.8994   -9999      6.16067   
4984.6     2.38736    28.83859   99.17212   928.7949   -9999      151.7888   -9999      6.16067   
4984.8     2.374215   32.18314   99.17537   930.6246   -9999      151.6786   -9999      6.16067   
4985       2.357487   43.07394   99.17861   932.4543   -9999      151.5687   -9999      6.16067   
4985.200000000001 2.350102   54.00135   99.18186   934.284    -9999      151.4591   -9999      6.16067   
