~Version
 VERS              .         2.0                           : CWLS LOG ASCII STANDARD - VERSION 2.0
 WRAP              .         NO                            : ONE LINE PER DEPTH STEP
 DLM               .         SPACE                         : DELIMITING CHARACTER(SPACE TAB OR COMMA)
~Well Information
#_______________________________________________________________________________
#
#PARAMETER_NAME    .UNIT     VALUE                         : DESCRIPTION
#_______________________________________________________________________________
STRT               .m        2400                          : First reference value
STOP               .m        5381.8                        : Last reference value
STEP               .m        0.2                           : Step increment
NULL               .         -9999                         : Missing value
COMP               .                                       : Company
WELL               .         1-ESS-86A-ES                  : Well name
FLD                .                                       : Field
LOC                .                                       : Location
CNTY               .                                       : County
STAT               .                                       : State
CTRY               .                                       : Country
SRVC               .                                       : Service Company
DATE               .                                       : Date
API                .                                       : API number
~Parameter Information Block
#_______________________________________________________________________________
#
#PARAMETER_NAME    .UNIT     VALUE                         : DESCRIPTION
#_______________________________________________________________________________
SET                .         AchillesBR                    : 
TLFamily_Densidade_Aparente_Seca .         Bulk Density                  : 
TLFamily_Fração_de_Areia .                                       : 
TLFamily_Idade__Ma_ .                                       : 
TLFamily_MD        .         Measured Depth                : 
TLFamily_Paleobatimetria_1 .                                       : 
TLFamily_Paleobatimetria_2 .                                       : 
TLFamily_Produtividade_Primária_1 .                                       : 
TLFamily_Produtividade_Primária_2 .                                       : 
TLFamily_Taxa_de_Sedimentação .                                       : 
~Curve Information
#_______________________________________________________________________________
#
#LOGNAME           .UNIT     LOG_ID                        : DESCRIPTION
#_______________________________________________________________________________
MD                 .m                                      :  
Densidade Aparente Seca .g/cm3                                  :  
Fração de Areia    .%                                      :  
Idade         .                                       : [Ma] 
Paleobatimetria_1  .m                                      :  
Paleobatimetria_2  .m                                      :  
Produtividade Primária_1 .                                       : [gC/m²/yr] 
Produtividade Primária_2 .                                       : [gC/m²/yr] 
Taxa de Sedimentação  .                                       : [cm/ka] 
~Ascii
# ...
3793.2     2.188026   66.22462   81.12017   1269.101   -9999      135.2689   -9999      6.802714  
3793.4     2.202062   67.30463   81.12312   1267.918   -9999      135.3155   -9999      6.802714  
3793.6     2.211329   67.08366   81.12605   1266.735   -9999      135.3621   -9999      6.800878  
3793.8     2.216412   67.00488   81.129     1265.553   -9999      135.4088   -9999      6.802721  
3794       2.213351   68.44458   81.13194   1264.37    -9999      135.4555   -9999      6.802721  
3794.2     2.224572   69.58548   81.13487   1263.188   -9999      135.5023   -9999      6.802721  
3794.4     2.230424   68.0492    81.13782   1262.005   -9999      135.5491   -9999      6.802721  
3794.6     2.222833   65.64793   81.14075   1260.822   -9999      135.5961   -9999      6.802721  
3794.8     2.217269   65.18924   81.14369   1259.64    -9999      135.6431   -9999      6.802721  
3795       2.227416   65.60545   81.14664   1258.457   -9999      135.6901   -9999      6.802721  
3795.2     2.234497   69.74273   81.14957   1257.274   -9999      135.7372   -9999      6.802721  
3795.4     2.23682    69.74104   81.15251   1256.092   -9999      135.7843   -9999      6.802714  
3795.6     2.261525   69.07769   81.15546   1254.909   -9999      135.8316   -9999      6.802714  
3795.8     2.278362   69.33261   81.15833   1253.755   -9999      135.8777   -9999      7.153084  
3796       2.259567   66.46245   81.16112   1252.631   -9999      135.9227   -9999      7.153084  
3796.2     2.23548    62.86385   81.16391   1251.506   -9999      135.9677   -9999      7.153084  
3796.4     2.220332   61.51727   81.16671   1250.382   -9999      136.0129   -9999      7.155123  
3796.6     2.234212   62.48847   81.1695    1249.258   -9999      136.058    -9999      7.155123  
3796.8     2.239023   66.39429   81.1723    1248.133   -9999      136.1033   -9999      7.155115  
3797       2.216002   68.59613   81.17509   1247.009   -9999      136.1486   -9999      7.155115  
3797.2     2.212975   69.6544    81.17789   1245.884   -9999      136.1939   -9999      7.153084  
3797.4     2.198391   68.93391   81.18069   1244.76    -9999      136.2393   -9999      7.153084  
3797.6     2.19292    70.32329   81.18348   1243.635   -9999      136.2848   -9999      7.153084  
3797.8     2.197097   67.89793   81.18628   1242.511   -9999      136.3303   -9999      7.155123  
3798       2.211505   66.83978   81.18907   1241.386   -9999      136.3758   -9999      7.155123  
3798.2     2.2322     68.01058   81.19187   1240.262   -9999      136.4215   -9999      7.155115  
3798.4     2.22976    71.71925   81.19466   1239.137   -9999      136.4671   -9999      7.155115  
3798.6     2.192885   71.72486   81.19746   1238.013   -9999      136.5129   -9999      7.155115  
3798.8     2.186738   69.47999   81.20026   1236.888   -9999      136.5587   -9999      7.153084  
3799       2.194807   61.47898   81.20305   1235.764   -9999      136.6045   -9999      7.153084  
3799.2     2.195509   52.84768   81.20585   1234.639   -9999      136.6504   -9999      7.153084  
3799.4     2.18889    51.38528   81.20864   1233.515   -9999      136.6964   -9999      7.155123  
3799.6     2.201171   47.05956   81.21143   1232.39    -9999      136.7424   -9999      7.155123  
3799.8     2.203394   51.3563    81.21423   1231.266   -9999      136.7885   -9999      7.155115  
3800       2.20519    57.06348   81.21703   1230.141   -9999      136.8347   -9999      7.155115  
3800.2     2.213927   63.27712   81.21983   1229.017   -9999      136.8809   -9999      7.153084  
3800.4     2.212539   67.05655   81.22262   1227.892   -9999      136.9271   -9999      7.153084  
3800.6     2.207159   70.03603   81.22542   1226.768   -9999      136.9734   -9999      7.153084  
3800.8     2.225959   69.4323    81.22821   1225.643   -9999      137.0198   -9999      7.155123  
3801       2.251727   70.2486    81.231     1224.519   -9999      137.0662   -9999      7.155123  
3801.2     2.249837   67.34248   81.2338    1223.394   -9999      137.1127   -9999      7.155115  
3801.4     2.224324   64.8148    81.2366    1222.27    -9999      137.1593   -9999      7.155115  
3801.6     2.191281   64.93777   81.2394    1221.145   -9999      137.2059   -9999      7.155115  
3801.8     2.218089   67.78053   81.24219   1220.021   -9999      137.2525   -9999      7.153084  
3802       2.227263   65.83214   81.24498   1218.896   -9999      137.2993   -9999      7.153084  
3802.2     2.21802    65.48251   81.24778   1217.772   -9999      137.346    -9999      7.153084  
3802.4     2.209266   62.35143   81.25057   1216.647   -9999      137.3929   -9999      7.155123  
3802.6     2.201625   59.73532   81.25337   1215.523   -9999      137.4398   -9999      7.155115  
3802.8     2.20644    64.53324   81.25616   1214.399   -9999      137.4867   -9999      7.155115  
3803       2.209932   67.08835   81.25896   1213.274   -9999      137.5338   -9999      7.155115  
3803.2     2.210075   71.6038    81.26176   1212.15    -9999      137.5808   -9999      7.153084  
3803.4     2.205036   73.33364   81.26455   1211.025   -9999      137.628    -9999      7.153084  
3803.6     2.199646   73.57667   81.26735   1209.901   -9999      137.6752   -9999      7.153084  
3803.8     2.192131   73.51038   81.27014   1208.776   -9999      137.7224   -9999      7.155123  
3804       2.189455   75.33611   81.27294   1207.652   -9999      137.7697   -9999      7.155123  
3804.2     2.191003   73.787     81.27573   1206.527   -9999      137.8171   -9999      7.155115  
3804.4     2.181732   72.76085   81.27853   1205.403   -9999      137.8646   -9999      7.155115  
3804.6     2.184463   71.19814   81.28133   1204.278   -9999      137.9121   -9999      7.155115  
3804.8     2.165029   73.43375   81.28412   1203.154   -9999      137.9596   -9999      7.153084  
3805       2.153836   73.18841   81.28692   1202.029   -9999      138.0072   -9999      7.153084  
3805.2     2.17595    73.24178   81.28971   1200.905   -9999      138.0549   -9999      7.153084  
3805.4     2.174832   69.80984   81.2925    1199.78    -9999      138.1027   -9999      7.155123  
3805.6     2.162066   68.31663   81.2953    1198.656   -9999      138.1505   -9999      7.155115  
3805.8     2.168802   65.49221   81.2981    1197.531   -9999      138.1983   -9999      7.155115  
3806       2.162342   64.81213   81.3009    1196.407   -9999      138.2463   -9999      7.155115  
3806.2     2.182804   67.06352   81.30369   1195.282   -9999      138.2943   -9999      7.153084  
3806.4     2.178704   68.57076   81.30648   1194.158   -9999      138.3423   -9999      7.153084  
3806.6     2.174432   72.46129   81.30928   1193.033   -9999      138.3904   -9999      7.153084  
3806.8     2.193762   72.35167   81.31207   1191.909   -9999      138.4386   -9999      7.155123  
3807       2.220427   72.2709    81.31487   1190.784   -9999      138.4869   -9999      7.155123  
3807.2     2.209247   72.53179   81.31767   1189.66    -9999      138.5352   -9999      7.155115  
3807.4     2.203192   71.87635   81.32047   1188.535   -9999      138.5835   -9999      7.155115  
3807.6     2.194877   71.99873   81.32326   1187.411   -9999      138.6319   -9999      7.155115  
3807.8     2.188958   67.67576   81.32605   1186.286   -9999      138.6804   -9999      7.153084  
3808       2.190309   63.65942   81.32885   1185.162   -9999      138.729    -9999      7.153084  
3808.2     2.19682    59.88771   81.33164   1184.037   -9999      138.7776   -9999      7.153084  
3808.4     2.198967   61.30317   81.33444   1182.913   -9999      138.8263   -9999      7.155123  
3808.6     2.207326   66.02752   81.33723   1181.788   -9999      138.875    -9999      7.155115  
3808.8     2.211268   67.5983    81.34003   1180.664   -9999      138.9238   -9999      7.155115  
3809       2.210801   68.24079   81.34283   1179.54    -9999      138.9727   -9999      7.155115  
3809.2     2.211771   67.26287   81.34562   1178.415   -9999      139.0216   -9999      7.153084  
