~Version
 VERS              .         2.0                           : CWLS LOG ASCII STANDARD - VERSION 2.0
 WRAP              .         NO                            : ONE LINE PER DEPTH STEP
 DLM               .         SPACE                         : DELIMITING CHARACTER(SPACE TAB OR COMMA)
~Well Information
#_______________________________________________________________________________
#
#PARAMETER_NAME    .UNIT     VALUE                         : DESCRIPTION
#_______________________________________________________________________________
STRT               .m        2400                          : First reference value
STOP               .m        5381.8                        : Last reference value
STEP               .m        0.2                           : Step increment
NULL               .         -9999                         : Missing value
COMP               .                                       : Company
WELL               .         1-ESS-86A-ES                  : Well name
FLD                .                                       : Field
LOC                .                                       : Location
CNTY               .                                       : County
STAT               .                                       : State
CTRY               .                                       : Country
SRVC               .                                       : Service Company
DATE               .                                       : Date
API                .                                       : API number
~Parameter Information Block
#_______________________________________________________________________________
#
#PARAMETER_NAME    .UNIT     VALUE                         : DESCRIPTION
#_______________________________________________________________________________
SET                .         AchillesBR                    : 
TLFamily_Densidade_Aparente_Seca .         Bulk Density                  : 
TLFamily_Fração_de_Areia .                                       : 
TLFamily_Idade__Ma_ .                                       : 
TLFamily_MD        .         Measured Depth                : 
TLFamily_Paleobatimetria_1 .                                       : 
TLFamily_Paleobatimetria_2 .                                       : 
TLFamily_Produtividade_Primária_1 .                                       : 
TLFamily_Produtividade_Primária_2 .                                       : 
TLFamily_Taxa_de_Sedimentação .                                       : 
~Curve Information
#_______________________________________________________________________________
#
#LOGNAME           .UNIT     LOG_ID                        : DESCRIPTION
#_______________________________________________________________________________
MD                 .m                                      :  
Densidade Aparente Seca .g/cm3                                  :  
Fração de Areia    .%                                      :  
Idade         .                                       : [Ma] 
Paleobatimetria_1  .m                                      :  
Paleobatimetria_2  .m                                      :  
Produtividade Primária_1 .                                       : [gC/m²/yr] 
Produtividade Primária_2 .                                       : [gC/m²/yr] 
Taxa de Sedimentação  .                                       : [cm/ka] 
~Ascii
# ...
3598.8     2.146082   60.92459   77.99135   530.2137   -9999      186.6833   -9999      7.221268  
3599       2.141949   61.2715    77.99412   531.2281   -9999      186.5516   -9999      7.223338  
3599.2     2.165245   60.49869   77.99689   532.2425   -9999      186.4203   -9999      7.223338  
3599.4     2.158035   58.89573   77.99966   533.2569   533.2569   186.2893   186.2893   7.221268  
3599.6     2.146092   62.57093   78.00243   533.4632   -9999      186.2627   -9999      7.22126   
3599.8     2.139173   63.8673    78.0052    533.5546   -9999      186.251    -9999      7.223338  
3600       2.150423   61.95832   78.00797   533.6459   -9999      186.2392   -9999      7.221268  
3600.2     2.15209    56.90644   78.01073   533.7374   -9999      186.2274   -9999      7.221268  
3600.4     2.16195    53.77536   78.0135    533.8287   -9999      186.2157   -9999      7.223338  
3600.6     2.156831   53.91081   78.01627   533.9201   -9999      186.2039   -9999      7.221268  
3600.8     2.143589   58.6027    78.01904   534.0115   -9999      186.1921   -9999      7.221268  
3601       2.132593   59.63644   78.02181   534.1028   -9999      186.1804   -9999      7.223338  
3601.2     2.137759   59.7394    78.02457   534.1943   -9999      186.1686   -9999      7.223338  
3601.4     2.121383   57.30432   78.02735   534.2856   -9999      186.1569   -9999      7.221268  
3601.6     2.116338   58.63335   78.03011   534.377    -9999      186.1451   -9999      7.223338  
3601.8     2.128128   60.55409   78.03288   534.4684   -9999      186.1334   -9999      7.223338  
3602       2.12891    63.05343   78.03565   534.5598   -9999      186.1216   -9999      7.221268  
3602.2     2.166501   62.83624   78.03842   534.6512   -9999      186.1099   -9999      7.22126   
3602.4     2.188196   57.974     78.04119   534.7426   -9999      186.0981   -9999      7.223338  
3602.6     2.155014   58.42527   78.04396   534.8339   -9999      186.0864   -9999      7.221268  
3602.8     2.14087    59.8877    78.04673   534.9254   -9999      186.0747   -9999      7.221268  
3603       2.124628   65.05188   78.0495    535.0167   -9999      186.0629   -9999      7.223338  
3603.2     2.124352   67.17891   78.05227   535.1081   -9999      186.0512   -9999      7.221268  
3603.4     2.1371     67.82987   78.05504   535.1995   -9999      186.0395   -9999      7.221268  
3603.6     2.128722   68.94129   78.05781   535.2909   -9999      186.0277   -9999      7.223338  
3603.8     2.127692   69.15984   78.06058   535.3823   -9999      186.016    -9999      7.223338  
3604       2.154702   68.19397   78.06335   535.4736   -9999      186.0043   -9999      7.221268  
3604.2     2.162456   65.43747   78.06612   535.565    -9999      185.9926   -9999      7.223338  
3604.4     2.13975    60.43374   78.06889   535.6564   -9999      185.9809   -9999      7.223338  
3604.6     2.140576   60.88608   78.07166   535.7478   -9999      185.9692   -9999      7.221268  
3604.8     2.177022   60.4443    78.07442   535.8392   -9999      185.9575   -9999      7.22126   
3605       2.168234   60.56844   78.07719   535.9305   -9999      185.9458   -9999      7.223338  
3605.2     2.167513   61.29918   78.07996   536.022    -9999      185.9341   -9999      7.221268  
3605.4     2.153886   62.86382   78.08273   536.1133   -9999      185.9223   -9999      7.221268  
3605.6     2.146723   66.5982    78.0855    536.2047   -9999      185.9107   -9999      7.223338  
3605.8     2.173277   70.3314    78.08827   536.2961   -9999      185.899    -9999      7.221268  
3606       2.181936   71.62866   78.09104   536.3875   -9999      185.8873   -9999      7.221268  
3606.2     2.165381   71.23403   78.09381   536.4789   -9999      185.8756   -9999      7.223338  
3606.4     2.156883   65.59739   78.09658   536.5703   -9999      185.8639   -9999      7.223338  
3606.6     2.145095   64.48781   78.09935   536.6616   -9999      185.8522   -9999      7.221268  
3606.8     2.15953    62.27872   78.10212   536.753    -9999      185.8405   -9999      7.223338  
3607       2.174102   66.73997   78.10489   536.8444   -9999      185.8289   -9999      7.223338  
3607.2     2.176699   68.59789   78.10766   536.9358   -9999      185.8172   -9999      7.221268  
3607.4     2.171386   66.33098   78.11042   537.0272   -9999      185.8055   -9999      7.22126   
3607.6     2.162904   67.35416   78.1132    537.1185   -9999      185.7939   -9999      7.223338  
3607.8     2.171604   67.59167   78.11597   537.21     -9999      185.7822   -9999      7.221268  
3608       2.157297   68.86714   78.11873   537.3013   -9999      185.7705   -9999      7.221268  
3608.2     2.130446   66.43195   78.1215    537.3927   -9999      185.7589   -9999      7.223338  
3608.4     2.125481   63.7136    78.12427   537.4841   -9999      185.7472   -9999      7.221268  
3608.6     2.131894   64.05938   78.12704   537.5755   -9999      185.7355   -9999      7.221268  
3608.8     2.1461     68.37306   78.12981   537.6669   -9999      185.7239   -9999      7.223338  
3609       2.151565   70.83145   78.13258   537.7582   -9999      185.7122   -9999      7.223338  
3609.2     2.149639   68.09777   78.13535   537.8496   -9999      185.7006   -9999      7.221268  
3609.4     2.153289   67.95237   78.13811   537.941    -9999      185.6889   -9999      7.223338  
3609.6     2.148709   64.8686    78.14088   538.0324   -9999      185.6773   -9999      7.223338  
3609.8     2.13658    64.86228   78.14365   538.1238   -9999      185.6657   -9999      7.221268  
3610       2.140264   65.10118   78.14642   538.2151   -9999      185.654    -9999      7.22126   
3610.2     2.159268   62.85523   78.14919   538.3065   -9999      185.6424   -9999      7.223338  
3610.4     2.165375   61.44856   78.15196   538.3979   -9999      185.6308   -9999      7.221268  
3610.6     2.156032   56.17616   78.15473   538.4893   -9999      185.6191   -9999      7.221268  
3610.8     2.138662   54.78672   78.1575    538.5807   -9999      185.6075   -9999      7.223338  
3611       2.14508    56.43639   78.16027   538.6721   -9999      185.5959   -9999      7.221268  
3611.2     2.145172   60.51508   78.16304   538.7635   -9999      185.5843   -9999      7.221268  
3611.4     2.132317   64.72017   78.16581   538.8549   -9999      185.5726   -9999      7.223338  
3611.6     2.141457   66.86273   78.16858   538.9462   -9999      185.561    -9999      7.223338  
3611.8     2.141328   70.37151   78.17135   539.0376   -9999      185.5494   -9999      7.221268  
3612       2.148448   68.09659   78.17412   539.129    -9999      185.5378   -9999      7.223338  
3612.2     2.156824   65.57973   78.17689   539.2204   -9999      185.5262   -9999      7.223338  
3612.4     2.15852    63.2032    78.17966   539.3118   -9999      185.5146   -9999      7.221268  
3612.6     2.158489   62.17916   78.18243   539.4031   -9999      185.503    -9999      7.22126   
3612.8     2.165491   65.98151   78.1852    539.4945   -9999      185.4914   -9999      7.223338  
3613       2.169417   69.0881    78.18797   539.5859   -9999      185.4798   -9999      7.221268  
3613.2     2.179436   67.83777   78.19073   539.6773   -9999      185.4682   -9999      7.221268  
3613.4     2.194158   66.19987   78.1935    539.7687   -9999      185.4566   -9999      7.223338  
3613.6     2.19038    60.78775   78.19627   539.86     -9999      185.445    -9999      7.221268  
3613.8     2.190479   57.71024   78.19904   539.9515   -9999      185.4335   -9999      7.221268  
3614       2.181926   59.43321   78.20181   540.0428   -9999      185.4219   -9999      7.223338  
3614.2     2.155611   60.66511   78.20457   540.1342   -9999      185.4103   -9999      7.223338  
3614.4     2.166461   61.94486   78.20735   540.2256   -9999      185.3987   -9999      7.221268  
3614.6     2.17605    63.64942   78.21011   540.317    -9999      185.3871   -9999      7.223338  
3614.8     2.157066   61.25471   78.21288   540.4084   -9999      185.3756   -9999      7.223338  
