~Version
 VERS              .         2.0                           : CWLS LOG ASCII STANDARD - VERSION 2.0
 WRAP              .         NO                            : ONE LINE PER DEPTH STEP
 DLM               .         SPACE                         : DELIMITING CHARACTER(SPACE TAB OR COMMA)
~Well Information
#_______________________________________________________________________________
#
#PARAMETER_NAME    .UNIT     VALUE                         : DESCRIPTION
#_______________________________________________________________________________
STRT               .m        2400                          : First reference value
STOP               .m        5381.8                        : Last reference value
STEP               .m        0.2                           : Step increment
NULL               .         -9999                         : Missing value
COMP               .                                       : Company
WELL               .         1-ESS-86A-ES                  : Well name
FLD                .                                       : Field
LOC                .                                       : Location
CNTY               .                                       : County
STAT               .                                       : State
CTRY               .                                       : Country
SRVC               .                                       : Service Company
DATE               .                                       : Date
API                .                                       : API number
~Parameter Information Block
#_______________________________________________________________________________
#
#PARAMETER_NAME    .UNIT     VALUE                         : DESCRIPTION
#_______________________________________________________________________________
SET                .         AchillesBR                    : 
TLFamily_Densidade_Aparente_Seca .         Bulk Density                  : 
TLFamily_Fração_de_Areia .                                       : 
TLFamily_Idade__Ma_ .                                       : 
TLFamily_MD        .         Measured Depth                : 
TLFamily_Paleobatimetria_1 .                                       : 
TLFamily_Paleobatimetria_2 .                                       : 
TLFamily_Produtividade_Primária_1 .                                       : 
TLFamily_Produtividade_Primária_2 .                                       : 
TLFamily_Taxa_de_Sedimentação .                                       : 
~Curve Information
#_______________________________________________________________________________
#
#LOGNAME           .UNIT     LOG_ID                        : DESCRIPTION
#_______________________________________________________________________________
MD                 .m                                      :  
Densidade Aparente Seca .g/cm3                                  :  
Fração de Areia    .%                                      :  
Idade         .                                       : [Ma] 
Paleobatimetria_1  .m                                      :  
Paleobatimetria_2  .m                                      :  
Produtividade Primária_1 .                                       : [gC/m²/yr] 
Produtividade Primária_2 .                                       : [gC/m²/yr] 
Taxa de Sedimentação  .                                       : [cm/ka] 
~Ascii
# ...
4585.4     2.35912    65.28103   93.34682   522.8917   -9999      187.6439   -9999      6.580679  
4585.6     2.363475   65.32751   93.34985   523.4111   -9999      187.5752   -9999      6.580679  
4585.8     2.357982   61.03185   93.3529    523.9304   -9999      187.5065   -9999      6.580679  
4586       2.333067   55.29467   93.35593   524.4498   -9999      187.438    -9999      6.580679  
4586.200000000001 2.326547   48.74327   93.35897   524.9692   -9999      187.3695   -9999      6.580679  
4586.4     2.334064   46.25194   93.36201   525.4885   -9999      187.3011   -9999      6.580679  
4586.6     2.341914   44.39102   93.36505   526.0079   -9999      187.2328   -9999      6.580679  
4586.8     2.369064   46.8773    93.3681    526.5273   -9999      187.1646   -9999      6.580679  
4587       2.422944   51.25998   93.37113   527.0467   -9999      187.0965   -9999      6.580679  
4587.200000000001 2.409707   51.32837   93.37417   527.566    -9999      187.0285   -9999      6.580679  
4587.4     2.362181   53.08711   93.37721   528.0854   -9999      186.9606   -9999      6.580679  
4587.6     2.357695   55.4397    93.38025   528.6048   -9999      186.8928   -9999      6.580679  
4587.8     2.358727   60.40665   93.38329   529.1242   -9999      186.8251   -9999      6.580679  
4588       2.348611   63.35006   93.38633   529.6436   -9999      186.7574   -9999      6.580679  
4588.200000000001 2.338332   63.60952   93.38937   530.1629   -9999      186.6899   -9999      6.580679  
4588.4     2.335458   62.02447   93.39241   530.6823   -9999      186.6224   -9999      6.580679  
4588.6     2.313465   57.25167   93.39545   531.2017   -9999      186.555    -9999      6.580679  
4588.8     2.317515   52.39382   93.39848   531.7211   -9999      186.4878   -9999      6.580679  
4589       2.323472   49.39545   93.40153   532.2404   -9999      186.4206   -9999      6.580679  
4589.200000000001 2.309139   51.37121   93.40456   532.7598   -9999      186.3535   -9999      6.580679  
4589.4     2.310808   59.07838   93.40761   533.2792   -9999      186.2865   -9999      6.580679  
4589.6     2.348578   61.9273    93.41064   533.7985   -9999      186.2195   -9999      6.580679  
4589.8     2.365003   62.20636   93.41368   534.3179   -9999      186.1527   -9999      6.580679  
4590       2.372791   61.74741   93.41673   534.8373   -9999      186.086    -9999      6.580679  
4590.200000000001 2.375094   64.28458   93.41976   535.3567   -9999      186.0193   -9999      6.580679  
4590.4     2.383395   67.13609   93.42281   535.876    -9999      185.9527   -9999      6.580679  
4590.6     2.374068   69.73993   93.42584   536.3954   -9999      185.8863   -9999      6.580679  
4590.8     2.37485    71.54569   93.42888   536.9148   -9999      185.8199   -9999      6.580679  
4591       2.374371   73.5865    93.43192   537.4342   -9999      185.7536   -9999      6.580679  
4591.200000000001 2.386639   74.9965    93.43496   537.9536   -9999      185.6873   -9999      6.580679  
4591.4     2.388358   74.11901   93.438     538.4729   -9999      185.6212   -9999      6.580679  
4591.6     2.383472   71.86978   93.44104   538.9923   -9999      185.5552   -9999      6.580679  
4591.8     2.394638   69.70438   93.44408   539.5117   -9999      185.4892   -9999      6.580679  
4592       2.392814   68.1735    93.44712   540.0311   -9999      185.4234   -9999      6.580679  
4592.200000000001 2.383132   65.73135   93.45016   540.5504   -9999      185.3576   -9999      6.580679  
4592.4     2.383794   61.67775   93.45319   541.0698   -9999      185.2919   -9999      6.580679  
4592.6     2.375023   56.07092   93.45624   541.5892   -9999      185.2263   -9999      6.580679  
4592.8     2.36365    53.89134   93.45927   542.1085   -9999      185.1608   -9999      6.580679  
4593       2.35501    57.15132   93.46231   542.6279   -9999      185.0953   -9999      6.580679  
4593.200000000001 2.350479   62.41451   93.46535   543.1473   -9999      185.03     -9999      6.580679  
4593.4     2.362427   64.90811   93.46839   543.6667   -9999      184.9647   -9999      6.580679  
4593.6     2.374384   67.60442   93.47144   544.186    -9999      184.8995   -9999      6.580679  
4593.8     2.376121   67.03739   93.47447   544.7054   -9999      184.8344   -9999      6.580679  
4594       2.386075   69.9789    93.47751   545.2248   -9999      184.7694   -9999      6.580679  
4594.200000000001 2.405592   69.96217   93.48055   545.7442   -9999      184.7045   -9999      6.580679  
4594.4     2.408319   70.32596   93.48359   546.2635   -9999      184.6397   -9999      6.580679  
4594.6     2.418339   72.03264   93.48663   546.7829   -9999      184.5749   -9999      6.580679  
4594.8     2.420649   72.56989   93.48967   547.3023   -9999      184.5103   -9999      6.580679  
4595       2.421641   72.99568   93.49271   547.8217   -9999      184.4457   -9999      6.580679  
4595.200000000001 2.409858   69.85008   93.49575   548.3411   -9999      184.3812   -9999      6.580679  
4595.4     2.390158   65.47324   93.49879   548.8604   -9999      184.3167   -9999      6.580679  
4595.6     2.358435   62.09626   93.50182   549.3798   -9999      184.2524   -9999      6.580679  
4595.8     2.359146   59.84613   93.50487   549.8992   -9999      184.1882   -9999      6.580679  
4596       2.367903   59.32158   93.5079    550.4185   -9999      184.124    -9999      6.580679  
4596.200000000001 2.351022   64.10899   93.51094   550.9379   -9999      184.0599   -9999      6.580679  
4596.4     2.354531   70.99643   93.51398   551.4573   -9999      183.9959   -9999      6.580679  
4596.6     2.362789   76.39198   93.51702   551.9767   -9999      183.932    -9999      6.580679  
4596.8     2.358001   78.45638   93.52007   552.496    -9999      183.8681   -9999      6.580679  
4597       2.379562   76.05518   93.5231    553.0154   -9999      183.8044   -9999      6.580679  
4597.200000000001 2.393955   69.91094   93.52614   553.5348   -9999      183.7407   -9999      6.580679  
4597.4     2.393874   66.86347   93.52918   554.0542   -9999      183.6771   -9999      6.580679  
4597.6     2.389266   66.11327   93.53222   554.5735   -9999      183.6136   -9999      6.580679  
4597.8     2.376545   68.05479   93.53526   555.0929   -9999      183.5502   -9999      6.580679  
4598       2.352456   67.6464    93.5383    555.6123   -9999      183.4868   -9999      6.580679  
4598.200000000001 2.341519   63.61444   93.54134   556.1317   -9999      183.4235   -9999      6.580679  
4598.4     2.33009    60.22982   93.54438   556.6511   -9999      183.3604   -9999      6.580679  
4598.6     2.347608   57.16283   93.54742   557.1704   -9999      183.2973   -9999      6.580679  
4598.8     2.369063   56.9553    93.55045   557.6898   -9999      183.2342   -9999      6.580679  
4599       2.373291   58.25722   93.5535    558.2092   -9999      183.1713   -9999      6.580679  
4599.200000000001 2.401989   62.27409   93.55653   558.7285   -9999      183.1084   -9999      6.580679  
4599.4     2.411884   66.03053   93.55958   559.2479   -9999      183.0456   -9999      6.580679  
4599.6     2.405873   66.50928   93.56261   559.7673   -9999      182.9829   -9999      6.580679  
4599.8     2.404238   65.48167   93.56565   560.2867   -9999      182.9203   -9999      6.580679  
4600       2.388873   65.54556   93.5687    560.806    -9999      182.8577   -9999      6.580679  
4600.200000000001 2.367426   67.96889   93.57173   561.3254   -9999      182.7953   -9999      6.580679  
4600.4     2.339987   69.30773   93.57478   561.8448   -9999      182.7329   -9999      6.580679  
4600.6     2.344802   68.88808   93.57781   562.3642   -9999      182.6706   -9999      6.580679  
4600.8     2.337049   67.02368   93.58085   562.8835   -9999      182.6084   -9999      6.580679  
4601       2.348705   63.63553   93.58389   563.4029   -9999      182.5462   -9999      6.580679  
4601.200000000001 2.366655   61.02766   93.58693   563.9223   -9999      182.4841   -9999      6.580679  
