~Version
 VERS              .         2.0                           : CWLS LOG ASCII STANDARD - VERSION 2.0
 WRAP              .         NO                            : ONE LINE PER DEPTH STEP
 DLM               .         SPACE                         : DELIMITING CHARACTER(SPACE TAB OR COMMA)
~Well Information
#_______________________________________________________________________________
#
#PARAMETER_NAME    .UNIT     VALUE                         : DESCRIPTION
#_______________________________________________________________________________
STRT               .m        2400                          : First reference value
STOP               .m        5381.8                        : Last reference value
STEP               .m        0.2                           : Step increment
NULL               .         -9999                         : Missing value
COMP               .                                       : Company
WELL               .         1-ESS-86A-ES                  : Well name
FLD                .                                       : Field
LOC                .                                       : Location
CNTY               .                                       : County
STAT               .                                       : State
CTRY               .                                       : Country
SRVC               .                                       : Service Company
DATE               .                                       : Date
API                .                                       : API number
~Parameter Information Block
#_______________________________________________________________________________
#
#PARAMETER_NAME    .UNIT     VALUE                         : DESCRIPTION
#_______________________________________________________________________________
SET                .         AchillesBR                    : 
TLFamily_Densidade_Aparente_Seca .         Bulk Density                  : 
TLFamily_Fração_de_Areia .                                       : 
TLFamily_Idade__Ma_ .                                       : 
TLFamily_MD        .         Measured Depth                : 
TLFamily_Paleobatimetria_1 .                                       : 
TLFamily_Paleobatimetria_2 .                                       : 
TLFamily_Produtividade_Primária_1 .                                       : 
TLFamily_Produtividade_Primária_2 .                                       : 
TLFamily_Taxa_de_Sedimentação .                                       : 
~Curve Information
#_______________________________________________________________________________
#
#LOGNAME           .UNIT     LOG_ID                        : DESCRIPTION
#_______________________________________________________________________________
MD                 .m                                      :  
Densidade Aparente Seca .g/cm3                                  :  
Fração de Areia    .%                                      :  
Idade         .                                       : [Ma] 
Paleobatimetria_1  .m                                      :  
Paleobatimetria_2  .m                                      :  
Produtividade Primária_1 .                                       : [gC/m²/yr] 
Produtividade Primária_2 .                                       : [gC/m²/yr] 
Taxa de Sedimentação  .                                       : [cm/ka] 
~Ascii
# ...
2999.4     1.621838   60.97449   68.89301   1040.418   -9999      145.5618   -9999      6.56168   
2999.6     1.643457   61.2972    68.89606   1042.325   -9999      145.4634   -9999      6.56168   
2999.8     1.627435   64.83707   68.8991    1044.232   -9999      145.3653   -9999      6.56168   
3000       1.62126    67.33001   68.90215   1046.14    -9999      145.2674   -9999      6.56168   
3000.2     1.616592   65.45865   68.9052    1048.047   -9999      145.1698   -9999      6.56168   
3000.4     1.63555    64.25106   68.90825   1049.954   -9999      145.0724   -9999      6.56168   
3000.6     1.655594   61.60875   68.91129   1051.862   -9999      144.9753   -9999      6.56168   
3000.8     1.646656   61.3483    68.91434   1053.769   -9999      144.8783   -9999      6.56168   
3001       1.628599   60.31259   68.91739   1055.677   -9999      144.7817   -9999      6.56168   
3001.2     1.649379   60.143     68.92044   1057.584   -9999      144.6852   -9999      6.56168   
3001.4     1.645683   60.71196   68.92348   1059.491   -9999      144.589    -9999      6.56168   
3001.6     1.64485    62.21045   68.92654   1061.399   -9999      144.4931   -9999      6.56168   
3001.8     1.708153   61.70733   68.92958   1063.306   -9999      144.3974   -9999      6.56168   
3002       1.70764    59.23879   68.93263   1065.213   -9999      144.3019   -9999      6.561687  
3002.2     1.725663   57.8434    68.93568   1067.121   -9999      144.2066   -9999      6.56168   
3002.4     1.71833    54.62687   68.93873   1069.028   -9999      144.1116   -9999      6.56168   
3002.6     1.689321   54.84824   68.94177   1070.935   -9999      144.0168   -9999      6.56168   
3002.8     1.699828   54.5816    68.94482   1072.843   -9999      143.9222   -9999      6.56168   
3003       1.73216    53.88401   68.94787   1074.75    -9999      143.8279   -9999      6.56168   
3003.2     1.715937   54.93505   68.95092   1076.657   -9999      143.7338   -9999      6.56168   
3003.4     1.760282   52.03506   68.95396   1078.565   -9999      143.6399   -9999      6.56168   
3003.6     1.75266    53.43291   68.95702   1080.472   -9999      143.5463   -9999      6.56168   
3003.8     1.766189   52.00388   68.96006   1082.38    -9999      143.4529   -9999      6.56168   
3004       1.744759   51.59623   68.96311   1084.287   -9999      143.3597   -9999      6.56168   
3004.2     1.717271   53.64272   68.96616   1086.194   -9999      143.2667   -9999      6.56168   
3004.4     1.710678   52.96603   68.96921   1088.102   -9999      143.174    -9999      6.56168   
3004.6     1.736186   53.76086   68.97225   1090.009   -9999      143.0814   -9999      6.56168   
3004.8     1.757447   50.5511    68.9753    1091.916   -9999      142.9891   -9999      6.56168   
3005       1.762779   48.49691   68.97835   1093.824   -9999      142.8971   -9999      6.56168   
3005.2     1.748352   48.56054   68.9814    1095.731   -9999      142.8052   -9999      6.56168   
3005.4     1.758806   47.28132   68.98444   1097.638   -9999      142.7135   -9999      6.56168   
3005.6     1.772691   47.70723   68.9875    1099.546   -9999      142.6221   -9999      6.56168   
3005.8     1.808121   47.0848    68.99054   1101.453   -9999      142.5309   -9999      6.56168   
3006       1.823224   50.24487   68.99359   1103.36    -9999      142.4399   -9999      6.56168   
3006.2     1.798889   51.80437   68.99664   1105.268   -9999      142.3491   -9999      6.56168   
3006.4     1.796024   52.90374   68.99969   1107.175   1107.175   142.2586   142.2586   6.56168   
3006.6     1.771332   52.01967   69.00273   1108.673   -9999      142.1876   -9999      6.56168   
3006.8     1.743255   52.60131   69.00578   1110.123   -9999      142.119    -9999      6.56168   
3007       1.772099   54.58216   69.00915   1111.726   -9999      142.0434   -9999      5.61672   
3007.2     1.79373    54.75812   69.01271   1113.421   -9999      141.9635   -9999      5.617972  
3007.4     1.764212   52.54769   69.01627   1115.115   -9999      141.8839   -9999      5.61672   
3007.6     1.774178   52.75219   69.01983   1116.809   -9999      141.8044   -9999      5.61672   
3007.8     1.809693   52.41068   69.02339   1118.504   -9999      141.7251   -9999      5.617972  
3008       1.796459   53.98708   69.02695   1120.198   -9999      141.6459   -9999      5.61672   
3008.2     1.764866   53.7035    69.03051   1121.893   -9999      141.5669   -9999      5.617972  
3008.4     1.794752   52.95752   69.03407   1123.587   -9999      141.4881   -9999      5.61672   
3008.6     1.778264   53.12383   69.03764   1125.281   -9999      141.4094   -9999      5.61672   
3008.8     1.765371   52.63162   69.04119   1126.976   -9999      141.3309   -9999      5.617972  
3009       1.764433   54.50796   69.04475   1128.67    -9999      141.2525   -9999      5.61672   
3009.2     1.77605    54.04648   69.04832   1130.364   -9999      141.1743   -9999      5.617972  
3009.4     1.751577   51.92662   69.05187   1132.059   -9999      141.0963   -9999      5.617972  
3009.6     1.762332   50.18051   69.05544   1133.753   -9999      141.0184   -9999      5.61672   
3009.8     1.738402   48.90709   69.059     1135.448   -9999      140.9407   -9999      5.617972  
3010       1.745746   47.02518   69.06255   1137.142   -9999      140.8632   -9999      5.61672   
3010.2     1.768484   44.75022   69.06612   1138.836   -9999      140.7858   -9999      5.617972  
3010.4     1.779138   43.43367   69.06968   1140.531   -9999      140.7085   -9999      5.617972  
3010.6     1.758109   43.23078   69.07323   1142.225   -9999      140.6315   -9999      5.61672   
3010.8     1.742778   42.41792   69.0768    1143.919   -9999      140.5545   -9999      5.617972  
3011       1.756576   43.10277   69.08036   1145.614   -9999      140.4778   -9999      5.61672   
3011.2     1.72548    45.81162   69.08392   1147.308   -9999      140.4012   -9999      5.617972  
3011.4     1.755702   53.30634   69.08748   1149.003   -9999      140.3247   -9999      5.617972  
3011.6     1.71639    58.37173   69.09104   1150.697   -9999      140.2484   -9999      5.61672   
3011.8     1.727546   59.03044   69.0946    1152.391   -9999      140.1723   -9999      5.617972  
3012       1.744942   57.05719   69.09816   1154.086   -9999      140.0963   -9999      5.61672   
3012.2     1.726871   52.81421   69.10172   1155.78    -9999      140.0204   -9999      5.616715  
3012.4     1.731061   54.07853   69.10529   1157.474   -9999      139.9447   -9999      5.617972  
3012.6     1.729711   58.09772   69.10884   1159.169   -9999      139.8692   -9999      5.61672   
3012.8     1.714758   58.62952   69.1124    1160.863   -9999      139.7938   -9999      5.617972  
3013       1.744588   58.13776   69.11597   1162.558   -9999      139.7186   -9999      5.61672   
3013.2     1.752313   53.17739   69.11952   1164.252   -9999      139.6435   -9999      5.616715  
3013.4     1.780179   52.94918   69.12309   1165.946   -9999      139.5685   -9999      5.617972  
3013.6     1.761125   51.06808   69.12665   1167.641   -9999      139.4938   -9999      5.61672   
3013.8     1.764962   51.37054   69.1302    1169.335   -9999      139.4191   -9999      5.617972  
3014       1.792653   52.00417   69.13377   1171.03    -9999      139.3446   -9999      5.61672   
3014.2     1.767753   52.95792   69.13733   1172.724   -9999      139.2703   -9999      5.616715  
3014.4     1.722929   53.80859   69.14088   1174.418   -9999      139.1961   -9999      5.617972  
3014.6     1.751642   54.22155   69.14445   1176.113   -9999      139.122    -9999      5.61672   
3014.8     1.74913    48.52071   69.14801   1177.807   -9999      139.0481   -9999      5.617972  
3015       1.728682   45.58229   69.15157   1179.501   -9999      138.9744   -9999      5.61672   
3015.2     1.697234   46.42108   69.15513   1181.196   -9999      138.9007   -9999      5.616715  
3015.4     1.729459   49.83566   69.15869   1182.89    -9999      138.8273   -9999      5.617972  
