~Version
 VERS              .         2.0                           : CWLS LOG ASCII STANDARD - VERSION 2.0
 WRAP              .         NO                            : ONE LINE PER DEPTH STEP
 DLM               .         SPACE                         : DELIMITING CHARACTER(SPACE TAB OR COMMA)
~Well Information
#_______________________________________________________________________________
#
#PARAMETER_NAME    .UNIT     VALUE                         : DESCRIPTION
#_______________________________________________________________________________
STRT               .m        2400                          : First reference value
STOP               .m        5381.8                        : Last reference value
STEP               .m        0.2                           : Step increment
NULL               .         -9999                         : Missing value
COMP               .                                       : Company
WELL               .         1-ESS-86A-ES                  : Well name
FLD                .                                       : Field
LOC                .                                       : Location
CNTY               .                                       : County
STAT               .                                       : State
CTRY               .                                       : Country
SRVC               .                                       : Service Company
DATE               .                                       : Date
API                .                                       : API number
~Parameter Information Block
#_______________________________________________________________________________
#
#PARAMETER_NAME    .UNIT     VALUE                         : DESCRIPTION
#_______________________________________________________________________________
SET                .         AchillesBR                    : 
TLFamily_Densidade_Aparente_Seca .         Bulk Density                  : 
TLFamily_Fração_de_Areia .                                       : 
TLFamily_Idade__Ma_ .                                       : 
TLFamily_MD        .         Measured Depth                : 
TLFamily_Paleobatimetria_1 .                                       : 
TLFamily_Paleobatimetria_2 .                                       : 
TLFamily_Produtividade_Primária_1 .                                       : 
TLFamily_Produtividade_Primária_2 .                                       : 
TLFamily_Taxa_de_Sedimentação .                                       : 
~Curve Information
#_______________________________________________________________________________
#
#LOGNAME           .UNIT     LOG_ID                        : DESCRIPTION
#_______________________________________________________________________________
MD                 .m                                      :  
Densidade Aparente Seca .g/cm3                                  :  
Fração de Areia    .%                                      :  
Idade         .                                       : [Ma] 
Paleobatimetria_1  .m                                      :  
Paleobatimetria_2  .m                                      :  
Produtividade Primária_1 .                                       : [gC/m²/yr] 
Produtividade Primária_2 .                                       : [gC/m²/yr] 
Taxa de Sedimentação  .                                       : [cm/ka] 
~Ascii
# ...
3388.2     1.990398   65.28858   75.04474   251.7543   -9999      245.7543   -9999      6.791625  
3388.4     1.997764   63.20448   75.04768   251.6149   -9999      245.8046   -9999      6.789788  
3388.6     1.98289    62.93695   75.05063   251.4754   -9999      245.8549   -9999      6.791625  
3388.8     1.985698   61.82801   75.05357   251.336    -9999      245.9052   -9999      6.789788  
3389       1.994182   61.97903   75.05652   251.1966   -9999      245.9556   -9999      6.789795  
3389.2     1.998806   59.93793   75.05946   251.0571   -9999      246.006    -9999      6.789788  
3389.4     2.024126   57.25054   75.06241   250.9177   -9999      246.0565   -9999      6.789795  
3389.6     2.046184   56.25734   75.06535   250.7783   -9999      246.107    -9999      6.789788  
3389.8     2.061739   59.4866    75.0683    250.6388   -9999      246.1575   -9999      6.789788  
3390       2.042312   61.45529   75.07124   250.4994   -9999      246.2081   -9999      6.789788  
3390.2     2.022021   61.96535   75.0742    250.36     -9999      246.2587   -9999      6.789788  
3390.4     2.017983   58.99726   75.07714   250.2205   -9999      246.3093   -9999      6.791625  
3390.6     2.024987   57.69898   75.08009   250.0811   -9999      246.36     -9999      6.789788  
3390.8     2.019245   59.86317   75.08308   249.9396   -9999      246.4115   -9999      6.530826  
3391       2.033272   61.96025   75.08614   249.7946   -9999      246.4642   -9999      6.530826  
3391.2     2.037128   64.53195   75.0892    249.6496   -9999      246.5171   -9999      6.530826  
3391.4     2.046297   65.30263   75.09226   249.5046   -9999      246.5699   -9999      6.530826  
3391.6     2.040192   66.79524   75.09532   249.3597   -9999      246.6228   -9999      6.530826  
3391.8     2.018579   67.73025   75.09839   249.2147   -9999      246.6758   -9999      6.530826  
3392       2.00828    68.40153   75.10145   249.0697   -9999      246.7287   -9999      6.530826  
3392.2     1.994863   68.66264   75.10451   248.9248   -9999      246.7818   -9999      6.530826  
3392.4     2.02475    67.42198   75.10757   248.7798   -9999      246.8349   -9999      6.532525  
3392.6     2.055346   66.8261    75.11063   248.6348   -9999      246.888    -9999      6.530826  
3392.8     2.064722   66.62321   75.11369   248.4898   -9999      246.9411   -9999      6.530826  
3393       2.045905   66.23559   75.11676   248.3449   -9999      246.9943   -9999      6.530826  
3393.2     2.056872   66.40146   75.11982   248.1999   -9999      247.0476   -9999      6.530826  
3393.4     2.050662   65.48363   75.12289   248.0549   -9999      247.1008   -9999      6.530826  
3393.6     2.041898   65.03144   75.12595   247.9099   -9999      247.1542   -9999      6.530826  
3393.8     2.055647   64.77381   75.12901   247.765    -9999      247.2075   -9999      6.530826  
3394       2.030185   67.09357   75.13207   247.62     -9999      247.2609   -9999      6.530826  
3394.2     2.003821   68.45007   75.13513   247.475    -9999      247.3144   -9999      6.530826  
3394.4     1.994603   70.19683   75.1382    247.33     -9999      247.3679   -9999      6.530826  
3394.6     2.006468   69.0816    75.14126   247.1851   -9999      247.4214   -9999      6.532525  
3394.8     1.995894   66.89823   75.14432   247.0401   -9999      247.475    -9999      6.530826  
3395       2.021832   63.83164   75.14738   246.8951   -9999      247.5286   -9999      6.530826  
3395.2     2.033938   65.1816    75.15044   246.7502   -9999      247.5823   -9999      6.530826  
3395.4     2.030056   64.84337   75.15351   246.6052   -9999      247.636    -9999      6.530826  
3395.6     2.01398    67.33315   75.15657   246.4602   -9999      247.6898   -9999      6.530826  
3395.8     2.025754   68.74508   75.15963   246.3152   -9999      247.7436   -9999      6.530826  
3396       1.994303   66.62923   75.1627    246.1703   -9999      247.7974   -9999      6.530826  
3396.2     1.979483   64.09807   75.16576   246.0253   -9999      247.8513   -9999      6.530826  
3396.4     1.999615   59.46615   75.16882   245.8803   -9999      247.9052   -9999      6.530826  
3396.6     2.002751   57.78316   75.17188   245.7354   -9999      247.9592   -9999      6.530826  
3396.8     1.995402   59.52147   75.17494   245.5904   -9999      248.0132   -9999      6.532525  
3397       1.99556    62.06526   75.17801   245.4454   -9999      248.0673   -9999      6.530826  
3397.2     2.009628   63.44989   75.18107   245.3004   -9999      248.1214   -9999      6.530826  
3397.4     2.021303   63.66253   75.18414   245.1555   -9999      248.1755   -9999      6.530826  
3397.6     2.011053   62.57242   75.18719   245.0105   -9999      248.2297   -9999      6.530826  
3397.8     2.015385   63.05467   75.19025   244.8655   -9999      248.284    -9999      6.530826  
3398       2.011154   64.08696   75.19332   244.7206   -9999      248.3382   -9999      6.530826  
3398.2     1.986127   65.40043   75.19638   244.5756   -9999      248.3926   -9999      6.530826  
3398.4     2.008278   62.212     75.19945   244.4306   -9999      248.4469   -9999      6.530826  
3398.6     1.996521   62.73354   75.20251   244.2856   -9999      248.5013   -9999      6.530826  
3398.8     1.984805   61.163     75.20557   244.1407   -9999      248.5558   -9999      6.530826  
3399       1.996518   63.80421   75.20863   243.9957   -9999      248.6103   -9999      6.532525  
3399.2     1.992466   64.79754   75.21169   243.8507   -9999      248.6648   -9999      6.530826  
3399.4     1.996769   63.97161   75.21475   243.7057   -9999      248.7194   -9999      6.530826  
3399.6     2.014962   65.30196   75.21782   243.5608   -9999      248.7741   -9999      6.530826  
3399.8     2.029659   65.88873   75.22088   243.4158   -9999      248.8287   -9999      6.530826  
3400       2.048967   66.42069   75.22395   243.2708   -9999      248.8835   -9999      6.530826  
3400.2     2.034177   67.30679   75.22701   243.1259   -9999      248.9382   -9999      6.530826  
3400.4     2.020536   67.19126   75.23006   242.9809   -9999      248.993    -9999      6.530826  
3400.6     2.008753   67.88873   75.23313   242.8359   -9999      249.0479   -9999      6.530826  
3400.8     2.012536   69.57639   75.23619   242.6909   -9999      249.1028   -9999      6.530826  
3401       2.040057   71.20069   75.23926   242.546    -9999      249.1577   -9999      6.530826  
3401.2     2.069998   71.44403   75.24232   242.401    -9999      249.2127   -9999      6.532525  
3401.4     2.068925   69.83288   75.24538   242.256    -9999      249.2678   -9999      6.530826  
3401.6     2.050285   69.03444   75.24844   242.111    -9999      249.3229   -9999      6.530826  
3401.8     2.000893   67.22165   75.2515    241.9661   -9999      249.378    -9999      6.530826  
3402       1.991825   65.92632   75.25456   241.8211   -9999      249.4332   -9999      6.530826  
3402.2     1.996295   66.82571   75.25763   241.6761   -9999      249.4884   -9999      6.530826  
3402.4     2.010087   68.15633   75.26069   241.5312   -9999      249.5436   -9999      6.530826  
3402.6     2.016696   68.35357   75.26376   241.3862   -9999      249.5989   -9999      6.530826  
3402.8     2.013534   67.00803   75.26682   241.2412   -9999      249.6543   -9999      6.530826  
3403       1.997062   64.36121   75.26987   241.0962   -9999      249.7097   -9999      6.530826  
3403.2     1.980336   64.87489   75.27294   240.9513   -9999      249.7651   -9999      6.530826  
3403.4     1.979156   67.87514   75.276     240.8063   -9999      249.8206   -9999      6.532525  
3403.6     1.985572   70.31119   75.27907   240.6613   -9999      249.8762   -9999      6.530826  
3403.8     1.997113   68.72286   75.28213   240.5163   -9999      249.9317   -9999      6.530826  
3404       1.993839   68.69286   75.28519   240.3714   -9999      249.9874   -9999      6.530826  
3404.2     2.027223   69.64629   75.28825   240.2264   -9999      250.043    -9999      6.530826  
