~Version
 VERS              .         2.0                           : CWLS LOG ASCII STANDARD - VERSION 2.0
 WRAP              .         NO                            : ONE LINE PER DEPTH STEP
 DLM               .         SPACE                         : DELIMITING CHARACTER(SPACE TAB OR COMMA)
~Well Information
#_______________________________________________________________________________
#
#PARAMETER_NAME    .UNIT     VALUE                         : DESCRIPTION
#_______________________________________________________________________________
STRT               .m        2400                          : First reference value
STOP               .m        5381.8                        : Last reference value
STEP               .m        0.2                           : Step increment
NULL               .         -9999                         : Missing value
COMP               .                                       : Company
WELL               .         1-ESS-86A-ES                  : Well name
FLD                .                                       : Field
LOC                .                                       : Location
CNTY               .                                       : County
STAT               .                                       : State
CTRY               .                                       : Country
SRVC               .                                       : Service Company
DATE               .                                       : Date
API                .                                       : API number
~Parameter Information Block
#_______________________________________________________________________________
#
#PARAMETER_NAME    .UNIT     VALUE                         : DESCRIPTION
#_______________________________________________________________________________
SET                .         AchillesBR                    : 
TLFamily_Densidade_Aparente_Seca .         Bulk Density                  : 
TLFamily_Fração_de_Areia .                                       : 
TLFamily_Idade__Ma_ .                                       : 
TLFamily_MD        .         Measured Depth                : 
TLFamily_Paleobatimetria_1 .                                       : 
TLFamily_Paleobatimetria_2 .                                       : 
TLFamily_Produtividade_Primária_1 .                                       : 
TLFamily_Produtividade_Primária_2 .                                       : 
TLFamily_Taxa_de_Sedimentação .                                       : 
~Curve Information
#_______________________________________________________________________________
#
#LOGNAME           .UNIT     LOG_ID                        : DESCRIPTION
#_______________________________________________________________________________
MD                 .m                                      :  
Densidade Aparente Seca .g/cm3                                  :  
Fração de Areia    .%                                      :  
Idade         .                                       : [Ma] 
Paleobatimetria_1  .m                                      :  
Paleobatimetria_2  .m                                      :  
Produtividade Primária_1 .                                       : [gC/m²/yr] 
Produtividade Primária_2 .                                       : [gC/m²/yr] 
Taxa de Sedimentação  .                                       : [cm/ka] 
~Ascii
# ...
3987.6     2.292375   35.89065   84.37168   1137.337   -9999      140.8542   -9999      6.438321  
3987.8     2.301132   41.14272   84.37479   1137.557   -9999      140.8442   -9999      6.438321  
3988       2.299388   46.66799   84.3779    1137.777   -9999      140.8341   -9999      6.438321  
3988.2     2.288943   50.3344    84.381     1137.997   -9999      140.8241   -9999      6.438321  
3988.4     2.292557   50.11427   84.38411   1138.217   -9999      140.814    -9999      6.438321  
3988.6     2.304463   52.14368   84.38721   1138.437   -9999      140.804    -9999      6.438321  
3988.8     2.305531   52.89832   84.39032   1138.657   -9999      140.794    -9999      6.438314  
3989       2.309508   58.15752   84.39343   1138.877   -9999      140.7839   -9999      6.438321  
3989.2     2.302815   59.72689   84.39654   1139.097   -9999      140.7739   -9999      6.438321  
3989.4     2.305267   57.88724   84.39948   1139.305   -9999      140.7644   -9999      6.86436   
3989.6     2.316854   54.26109   84.40239   1139.511   -9999      140.755    -9999      6.86436   
3989.8     2.307667   48.60506   84.4053    1139.718   -9999      140.7456   -9999      6.86436   
3990       2.27622    42.9776    84.40822   1139.924   -9999      140.7362   -9999      6.86436   
3990.2     2.186611   18.5223    84.41113   1140.13    -9999      140.7268   -9999      6.86436   
3990.4     2.150345   0.9224295  84.41404   1140.337   -9999      140.7174   -9999      6.86436   
3990.6     2.17129    9.563643   84.41695   1140.543   -9999      140.708    -9999      6.86436   
3990.8     2.243718   28.28091   84.41987   1140.75    -9999      140.6986   -9999      6.864353  
3991       2.268395   51.23543   84.42278   1140.956   -9999      140.6892   -9999      6.86436   
3991.2     2.272531   54.61353   84.4257    1141.162   -9999      140.6798   -9999      6.86436   
3991.4     2.269327   56.3435    84.42861   1141.369   -9999      140.6704   -9999      6.862484  
3991.6     2.263268   54.86857   84.43153   1141.575   -9999      140.661    -9999      6.86436   
3991.8     2.263413   54.28185   84.43444   1141.781   -9999      140.6516   -9999      6.86436   
3992       2.274099   56.33825   84.43736   1141.988   -9999      140.6423   -9999      6.862484  
3992.2     2.272507   57.24149   84.44026   1142.194   -9999      140.6329   -9999      6.86436   
3992.4     2.282242   59.58885   84.44318   1142.4     -9999      140.6235   -9999      6.86436   
3992.6     2.293764   61.04029   84.44609   1142.607   -9999      140.6141   -9999      6.86436   
3992.8     2.289009   60.10725   84.44901   1142.813   -9999      140.6048   -9999      6.86436   
3993       2.279829   60.99888   84.45192   1143.019   -9999      140.5954   -9999      6.86436   
3993.2     2.288359   58.34087   84.45483   1143.226   -9999      140.586    -9999      6.86436   
3993.4     2.301403   55.61838   84.45775   1143.432   -9999      140.5766   -9999      6.864353  
3993.6     2.294783   54.94545   84.46066   1143.638   -9999      140.5673   -9999      6.86436   
3993.8     2.308795   51.78028   84.46358   1143.845   -9999      140.5579   -9999      6.86436   
3994       2.296832   54.99459   84.46649   1144.051   -9999      140.5486   -9999      6.864353  
3994.2     2.289594   58.7276    84.4694    1144.258   -9999      140.5392   -9999      6.86436   
3994.4     2.282554   60.08581   84.47231   1144.464   -9999      140.5299   -9999      6.86436   
3994.6     2.273685   62.88913   84.47523   1144.67    -9999      140.5205   -9999      6.862484  
3994.8     2.285775   62.21052   84.47814   1144.877   -9999      140.5112   -9999      6.86436   
3995       2.279653   59.62014   84.48106   1145.083   -9999      140.5018   -9999      6.86436   
3995.2     2.278972   59.2894    84.48397   1145.289   -9999      140.4925   -9999      6.86436   
3995.4     2.268055   59.06489   84.48689   1145.496   -9999      140.4831   -9999      6.86436   
3995.6     2.271916   58.53223   84.4898    1145.702   -9999      140.4738   -9999      6.86436   
3995.8     2.2773     58.31311   84.49271   1145.908   -9999      140.4644   -9999      6.86436   
3996       2.276232   52.1107    84.49563   1146.115   -9999      140.4551   -9999      6.86436   
3996.2     2.278306   51.84772   84.49854   1146.321   -9999      140.4458   -9999      6.86436   
3996.4     2.26029    53.68269   84.50145   1146.527   -9999      140.4364   -9999      6.86436   
3996.6     2.252503   56.81077   84.50436   1146.734   -9999      140.4271   -9999      6.864353  
3996.8     2.263512   56.95695   84.50728   1146.94    -9999      140.4178   -9999      6.86436   
3997       2.25243    52.24026   84.51019   1147.146   -9999      140.4085   -9999      6.86436   
3997.2     2.26576    49.3965    84.51311   1147.353   -9999      140.3992   -9999      6.862484  
3997.4     2.269329   53.2935    84.51602   1147.559   -9999      140.3898   -9999      6.86436   
3997.6     2.271213   53.66392   84.51894   1147.766   -9999      140.3805   -9999      6.86436   
3997.8     2.266459   54.91734   84.52185   1147.972   -9999      140.3712   -9999      6.86436   
3998       2.264851   54.88013   84.52477   1148.178   -9999      140.3619   -9999      6.86436   
3998.2     2.283146   54.31537   84.52767   1148.385   -9999      140.3526   -9999      6.86436   
3998.4     2.267341   60.57369   84.53059   1148.591   -9999      140.3433   -9999      6.86436   
3998.6     2.271366   59.6062    84.5335    1148.797   -9999      140.334    -9999      6.86436   
3998.8     2.291943   61.88682   84.53642   1149.004   -9999      140.3247   -9999      6.86436   
3999       2.290752   60.16541   84.53933   1149.21    -9999      140.3154   -9999      6.86436   
3999.2     2.287411   60.77847   84.54224   1149.416   -9999      140.3061   -9999      6.864353  
3999.4     2.270614   60.90345   84.54516   1149.623   -9999      140.2968   -9999      6.86436   
3999.6     2.272023   56.91404   84.54807   1149.829   -9999      140.2875   -9999      6.86436   
3999.8     2.287285   56.01915   84.55099   1150.035   -9999      140.2782   -9999      6.862484  
4000       2.275857   55.22095   84.5539    1150.242   -9999      140.2689   -9999      6.86436   
4000.2     2.278978   60.44042   84.55681   1150.448   -9999      140.2596   -9999      6.86436   
4000.4     2.288858   64.96971   84.55972   1150.655   -9999      140.2503   -9999      6.86436   
4000.6     2.286078   64.79355   84.56264   1150.861   -9999      140.241    -9999      6.86436   
4000.8     2.297558   63.66207   84.56555   1151.067   -9999      140.2318   -9999      6.86436   
4001       2.272028   60.43307   84.56847   1151.274   -9999      140.2225   -9999      6.86436   
4001.2     2.277253   59.86083   84.57138   1151.48    -9999      140.2132   -9999      6.86436   
4001.4     2.295372   59.25828   84.5743    1151.686   -9999      140.2039   -9999      6.86436   
4001.6     2.303278   59.01199   84.57721   1151.893   -9999      140.1947   -9999      6.86436   
4001.8     2.300681   59.73333   84.58012   1152.099   -9999      140.1854   -9999      6.864353  
4002       2.3076     61.07399   84.58304   1152.305   -9999      140.1761   -9999      6.86436   
4002.2     2.308124   60.71136   84.58595   1152.512   -9999      140.1669   -9999      6.86436   
4002.4     2.301927   60.09202   84.58886   1152.718   -9999      140.1576   -9999      6.864353  
4002.6     2.295024   58.87108   84.59177   1152.924   -9999      140.1483   -9999      6.86436   
4002.8     2.299487   60.093     84.59469   1153.131   -9999      140.1391   -9999      6.86436   
4003       2.289046   59.77837   84.5976    1153.337   -9999      140.1298   -9999      6.862484  
4003.2     2.283895   59.72329   84.60052   1153.543   -9999      140.1206   -9999      6.86436   
4003.4     2.298618   58.551     84.60343   1153.75    -9999      140.1113   -9999      6.86436   
4003.6     2.31051    59.41187   84.60635   1153.956   -9999      140.1021   -9999      6.86436   
