~Version
 VERS              .         2.0                           : CWLS LOG ASCII STANDARD - VERSION 2.0
 WRAP              .         NO                            : ONE LINE PER DEPTH STEP
 DLM               .         SPACE                         : DELIMITING CHARACTER(SPACE TAB OR COMMA)
~Well Information
#_______________________________________________________________________________
#
#PARAMETER_NAME    .UNIT     VALUE                         : DESCRIPTION
#_______________________________________________________________________________
STRT               .m        2400                          : First reference value
STOP               .m        5381.8                        : Last reference value
STEP               .m        0.2                           : Step increment
NULL               .         -9999                         : Missing value
COMP               .                                       : Company
WELL               .         1-ESS-86A-ES                  : Well name
FLD                .                                       : Field
LOC                .                                       : Location
CNTY               .                                       : County
STAT               .                                       : State
CTRY               .                                       : Country
SRVC               .                                       : Service Company
DATE               .                                       : Date
API                .                                       : API number
~Parameter Information Block
#_______________________________________________________________________________
#
#PARAMETER_NAME    .UNIT     VALUE                         : DESCRIPTION
#_______________________________________________________________________________
SET                .         AchillesBR                    : 
TLFamily_Densidade_Aparente_Seca .         Bulk Density                  : 
TLFamily_Fração_de_Areia .                                       : 
TLFamily_Idade__Ma_ .                                       : 
TLFamily_MD        .         Measured Depth                : 
TLFamily_Paleobatimetria_1 .                                       : 
TLFamily_Paleobatimetria_2 .                                       : 
TLFamily_Produtividade_Primária_1 .                                       : 
TLFamily_Produtividade_Primária_2 .                                       : 
TLFamily_Taxa_de_Sedimentação .                                       : 
~Curve Information
#_______________________________________________________________________________
#
#LOGNAME           .UNIT     LOG_ID                        : DESCRIPTION
#_______________________________________________________________________________
MD                 .m                                      :  
Densidade Aparente Seca .g/cm3                                  :  
Fração de Areia    .%                                      :  
Idade         .                                       : [Ma] 
Paleobatimetria_1  .m                                      :  
Paleobatimetria_2  .m                                      :  
Produtividade Primária_1 .                                       : [gC/m²/yr] 
Produtividade Primária_2 .                                       : [gC/m²/yr] 
Taxa de Sedimentação  .                                       : [cm/ka] 
~Ascii
# ...
4182       2.294591   70.54529   87.03645   859.947    -9999      156.1657   -9999      6.944445  
4182.2     2.297769   67.3913    87.03932   860.3149   -9999      156.1411   -9999      6.944445  
4182.4     2.290479   65.70319   87.04221   860.6827   -9999      156.1164   -9999      6.944445  
4182.6     2.293723   65.05867   87.04508   861.0506   -9999      156.0918   -9999      6.944445  
4182.8     2.289974   65.06587   87.04797   861.4185   -9999      156.0672   -9999      6.944445  
4183       2.288903   67.88552   87.05084   861.7863   -9999      156.0426   -9999      6.944445  
4183.2     2.261266   70.80894   87.05373   862.1542   -9999      156.0181   -9999      6.944445  
4183.4     2.2717     69.19308   87.0566    862.522    -9999      155.9935   -9999      6.944445  
4183.6     2.228019   66.51872   87.05949   862.8898   -9999      155.9689   -9999      6.944445  
4183.8     2.20906    64.2218    87.06236   863.2577   -9999      155.9444   -9999      6.944445  
4184       2.204641   69.86304   87.06525   863.6255   -9999      155.9199   -9999      6.944445  
4184.2     2.222211   76.98428   87.06812   863.9934   -9999      155.8954   -9999      6.944445  
4184.4     2.238804   80.28193   87.07101   864.3613   -9999      155.8709   -9999      6.944445  
4184.6     2.269516   77.28866   87.07388   864.7291   -9999      155.8464   -9999      6.944445  
4184.8     2.284708   73.23744   87.07677   865.097    -9999      155.8219   -9999      6.944445  
4185       2.279451   72.42823   87.07964   865.4648   -9999      155.7975   -9999      6.944445  
4185.2     2.260796   75.54184   87.08253   865.8326   -9999      155.7731   -9999      6.944445  
4185.4     2.261804   75.43205   87.0854    866.2005   -9999      155.7486   -9999      6.944445  
4185.6     2.279517   75.74915   87.08829   866.5684   -9999      155.7242   -9999      6.944445  
4185.8     2.276187   75.42734   87.09116   866.9362   -9999      155.6998   -9999      6.944445  
4186       2.24706    75.04176   87.09405   867.3041   -9999      155.6755   -9999      6.944445  
4186.2     2.251251   74.89947   87.09692   867.6719   -9999      155.6511   -9999      6.944445  
4186.4     2.258428   74.44819   87.09981   868.0398   -9999      155.6268   -9999      6.944445  
4186.6     2.269232   73.18349   87.10268   868.4076   -9999      155.6024   -9999      6.944445  
4186.8     2.265072   75.20304   87.10557   868.7755   -9999      155.5781   -9999      6.944445  
4187       2.248945   74.78833   87.10844   869.1433   -9999      155.5538   -9999      6.944445  
4187.2     2.252372   72.04342   87.11133   869.5112   -9999      155.5295   -9999      6.944445  
4187.4     2.249429   71.7654    87.1142    869.879    -9999      155.5052   -9999      6.944445  
4187.6     2.272924   70.90177   87.11709   870.2469   -9999      155.4809   -9999      6.944445  
4187.8     2.265761   73.10043   87.11996   870.6147   -9999      155.4567   -9999      6.944445  
4188       2.270178   72.07985   87.12285   870.9826   -9999      155.4325   -9999      6.944445  
4188.2     2.286185   69.73818   87.12572   871.3504   -9999      155.4082   -9999      6.944445  
4188.4     2.285377   67.88552   87.12861   871.7183   -9999      155.384    -9999      6.944445  
4188.6     2.298972   66.34324   87.13148   872.0861   -9999      155.3598   -9999      6.944445  
4188.8     2.284394   66.54555   87.13436   872.454    -9999      155.3356   -9999      6.944445  
4189       2.252915   67.65998   87.13725   872.8218   -9999      155.3115   -9999      6.944445  
4189.2     2.247894   67.01907   87.14012   873.1897   -9999      155.2873   -9999      6.944445  
4189.4     2.251839   70.67746   87.14301   873.5576   -9999      155.2632   -9999      6.944445  
4189.6     2.251037   74.13351   87.14588   873.9254   -9999      155.2391   -9999      6.944445  
4189.8     2.264984   75.8828    87.14877   874.2932   -9999      155.215    -9999      6.944445  
4190       2.271876   76.0392    87.15164   874.6611   -9999      155.1909   -9999      6.944445  
4190.2     2.268218   72.89388   87.15453   875.0289   -9999      155.1668   -9999      6.944445  
4190.4     2.269802   70.01118   87.1574    875.3968   -9999      155.1427   -9999      6.944445  
4190.6     2.27146    68.40826   87.16029   875.7646   -9999      155.1187   -9999      6.944445  
4190.8     2.278398   68.71814   87.16316   876.1325   -9999      155.0946   -9999      6.944445  
4191       2.268242   71.49378   87.16605   876.5004   -9999      155.0706   -9999      6.944445  
4191.2     2.258032   72.76917   87.16892   876.8682   -9999      155.0466   -9999      6.944445  
4191.4     2.271197   73.39143   87.17181   877.2361   -9999      155.0226   -9999      6.944445  
4191.6     2.278311   68.86868   87.17468   877.6039   -9999      154.9986   -9999      6.944445  
4191.8     2.280615   65.79185   87.17757   877.9717   -9999      154.9746   -9999      6.944445  
4192       2.281017   64.2504    87.18044   878.3396   -9999      154.9506   -9999      6.944445  
4192.2     2.267597   64.51511   87.18333   878.7075   -9999      154.9267   -9999      6.944445  
4192.4     2.277921   68.49608   87.1862    879.0753   -9999      154.9028   -9999      6.944445  
4192.6     2.277637   70.56151   87.18909   879.4432   -9999      154.8788   -9999      6.944445  
4192.8     2.269136   73.07847   87.19196   879.811    -9999      154.8549   -9999      6.944445  
4193       2.267324   73.87867   87.19485   880.1789   -9999      154.8311   -9999      6.944445  
4193.2     2.275398   68.44657   87.19772   880.5467   -9999      154.8072   -9999      6.944445  
4193.4     2.284877   66.72075   87.20061   880.9146   -9999      154.7833   -9999      6.944445  
4193.6     2.288269   65.05355   87.20348   881.2824   -9999      154.7595   -9999      6.944445  
4193.8     2.277835   66.44754   87.20637   881.6503   -9999      154.7356   -9999      6.944445  
4194       2.265889   67.14638   87.20924   882.0181   -9999      154.7118   -9999      6.944445  
4194.2     2.250529   65.76452   87.21213   882.386    -9999      154.688    -9999      6.944445  
4194.4     2.241154   69.0983    87.215     882.7538   -9999      154.6642   -9999      6.944445  
4194.6     2.237943   71.74683   87.21789   883.1217   -9999      154.6404   -9999      6.944445  
4194.8     2.233699   72.03458   87.22076   883.4895   -9999      154.6166   -9999      6.944445  
4195       2.250911   70.4277    87.22365   883.8574   -9999      154.5929   -9999      6.944445  
4195.2     2.253454   68.66075   87.22652   884.2252   -9999      154.5692   -9999      6.944445  
4195.4     2.266115   72.47363   87.22941   884.5931   -9999      154.5454   -9999      6.944445  
4195.6     2.262792   72.59757   87.23232   884.9648   -9999      154.5215   -9999      6.413546  
4195.8     2.260727   71.6408    87.23544   885.363    -9999      154.4958   -9999      6.413546  
4196       2.27883    66.31155   87.23855   885.7614   -9999      154.4702   -9999      6.413546  
4196.2     2.299537   63.48605   87.24167   886.1597   -9999      154.4445   -9999      6.413546  
4196.4     2.300846   62.18027   87.24479   886.5579   -9999      154.4189   -9999      6.413546  
4196.6     2.279502   56.41656   87.24791   886.9562   -9999      154.3933   -9999      6.413546  
4196.8     2.264091   59.28417   87.25102   887.3546   -9999      154.3677   -9999      6.413546  
4197       2.236498   63.58018   87.25414   887.7529   -9999      154.3422   -9999      6.413546  
4197.2     2.234765   73.29052   87.25726   888.1512   -9999      154.3166   -9999      6.413546  
4197.4     2.221167   76.91593   87.26038   888.5494   -9999      154.2911   -9999      6.413546  
4197.6     2.261729   78.00678   87.2635    888.9478   -9999      154.2655   -9999      6.413546  
4197.8     2.2756     76.82875   87.26662   889.3461   -9999      154.2401   -9999      6.413546  
4198       2.27924    76.71757   87.26974   889.7443   -9999      154.2146   -9999      6.413546  
