~Version
 VERS              .         2.0                           : CWLS LOG ASCII STANDARD - VERSION 2.0
 WRAP              .         NO                            : ONE LINE PER DEPTH STEP
 DLM               .         SPACE                         : DELIMITING CHARACTER(SPACE TAB OR COMMA)
~Well Information
#_______________________________________________________________________________
#
#PARAMETER_NAME    .UNIT     VALUE                         : DESCRIPTION
#_______________________________________________________________________________
STRT               .m        2400                          : First reference value
STOP               .m        5381.8                        : Last reference value
STEP               .m        0.2                           : Step increment
NULL               .         -9999                         : Missing value
COMP               .                                       : Company
WELL               .         1-ESS-86A-ES                  : Well name
FLD                .                                       : Field
LOC                .                                       : Location
CNTY               .                                       : County
STAT               .                                       : State
CTRY               .                                       : Country
SRVC               .                                       : Service Company
DATE               .                                       : Date
API                .                                       : API number
~Parameter Information Block
#_______________________________________________________________________________
#
#PARAMETER_NAME    .UNIT     VALUE                         : DESCRIPTION
#_______________________________________________________________________________
SET                .         AchillesBR                    : 
TLFamily_Densidade_Aparente_Seca .         Bulk Density                  : 
TLFamily_Fração_de_Areia .                                       : 
TLFamily_Idade__Ma_ .                                       : 
TLFamily_MD        .         Measured Depth                : 
TLFamily_Paleobatimetria_1 .                                       : 
TLFamily_Paleobatimetria_2 .                                       : 
TLFamily_Produtividade_Primária_1 .                                       : 
TLFamily_Produtividade_Primária_2 .                                       : 
TLFamily_Taxa_de_Sedimentação .                                       : 
~Curve Information
#_______________________________________________________________________________
#
#LOGNAME           .UNIT     LOG_ID                        : DESCRIPTION
#_______________________________________________________________________________
MD                 .m                                      :  
Densidade Aparente Seca .g/cm3                                  :  
Fração de Areia    .%                                      :  
Idade         .                                       : [Ma] 
Paleobatimetria_1  .m                                      :  
Paleobatimetria_2  .m                                      :  
Produtividade Primária_1 .                                       : [gC/m²/yr] 
Produtividade Primária_2 .                                       : [gC/m²/yr] 
Taxa de Sedimentação  .                                       : [cm/ka] 
~Ascii
# ...
4392.6     2.313505   52.01185   90.23882   1358.834   -9999      131.9005   -9999      7.678133  
4392.8     2.313853   44.24751   90.24142   1357.948   -9999      131.9323   -9999      7.678133  
4393       2.318195   40.11304   90.24403   1357.063   -9999      131.9641   -9999      7.678133  
4393.2     2.333278   49.10198   90.24664   1356.177   -9999      131.9959   -9999      7.678133  
4393.4     2.329604   54.99875   90.24924   1355.291   -9999      132.0277   -9999      7.678133  
4393.6     2.343681   60.50603   90.25185   1354.406   -9999      132.0596   -9999      7.680482  
4393.8     2.356758   64.18304   90.25445   1353.52    -9999      132.0914   -9999      7.680482  
4394       2.353241   61.47557   90.25705   1352.635   -9999      132.1234   -9999      7.680482  
4394.2     2.33982    63.92999   90.25966   1351.749   -9999      132.1553   -9999      7.680482  
4394.4     2.330533   62.17529   90.26226   1350.863   -9999      132.1873   -9999      7.680482  
4394.6     2.32465    62.61288   90.26487   1349.978   -9999      132.2193   -9999      7.680482  
4394.8     2.323715   66.22198   90.26747   1349.092   -9999      132.2513   -9999      7.680482  
4395       2.312703   65.60323   90.27007   1348.207   -9999      132.2834   -9999      7.680482  
4395.2     2.323461   64.84531   90.27268   1347.321   -9999      132.3154   -9999      7.680482  
4395.4     2.322891   60.70539   90.27528   1346.435   -9999      132.3476   -9999      7.680482  
4395.6     2.303472   59.02342   90.27789   1345.55    -9999      132.3797   -9999      7.680482  
4395.8     2.311131   59.16723   90.28049   1344.664   -9999      132.4119   -9999      7.680482  
4396       2.318138   58.39038   90.2831    1343.779   -9999      132.4441   -9999      7.680482  
4396.2     2.310885   57.58975   90.28571   1342.893   -9999      132.4763   -9999      7.680482  
4396.4     2.308144   58.67485   90.28831   1342.007   -9999      132.5086   -9999      7.680482  
4396.6     2.313537   64.26408   90.29091   1341.122   -9999      132.5409   -9999      7.680482  
4396.8     2.325289   71.42966   90.29352   1340.236   -9999      132.5732   -9999      7.680482  
4397       2.328792   73.40622   90.29612   1339.351   -9999      132.6055   -9999      7.680482  
4397.2     2.334127   73.75327   90.29872   1338.465   -9999      132.6379   -9999      7.680482  
4397.4     2.338852   71.61418   90.30133   1337.579   -9999      132.6703   -9999      7.680482  
4397.6     2.349623   65.22826   90.30393   1336.694   -9999      132.7028   -9999      7.680482  
4397.8     2.345167   62.81826   90.30654   1335.808   -9999      132.7352   -9999      7.680482  
4398       2.323125   57.84888   90.30914   1334.923   -9999      132.7677   -9999      7.680482  
4398.2     2.328772   54.41788   90.31174   1334.037   -9999      132.8002   -9999      7.678142  
4398.4     2.340719   50.74722   90.31435   1333.151   -9999      132.8328   -9999      7.678142  
4398.6     2.345298   43.98262   90.31696   1332.266   -9999      132.8654   -9999      7.678142  
4398.8     2.333045   45.34211   90.31956   1331.38    -9999      132.898    -9999      7.678142  
4399       2.325617   53.11154   90.32217   1330.495   -9999      132.9306   -9999      7.678142  
4399.2     2.324191   59.21858   90.32477   1329.609   -9999      132.9633   -9999      7.678142  
4399.4     2.325879   66.75443   90.32738   1328.724   -9999      132.996    -9999      7.678142  
4399.6     2.321127   66.99853   90.32998   1327.838   -9999      133.0287   -9999      7.678142  
4399.8     2.326517   67.31377   90.33258   1326.952   -9999      133.0615   -9999      7.678142  
4400       2.31406    68.66282   90.33519   1326.067   -9999      133.0943   -9999      7.678142  
4400.2     2.322291   68.22024   90.33779   1325.181   -9999      133.1271   -9999      7.678142  
4400.4     2.323047   68.13036   90.3404    1324.296   -9999      133.16     -9999      7.678142  
4400.6     2.316527   62.611     90.343     1323.41    -9999      133.1929   -9999      7.678142  
4400.8     2.309675   53.75384   90.3456    1322.524   -9999      133.2258   -9999      7.678142  
4401       2.313197   46.87758   90.34821   1321.639   -9999      133.2587   -9999      7.678142  
4401.2     2.333753   51.46773   90.35081   1320.753   -9999      133.2917   -9999      7.678142  
4401.4     2.332874   60.32325   90.35342   1319.868   -9999      133.3247   -9999      7.678142  
4401.6     2.328426   66.99508   90.35603   1318.982   -9999      133.3577   -9999      7.678142  
4401.8     2.36712    66.92147   90.35863   1318.096   -9999      133.3908   -9999      7.678142  
4402       2.375257   61.53767   90.36124   1317.211   -9999      133.4239   -9999      7.678142  
4402.2     2.34281    60.05181   90.36384   1316.325   -9999      133.457    -9999      7.678142  
4402.4     2.313975   61.34542   90.36644   1315.44    -9999      133.4902   -9999      7.678142  
4402.6     2.317274   61.5256    90.36905   1314.554   -9999      133.5234   -9999      7.678142  
4402.8     2.308601   59.2474    90.37165   1313.668   -9999      133.5566   -9999      7.678133  
4403       2.309516   54.98418   90.37425   1312.783   -9999      133.5898   -9999      7.678133  
4403.2     2.315467   49.93087   90.37686   1311.897   -9999      133.6231   -9999      7.678133  
4403.4     2.316918   55.54665   90.37946   1311.012   -9999      133.6564   -9999      7.678133  
4403.6     2.334133   60.70813   90.38207   1310.126   -9999      133.6897   -9999      7.678133  
4403.8     2.359739   61.90509   90.38467   1309.24    -9999      133.7231   -9999      7.678133  
4404       2.36945    62.23889   90.38728   1308.355   -9999      133.7565   -9999      7.678133  
4404.2     2.3469     55.86622   90.38988   1307.469   -9999      133.79     -9999      7.678133  
4404.4     2.327316   58.13535   90.39249   1306.584   -9999      133.8234   -9999      7.678133  
4404.6     2.313558   58.25772   90.39509   1305.698   -9999      133.8569   -9999      7.678133  
4404.8     2.308978   58.23458   90.3977    1304.812   -9999      133.8904   -9999      7.678133  
4405       2.301555   60.18922   90.4003    1303.927   -9999      133.924    -9999      7.678133  
4405.2     2.292988   61.57582   90.40291   1303.041   -9999      133.9576   -9999      7.678133  
4405.4     2.296575   65.39001   90.40551   1302.156   -9999      133.9912   -9999      7.678133  
4405.6     2.312003   69.02771   90.40811   1301.27    -9999      134.0249   -9999      7.678133  
4405.8     2.323386   72.34418   90.41072   1300.385   -9999      134.0585   -9999      7.678133  
4406       2.319616   71.97      90.41332   1299.499   -9999      134.0923   -9999      7.680482  
4406.2     2.316949   64.92609   90.41593   1298.613   -9999      134.126    -9999      7.680482  
4406.4     2.312086   55.04753   90.41853   1297.728   -9999      134.1598   -9999      7.680482  
4406.6     2.302373   47.44837   90.42113   1296.842   -9999      134.1936   -9999      7.680482  
4406.8     2.303841   48.24217   90.42374   1295.957   -9999      134.2274   -9999      7.680482  
4407       2.313842   57.32217   90.42635   1295.071   -9999      134.2613   -9999      7.680482  
4407.2     2.320079   65.45659   90.42895   1294.185   -9999      134.2952   -9999      7.680482  
4407.4     2.31261    73.27691   90.43156   1293.3     -9999      134.3291   -9999      7.680482  
4407.6     2.323573   75.47578   90.43416   1292.414   -9999      134.3631   -9999      7.680482  
4407.8     2.333166   74.50907   90.43677   1291.529   -9999      134.3971   -9999      7.680482  
4408       2.338099   72.47839   90.43937   1290.643   -9999      134.4311   -9999      7.680482  
4408.2     2.343414   72.11423   90.44197   1289.757   -9999      134.4652   -9999      7.680482  
4408.4     2.352274   72.53403   90.44458   1288.872   -9999      134.4993   -9999      7.680482  
4408.6     2.333099   73.24793   90.44718   1287.986   -9999      134.5334   -9999      7.680482  
