~Version
 VERS              .         2.0                           : CWLS LOG ASCII STANDARD - VERSION 2.0
 WRAP              .         NO                            : ONE LINE PER DEPTH STEP
 DLM               .         SPACE                         : DELIMITING CHARACTER(SPACE TAB OR COMMA)
~Well Information
#_______________________________________________________________________________
#
#PARAMETER_NAME    .UNIT     VALUE                         : DESCRIPTION
#_______________________________________________________________________________
STRT               .m        2400                          : First reference value
STOP               .m        5381.8                        : Last reference value
STEP               .m        0.2                           : Step increment
NULL               .         -9999                         : Missing value
COMP               .                                       : Company
WELL               .         1-ESS-86A-ES                  : Well name
FLD                .                                       : Field
LOC                .                                       : Location
CNTY               .                                       : County
STAT               .                                       : State
CTRY               .                                       : Country
SRVC               .                                       : Service Company
DATE               .                                       : Date
API                .                                       : API number
~Parameter Information Block
#_______________________________________________________________________________
#
#PARAMETER_NAME    .UNIT     VALUE                         : DESCRIPTION
#_______________________________________________________________________________
SET                .         AchillesBR                    : 
TLFamily_Densidade_Aparente_Seca .         Bulk Density                  : 
TLFamily_Fração_de_Areia .                                       : 
TLFamily_Idade__Ma_ .                                       : 
TLFamily_MD        .         Measured Depth                : 
TLFamily_Paleobatimetria_1 .                                       : 
TLFamily_Paleobatimetria_2 .                                       : 
TLFamily_Produtividade_Primária_1 .                                       : 
TLFamily_Produtividade_Primária_2 .                                       : 
TLFamily_Taxa_de_Sedimentação .                                       : 
~Curve Information
#_______________________________________________________________________________
#
#LOGNAME           .UNIT     LOG_ID                        : DESCRIPTION
#_______________________________________________________________________________
MD                 .m                                      :  
Densidade Aparente Seca .g/cm3                                  :  
Fração de Areia    .%                                      :  
Idade         .                                       : [Ma] 
Paleobatimetria_1  .m                                      :  
Paleobatimetria_2  .m                                      :  
Produtividade Primária_1 .                                       : [gC/m²/yr] 
Produtividade Primária_2 .                                       : [gC/m²/yr] 
Taxa de Sedimentação  .                                       : [cm/ka] 
~Ascii
# ...
5177.4     2.599362   90.34602   102.191    778.3783   -9999      162.0171   -9999      3.858025  
5177.6     2.608959   87.62704   102.1962   775.4624   -9999      162.2417   -9999      3.858025  
5177.8     2.616433   88.1347    102.2014   772.5464   -9999      162.4675   -9999      3.858025  
5178       2.636736   90.14748   102.2066   769.6306   -9999      162.6944   -9999      3.858025  
5178.200000000001 2.637546   91.39398   102.2117   766.7147   -9999      162.9225   -9999      3.858025  
5178.4     2.633963   90.18127   102.2169   763.7994   -9999      163.1518   -9999      3.869554  
5178.6     2.635772   89.49197   102.2199   762.1305   -9999      163.2836   -9999      6.742172  
5178.8     2.645264   87.62958   102.2229   760.4615   -9999      163.4157   -9999      6.740368  
5179       2.65025    90.27071   102.2258   758.7927   -9999      163.5483   -9999      6.740361  
5179.200000000001 2.644725   92.24621   102.2288   757.1238   -9999      163.6813   -9999      6.742172  
5179.4     2.634268   93.86793   102.2318   755.4549   -9999      163.8147   -9999      6.740368  
5179.6     2.638322   94.51485   102.2347   753.786    -9999      163.9484   -9999      6.740361  
5179.8     2.641228   93.3587    102.2377   752.1171   -9999      164.0826   -9999      6.742172  
5180       2.642929   92.83304   102.2407   750.4482   -9999      164.2172   -9999      6.740368  
5180.200000000001 2.641531   93.42406   102.2436   748.7793   -9999      164.3522   -9999      6.740361  
5180.4     2.634559   94.12185   102.2466   747.1104   -9999      164.4876   -9999      6.742172  
5180.6     2.632895   93.74308   102.2496   745.4415   -9999      164.6234   -9999      6.740368  
5180.8     2.635251   93.19806   102.2525   743.7726   -9999      164.7597   -9999      6.740361  
5181       2.633682   92.97559   102.2555   742.1037   -9999      164.8964   -9999      6.740361  
5181.200000000001 2.622186   92.89291   102.2585   740.4348   -9999      165.0334   -9999      6.740368  
5181.4     2.622286   92.14868   102.2614   738.7659   -9999      165.171    -9999      6.740361  
5181.6     2.639707   93.43504   102.2644   737.097    -9999      165.3089   -9999      6.740361  
5181.8     2.662431   93.27068   102.2674   735.4281   -9999      165.4473   -9999      6.740368  
5182       2.656984   92.34486   102.2703   733.7592   -9999      165.586    -9999      6.740361  
5182.200000000001 2.643288   90.51756   102.2733   732.0903   -9999      165.7253   -9999      6.740361  
5182.4     2.645694   89.70276   102.2763   730.4214   -9999      165.8649   -9999      6.740368  
5182.6     2.63918    92.28032   102.2792   728.7525   -9999      166.0051   -9999      6.740361  
5182.8     2.654933   93.52658   102.2822   727.0836   -9999      166.1456   -9999      6.740361  
5183       2.660216   95.29961   102.2852   725.4147   -9999      166.2866   -9999      6.740368  
5183.200000000001 2.655843   96.02641   102.2881   723.7458   -9999      166.428    -9999      6.740361  
5183.4     2.656126   97.2715    102.2911   722.0769   -9999      166.5699   -9999      6.740361  
5183.6     2.654056   98.63077   102.2941   720.408    -9999      166.7122   -9999      6.740368  
5183.8     2.662756   98.23753   102.297    718.7391   -9999      166.855    -9999      6.740361  
5184       2.664067   98.15072   102.3      717.0703   -9999      166.9982   -9999      6.740361  
5184.200000000001 2.665265   97.72801   102.303    715.4013   -9999      167.1419   -9999      6.740368  
5184.4     2.656994   97.18534   102.3059   713.7324   -9999      167.286    -9999      6.740361  
5184.6     2.641266   95.40916   102.3089   712.0635   -9999      167.4306   -9999      6.740361  
5184.8     2.625585   92.51762   102.3119   710.3946   -9999      167.5757   -9999      6.740368  
5185       2.613449   90.31223   102.3148   708.7257   -9999      167.7213   -9999      6.740361  
5185.200000000001 2.603788   90.63533   102.3178   707.0568   -9999      167.8673   -9999      6.740361  
5185.4     2.59818    92.54255   102.3208   705.3879   -9999      168.0138   -9999      6.740368  
5185.6     2.622868   93.22832   102.3237   703.719    -9999      168.1607   -9999      6.740361  
5185.8     2.629166   91.42261   102.3267   702.0501   -9999      168.3082   -9999      6.740361  
5186       2.616373   90.76501   102.3297   700.3812   -9999      168.4561   -9999      6.740368  
5186.200000000001 2.606505   91.54978   102.3326   698.7123   -9999      168.6045   -9999      6.740361  
5186.4     2.626164   93.62086   102.3356   697.0435   -9999      168.7534   -9999      6.740361  
5186.6     2.64469    95.73565   102.3386   695.3745   -9999      168.9028   -9999      6.740368  
5186.8     2.639359   97.17881   102.3415   693.7056   -9999      169.0526   -9999      6.740361  
5187       2.636564   97.50839   102.3445   692.0367   -9999      169.203    -9999      6.740361  
5187.200000000001 2.627952   96.89069   102.3475   690.3678   -9999      169.3539   -9999      6.740368  
5187.4     2.6199     95.57098   102.3504   688.6989   -9999      169.5052   -9999      6.740361  
5187.6     2.615432   94.63226   102.3534   687.03     -9999      169.6571   -9999      6.740361  
5187.8     2.628445   94.38462   102.3564   685.3611   -9999      169.8094   -9999      6.742172  
5188       2.636542   93.32518   102.3593   683.6922   -9999      169.9623   -9999      6.740361  
5188.200000000001 2.635569   92.62947   102.3623   682.0234   -9999      170.1157   -9999      6.740361  
5188.4     2.63025    94.24623   102.3653   680.3545   -9999      170.2696   -9999      6.742172  
5188.6     2.630847   96.04449   102.3682   678.6855   -9999      170.424    -9999      6.740361  
5188.8     2.635195   96.46606   102.3712   677.0167   -9999      170.579    -9999      6.740361  
5189       2.641444   95.87737   102.3742   675.3478   -9999      170.7345   -9999      6.742172  
5189.200000000001 2.638625   95.28363   102.3771   673.6788   -9999      170.8904   -9999      6.740361  
5189.4     2.637153   96.11098   102.3801   672.0099   -9999      171.047    -9999      6.740361  
5189.6     2.643067   96.93629   102.3831   670.3411   -9999      171.204    -9999      6.742172  
5189.8     2.645522   96.03447   102.386    668.6721   -9999      171.3616   -9999      6.740361  
5190       2.641932   96.03876   102.389    667.0032   -9999      171.5197   -9999      6.740361  
5190.200000000001 2.640611   96.26518   102.392    665.3344   -9999      171.6784   -9999      6.742172  
5190.4     2.649194   96.8523    102.3949   663.6654   -9999      171.8376   -9999      6.740361  
5190.6     2.65364    97.53601   102.3979   661.9966   -9999      171.9974   -9999      6.740361  
5190.8     2.645317   97.87457   102.4009   660.3277   -9999      172.1577   -9999      6.742172  
5191       2.636944   97.59712   102.4038   658.6588   -9999      172.3186   -9999      6.740361  
5191.200000000001 2.622568   96.86846   102.4068   656.9899   -9999      172.4801   -9999      6.740361  
5191.4     2.640879   95.99493   102.4098   655.321    -9999      172.6421   -9999      6.742172  
5191.6     2.649942   95.23397   102.4128   653.652    -9999      172.8046   -9999      6.740361  
5191.8     2.65494    95.07222   102.4157   651.9832   -9999      172.9678   -9999      6.740361  
5192       2.6402     95.56949   102.4187   650.3143   -9999      173.1315   -9999      6.742172  
5192.200000000001 2.628889   96.29227   102.4217   648.6453   -9999      173.2958   -9999      6.740361  
5192.4     2.624683   98.39962   102.4246   646.9764   -9999      173.4606   -9999      6.740361  
5192.6     2.627984   99.43813   102.4276   645.3076   -9999      173.6261   -9999      6.742172  
5192.8     2.628423   99.86852   102.4305   643.6387   -9999      173.7921   -9999      6.740361  
5193       2.637529   97.49204   102.4335   641.9698   -9999      173.9587   -9999      6.740361  
5193.200000000001 2.621534   93.13012   102.4365   640.3009   -9999      174.1259   -9999      6.742172  
