~Version
 VERS              .         2.0                           : CWLS LOG ASCII STANDARD - VERSION 2.0
 WRAP              .         NO                            : ONE LINE PER DEPTH STEP
 DLM               .         SPACE                         : DELIMITING CHARACTER(SPACE TAB OR COMMA)
~Well Information
#_______________________________________________________________________________
#
#PARAMETER_NAME    .UNIT     VALUE                         : DESCRIPTION
#_______________________________________________________________________________
STRT               .m        2400                          : First reference value
STOP               .m        5381.8                        : Last reference value
STEP               .m        0.2                           : Step increment
NULL               .         -9999                         : Missing value
COMP               .                                       : Company
WELL               .         1-ESS-86A-ES                  : Well name
FLD                .                                       : Field
LOC                .                                       : Location
CNTY               .                                       : County
STAT               .                                       : State
CTRY               .                                       : Country
SRVC               .                                       : Service Company
DATE               .                                       : Date
API                .                                       : API number
~Parameter Information Block
#_______________________________________________________________________________
#
#PARAMETER_NAME    .UNIT     VALUE                         : DESCRIPTION
#_______________________________________________________________________________
SET                .         AchillesBR                    : 
TLFamily_Densidade_Aparente_Seca .         Bulk Density                  : 
TLFamily_Fração_de_Areia .                                       : 
TLFamily_Idade__Ma_ .                                       : 
TLFamily_MD        .         Measured Depth                : 
TLFamily_Paleobatimetria_1 .                                       : 
TLFamily_Paleobatimetria_2 .                                       : 
TLFamily_Produtividade_Primária_1 .                                       : 
TLFamily_Produtividade_Primária_2 .                                       : 
TLFamily_Taxa_de_Sedimentação .                                       : 
~Curve Information
#_______________________________________________________________________________
#
#LOGNAME           .UNIT     LOG_ID                        : DESCRIPTION
#_______________________________________________________________________________
MD                 .m                                      :  
Densidade Aparente Seca .g/cm3                                  :  
Fração de Areia    .%                                      :  
Idade         .                                       : [Ma] 
Paleobatimetria_1  .m                                      :  
Paleobatimetria_2  .m                                      :  
Produtividade Primária_1 .                                       : [gC/m²/yr] 
Produtividade Primária_2 .                                       : [gC/m²/yr] 
Taxa de Sedimentação  .                                       : [cm/ka] 
~Ascii
# ...
4777.4     2.427802   79.73901   95.93652   1104.593   -9999      142.3812   -9999      6.875695  
4777.6     2.430144   79.01111   95.93942   1105.006   -9999      142.3616   -9999      6.875688  
4777.8     2.437026   79.378     95.94233   1105.418   -9999      142.342    -9999      6.877572  
4778       2.428285   80.22986   95.94524   1105.83    -9999      142.3224   -9999      6.875695  
4778.200000000001 2.430492   80.96982   95.94815   1106.242   -9999      142.3028   -9999      6.877572  
4778.4     2.42032    76.56511   95.95106   1106.655   -9999      142.2833   -9999      6.875695  
4778.6     2.414856   67.2806    95.95396   1107.067   -9999      142.2637   -9999      6.875695  
4778.8     2.424194   62.55209   95.95688   1107.479   -9999      142.2442   -9999      6.877572  
4779       2.451543   66.33836   95.95979   1107.892   -9999      142.2246   -9999      6.875695  
4779.200000000001 2.441965   76.14075   95.96269   1108.304   -9999      142.2051   -9999      6.875688  
4779.4     2.426108   82.48648   95.9656    1108.716   -9999      142.1856   -9999      6.877572  
4779.6     2.420651   82.37637   95.96851   1109.128   -9999      142.1661   -9999      6.875695  
4779.8     2.423487   81.31786   95.97142   1109.541   -9999      142.1466   -9999      6.877572  
4780       2.422233   80.89767   95.97433   1109.953   -9999      142.1271   -9999      6.875695  
4780.200000000001 2.418682   82.55236   95.97723   1110.365   -9999      142.1076   -9999      6.875695  
4780.4     2.417409   83.12063   95.98014   1110.777   -9999      142.0881   -9999      6.877572  
4780.6     2.42688    85.45616   95.98305   1111.19    -9999      142.0686   -9999      6.875695  
4780.8     2.431558   85.54927   95.98596   1111.602   -9999      142.0492   -9999      6.877572  
4781       2.423458   85.63174   95.98887   1112.014   -9999      142.0298   -9999      6.877572  
4781.200000000001 2.418606   84.68465   95.99178   1112.427   -9999      142.0103   -9999      6.875695  
4781.4     2.42096    83.65114   95.99468   1112.839   -9999      141.9909   -9999      6.877572  
4781.6     2.421702   84.07462   95.9976    1113.251   -9999      141.9715   -9999      6.875695  
4781.8     2.43393    84.76038   96.0005    1113.445   1113.445   141.9624   141.9624   6.875688  
4782       2.442363   83.38808   96.00341   1112.589   -9999      142.0027   -9999      6.877572  
4782.200000000001 2.443158   82.06107   96.00632   1111.734   -9999      142.043    -9999      6.875695  
4782.4     2.446272   80.2629    96.00922   1110.878   -9999      142.0834   -9999      6.877572  
4782.6     2.45129    79.25157   96.01214   1110.022   -9999      142.1238   -9999      6.875695  
4782.8     2.465674   79.46106   96.01505   1109.167   -9999      142.1642   -9999      6.875695  
4783       2.460622   80.82755   96.01795   1108.311   -9999      142.2047   -9999      6.877572  
4783.200000000001 2.43471    83.38854   96.02086   1107.456   -9999      142.2453   -9999      6.875695  
4783.4     2.403015   85.19962   96.02377   1106.6     -9999      142.2859   -9999      6.875688  
4783.6     2.375749   82.80807   96.02668   1105.745   -9999      142.3265   -9999      6.877572  
4783.8     2.369704   77.04778   96.02959   1104.889   -9999      142.3671   -9999      6.875695  
4784       2.370295   75.50036   96.03249   1104.034   -9999      142.4079   -9999      6.877572  
4784.200000000001 2.366279   77.13301   96.0354    1103.178   -9999      142.4486   -9999      6.875695  
4784.4     2.372825   80.95928   96.03831   1102.322   -9999      142.4894   -9999      6.875695  
4784.6     2.394395   81.15078   96.04122   1101.467   -9999      142.5303   -9999      6.877572  
4784.8     2.418111   80.32398   96.04413   1100.611   -9999      142.5711   -9999      6.875695  
4785       2.435597   80.21573   96.04704   1099.756   -9999      142.6121   -9999      6.877572  
4785.200000000001 2.444764   79.27765   96.04994   1098.9     -9999      142.653    -9999      6.877572  
4785.4     2.442908   76.61861   96.05286   1098.045   -9999      142.6941   -9999      6.875695  
4785.6     2.441833   73.66145   96.05576   1097.189   -9999      142.7351   -9999      6.877572  
4785.8     2.446224   72.9175    96.05867   1096.333   -9999      142.7762   -9999      6.875695  
4786       2.449665   74.86976   96.06158   1095.478   -9999      142.8174   -9999      6.875688  
4786.200000000001 2.435205   77.27298   96.06448   1094.622   -9999      142.8586   -9999      6.877572  
4786.4     2.418128   78.99517   96.0674    1093.767   -9999      142.8998   -9999      6.875695  
4786.6     2.418444   79.1685    96.0703    1092.911   -9999      142.9411   -9999      6.877572  
4786.8     2.421091   79.66695   96.07321   1092.056   -9999      142.9824   -9999      6.875695  
4787       2.418373   79.1873    96.07612   1091.2     -9999      143.0238   -9999      6.875695  
4787.200000000001 2.422028   79.77204   96.07903   1090.345   -9999      143.0652   -9999      6.877572  
4787.4     2.419873   79.51859   96.08194   1089.489   -9999      143.1066   -9999      6.875695  
4787.6     2.414197   77.05129   96.08485   1088.633   -9999      143.1481   -9999      6.875688  
4787.8     2.408277   72.52692   96.08775   1087.778   -9999      143.1897   -9999      6.877572  
4788       2.412384   70.54424   96.09066   1086.922   -9999      143.2313   -9999      6.875695  
4788.200000000001 2.429192   74.0601    96.09357   1086.067   -9999      143.2729   -9999      6.877572  
4788.4     2.444562   79.18086   96.09648   1085.211   -9999      143.3146   -9999      6.875695  
4788.6     2.44758    82.53852   96.09939   1084.356   -9999      143.3563   -9999      6.875695  
4788.8     2.455422   80.41663   96.10229   1083.5     -9999      143.3981   -9999      6.877572  
4789       2.443625   78.52984   96.10521   1082.645   -9999      143.4399   -9999      6.875695  
4789.200000000001 2.43867    77.14844   96.10812   1081.789   -9999      143.4818   -9999      6.877572  
4789.4     2.440282   77.34257   96.11102   1080.933   -9999      143.5237   -9999      6.877572  
4789.6     2.429049   78.46323   96.11393   1080.078   -9999      143.5656   -9999      6.875695  
4789.8     2.431653   78.20373   96.11684   1079.222   -9999      143.6076   -9999      6.877572  
4790       2.427147   79.44267   96.11975   1078.367   -9999      143.6497   -9999      6.875695  
4790.200000000001 2.416698   80.33051   96.12266   1077.511   -9999      143.6918   -9999      6.875688  
4790.4     2.413748   81.20404   96.12556   1076.656   -9999      143.7339   -9999      6.877572  
4790.6     2.424188   81.77258   96.12847   1075.8     -9999      143.7761   -9999      6.875695  
4790.8     2.42406    82.55253   96.13138   1074.945   -9999      143.8183   -9999      6.877572  
4791       2.419417   82.26022   96.13429   1074.089   -9999      143.8606   -9999      6.875695  
4791.200000000001 2.417596   83.09464   96.1372    1073.233   -9999      143.9029   -9999      6.875695  
4791.4     2.417807   82.2524    96.14011   1072.378   -9999      143.9453   -9999      6.877572  
4791.6     2.40573    78.14957   96.14294   1071.545   -9999      143.9865   -9999      7.407407  
4791.8     2.390596   67.04884   96.14564   1070.751   -9999      144.026    -9999      7.407407  
4792       2.365976   58.1073    96.14834   1069.957   -9999      144.0654   -9999      7.407407  
4792.200000000001 2.360044   56.65493   96.15104   1069.163   -9999      144.1049   -9999      7.407407  
4792.4     2.401145   65.65675   96.15374   1068.368   -9999      144.1444   -9999      7.407407  
4792.6     2.435752   74.06272   96.15644   1067.574   -9999      144.184    -9999      7.407407  
4792.8     2.442033   75.8398    96.15913   1066.78    -9999      144.2236   -9999      7.407407  
4793       2.439082   72.75563   96.16183   1065.986   -9999      144.2633   -9999      7.407407  
4793.200000000001 2.473666   71.33887   96.16454   1065.191   -9999      144.303    -9999      7.407407  
