~Version
 VERS              .         2.0                           : CWLS LOG ASCII STANDARD - VERSION 2.0
 WRAP              .         NO                            : ONE LINE PER DEPTH STEP
 DLM               .         SPACE                         : DELIMITING CHARACTER(SPACE TAB OR COMMA)
~Well Information
#_______________________________________________________________________________
#
#PARAMETER_NAME    .UNIT     VALUE                         : DESCRIPTION
#_______________________________________________________________________________
STRT               .m        2400                          : First reference value
STOP               .m        5381.8                        : Last reference value
STEP               .m        0.2                           : Step increment
NULL               .         -9999                         : Missing value
COMP               .                                       : Company
WELL               .         1-ESS-86A-ES                  : Well name
FLD                .                                       : Field
LOC                .                                       : Location
CNTY               .                                       : County
STAT               .                                       : State
CTRY               .                                       : Country
SRVC               .                                       : Service Company
DATE               .                                       : Date
API                .                                       : API number
~Parameter Information Block
#_______________________________________________________________________________
#
#PARAMETER_NAME    .UNIT     VALUE                         : DESCRIPTION
#_______________________________________________________________________________
SET                .         AchillesBR                    : 
TLFamily_Densidade_Aparente_Seca .         Bulk Density                  : 
TLFamily_Fração_de_Areia .                                       : 
TLFamily_Idade__Ma_ .                                       : 
TLFamily_MD        .         Measured Depth                : 
TLFamily_Paleobatimetria_1 .                                       : 
TLFamily_Paleobatimetria_2 .                                       : 
TLFamily_Produtividade_Primária_1 .                                       : 
TLFamily_Produtividade_Primária_2 .                                       : 
TLFamily_Taxa_de_Sedimentação .                                       : 
~Curve Information
#_______________________________________________________________________________
#
#LOGNAME           .UNIT     LOG_ID                        : DESCRIPTION
#_______________________________________________________________________________
MD                 .m                                      :  
Densidade Aparente Seca .g/cm3                                  :  
Fração de Areia    .%                                      :  
Idade         .                                       : [Ma] 
Paleobatimetria_1  .m                                      :  
Paleobatimetria_2  .m                                      :  
Produtividade Primária_1 .                                       : [gC/m²/yr] 
Produtividade Primária_2 .                                       : [gC/m²/yr] 
Taxa de Sedimentação  .                                       : [cm/ka] 
~Ascii
# ...
2594.4     1.862395   87.85965   63.2554    1016.422   -9999      146.8209   -9999      6.654245  
2594.6     1.871649   88.87216   63.2584    1015.999   -9999      146.8434   -9999      6.654245  
2594.8     1.860199   89.141     63.26141   1015.577   -9999      146.866    -9999      6.654245  
2595       1.850031   89.08551   63.26442   1015.154   -9999      146.8885   -9999      6.654245  
2595.2     1.856154   88.22378   63.26742   1014.732   -9999      146.9111   -9999      6.654245  
2595.4     1.875217   88.23958   63.27043   1014.309   -9999      146.9337   -9999      6.654245  
2595.6     1.845385   87.34338   63.27343   1013.887   -9999      146.9563   -9999      6.654245  
2595.8     1.84272    87.59004   63.27644   1013.464   -9999      146.9789   -9999      6.654245  
2596       1.869899   87.81831   63.27944   1013.042   -9999      147.0015   -9999      6.654253  
2596.2     1.893327   87.73743   63.28245   1012.619   -9999      147.0242   -9999      6.654245  
2596.4     1.899799   88.51295   63.28545   1012.197   -9999      147.0468   -9999      6.654245  
2596.6     1.878965   88.07041   63.28846   1011.774   -9999      147.0695   -9999      6.654253  
2596.8     1.860433   88.39286   63.29147   1011.351   -9999      147.0922   -9999      6.654245  
2597       1.816309   88.19934   63.29447   1010.929   -9999      147.1149   -9999      6.654245  
2597.2     1.830962   87.9322    63.29748   1010.506   -9999      147.1376   -9999      6.65601   
2597.4     1.816787   87.09539   63.30048   1010.084   -9999      147.1603   -9999      6.654245  
2597.6     1.813793   87.10382   63.30349   1009.661   -9999      147.183    -9999      6.654245  
2597.8     1.827993   87.2113    63.30649   1009.239   -9999      147.2057   -9999      6.654245  
2598       1.823225   87.28599   63.3095    1008.816   -9999      147.2285   -9999      6.654245  
2598.2     1.673453   87.52381   63.3125    1008.394   -9999      147.2513   -9999      6.654245  
2598.4     1.563755   87.11208   63.31551   1007.971   -9999      147.274    -9999      6.654245  
2598.6     1.467529   86.95435   63.31852   1007.549   -9999      147.2968   -9999      6.654245  
2598.8     1.513329   87.24483   63.32152   1007.126   -9999      147.3197   -9999      6.654245  
2599       1.613797   88.23989   63.32453   1006.703   -9999      147.3425   -9999      6.654245  
2599.2     1.812926   87.92427   63.32753   1006.281   -9999      147.3653   -9999      6.654245  
2599.4     1.781466   87.45766   63.33054   1005.858   -9999      147.3882   -9999      6.654245  
2599.6     1.757424   85.61111   63.33354   1005.436   -9999      147.411    -9999      6.654245  
2599.8     1.712979   84.82412   63.33655   1005.013   -9999      147.4339   -9999      6.654245  
2600       1.751542   84.82485   63.3395    1004.598   -9999      147.4563   -9999      6.797165  
2600.2     1.773281   86.43554   63.34244   1004.185   -9999      147.4788   -9999      6.797165  
2600.4     1.779405   86.17407   63.34539   1003.771   -9999      147.5012   -9999      6.795332  
2600.6     1.78166    86.72143   63.34833   1003.357   -9999      147.5237   -9999      6.795332  
2600.8     1.783961   87.53248   63.35127   1002.944   -9999      147.5461   -9999      6.797165  
2601       1.787084   88.40972   63.35421   1002.53    -9999      147.5686   -9999      6.797165  
2601.2     1.804322   89.7668    63.35715   1002.116   -9999      147.5911   -9999      6.797165  
2601.4     1.788172   89.46275   63.3601    1001.702   -9999      147.6136   -9999      6.795332  
2601.6     1.782186   88.9115    63.36304   1001.289   -9999      147.6361   -9999      6.795332  
2601.8     1.846974   88.04515   63.36599   1000.875   -9999      147.6586   -9999      6.797165  
2602       1.857777   86.39342   63.36893   1000.461   -9999      147.6811   -9999      6.797165  
2602.2     1.822261   85.9277    63.37187   1000.048   -9999      147.7037   -9999      6.797165  
2602.4     1.814109   85.82582   63.37481   999.6339   -9999      147.7262   -9999      6.795332  
2602.6     1.821996   87.09577   63.37775   999.2202   -9999      147.7488   -9999      6.795332  
2602.8     1.82021    87.90038   63.3807    998.8065   -9999      147.7714   -9999      6.797165  
2603       1.865734   88.99139   63.38364   998.3928   -9999      147.794    -9999      6.797165  
2603.2     1.850933   89.79779   63.38659   997.979    -9999      147.8166   -9999      6.797173  
2603.4     1.838995   89.67348   63.38953   997.5653   -9999      147.8392   -9999      6.795332  
2603.6     1.795326   88.88723   63.39247   997.1516   -9999      147.8619   -9999      6.795332  
2603.8     1.787424   87.55688   63.39541   996.7379   -9999      147.8845   -9999      6.797165  
2604       1.780915   87.41776   63.39835   996.3242   -9999      147.9072   -9999      6.797165  
2604.2     1.803226   87.84335   63.4013    995.9105   -9999      147.9299   -9999      6.795332  
2604.4     1.83495    89.40908   63.40424   995.4967   -9999      147.9525   -9999      6.795332  
2604.6     1.85683    90.70216   63.40718   995.083    -9999      147.9753   -9999      6.795332  
2604.8     1.84959    90.17591   63.41013   994.6693   -9999      147.998    -9999      6.797165  
2605       1.869776   89.78999   63.41307   994.2556   -9999      148.0207   -9999      6.797165  
2605.2     1.884722   89.33772   63.41601   993.8419   -9999      148.0434   -9999      6.795332  
2605.4     1.834299   89.02206   63.41896   993.4282   -9999      148.0662   -9999      6.795332  
2605.6     1.830638   87.89957   63.4219    993.0144   -9999      148.0889   -9999      6.795332  
2605.8     1.829507   86.89579   63.42484   992.6007   -9999      148.1117   -9999      6.797165  
2606       1.805252   86.25      63.42778   992.187    -9999      148.1345   -9999      6.797165  
2606.2     1.80341    86.33535   63.43073   991.7733   -9999      148.1573   -9999      6.795332  
2606.4     1.808232   87.49915   63.43367   991.3596   -9999      148.1801   -9999      6.795332  
2606.6     1.796994   86.85435   63.43661   990.9459   -9999      148.203    -9999      6.797165  
2606.8     1.801522   86.74568   63.43955   990.5321   -9999      148.2258   -9999      6.797165  
2607       1.802378   85.57692   63.4425    990.1184   -9999      148.2487   -9999      6.797165  
2607.2     1.802792   85.21533   63.44544   989.7047   -9999      148.2715   -9999      6.795332  
2607.4     1.757657   84.74446   63.44838   989.291    -9999      148.2944   -9999      6.795332  
2607.6     1.775919   82.5328    63.45132   988.8773   -9999      148.3173   -9999      6.797165  
2607.8     1.7556     82.22968   63.45427   988.4636   -9999      148.3402   -9999      6.797165  
2608       1.727342   82.97157   63.45721   988.0498   -9999      148.3632   -9999      6.797165  
2608.2     1.765391   83.40617   63.46015   987.6361   -9999      148.3861   -9999      6.795332  
2608.4     1.8191     85.08553   63.4631    987.2224   -9999      148.409    -9999      6.795332  
2608.6     1.825186   85.3965    63.46604   986.8087   -9999      148.432    -9999      6.797165  
2608.8     1.815348   86.01398   63.46898   986.395    -9999      148.455    -9999      6.797165  
2609       1.802038   88.0535    63.47192   985.9813   -9999      148.478    -9999      6.797173  
2609.2     1.784717   87.3112    63.47487   985.5675   -9999      148.501    -9999      6.795332  
2609.4     1.807001   88.89563   63.47781   985.1538   -9999      148.524    -9999      6.795332  
2609.6     1.843528   88.15118   63.48075   984.7401   -9999      148.547    -9999      6.797165  
2609.8     1.818788   88.21513   63.4837    984.3264   -9999      148.5701   -9999      6.797165  
2610       1.836161   86.87944   63.48664   983.9127   -9999      148.5931   -9999      6.795332  
2610.2     1.823525   87.10363   63.48958   983.499    -9999      148.6162   -9999      6.795332  
2610.4     1.806261   86.32641   63.49252   983.0852   -9999      148.6393   -9999      6.795332  
