~Version
 VERS              .         2.0                           : CWLS LOG ASCII STANDARD - VERSION 2.0
 WRAP              .         NO                            : ONE LINE PER DEPTH STEP
 DLM               .         SPACE                         : DELIMITING CHARACTER(SPACE TAB OR COMMA)
~Well Information
#_______________________________________________________________________________
#
#PARAMETER_NAME    .UNIT     VALUE                         : DESCRIPTION
#_______________________________________________________________________________
STRT               .m        1880.5999                     : First reference value
STOP               .m        5405.7999                     : Last reference value
STEP               .m        0.2                           : Step increment
NULL               .         -9999                         : Missing value
COMP               .         PETROLEO BRASILEIRO S/A       : Company
WELL               .         1-ESS-86A_resample            : Well name
FLD                .                                       : Field
LOC                .                                       : Location
CNTY               .                                       : County
STAT               .         ESPIRITO SANTO                : State
CTRY               .                                       : Country
SRVC               .                                       : Service Company
DATE               .                                       : Date
API                .         342710051600                  : API number
EDF                .M        14.00                         : Elevation Derrick Floor
GDAT               .         SIRGAS2000                    : Geodetic Datum
HZCS               .         UTM                           : Horizontal Coordinate System
LMF                .         MR                            : Log Measure From
LATI               .         -20_24_56.411                 : Latitude
LONG               .         -39_29_19.989                 : Longitude
MC                 .         39 W                          : Meridiano Central
ORIG               .         SIGEO EXPORTACAO PERFIL       : Origem dos dados
ORIGINALWELLNAME   .         1ESS 0086A ES                 : 
WDMS               .M        1841.00                       : Water Depth to Mean Sea Level
X                  .         448953.89                     : Surface X
Y                  .         7742410.09                    : Surface Y
~Parameter Information Block
#_______________________________________________________________________________
#
#PARAMETER_NAME    .UNIT     VALUE                         : DESCRIPTION
#_______________________________________________________________________________
SET                .         ESS86A_resample               : 
TLFamily_CALI      .         Caliper                       : 
TLFamily_DEPT      .         Measured Depth                : 
TLFamily_DT        .         Compressional Slowness        : 
TLFamily_GR        .         Gamma Ray                     : 
TLFamily_HDRS      .         Deep Resistivity              : 
TLFamily_INPEFA_1  .                                       : 
TLFamily_INPEFA_2  .                                       : 
TLFamily_INPEFA_3  .                                       : 
TLFamily_INPEFA_4  .                                       : 
TLFamily_LITO      .                                       : 
TLFamily_NPHI      .         Neutron Porosity              : 
TLFamily_RHOB      .         Bulk Density                  : 
~Curve Information
#_______________________________________________________________________________
#
#LOGNAME           .UNIT     LOG_ID                        : DESCRIPTION
#_______________________________________________________________________________
DEPT               .m                                      :  
CALI               .in                                     : CALIPER 1 CYLINDERDIAMETER 
DT                 .us/ft                                  : DELTA-T (ALSO CALLED SLOWNESS OR INTERVAL TRANSIT TIME) 
GR                 .gAPI                                   : GAMMA RAY 
HDRS               .ohm.m                                  : INDUCTION DEEP RESISTIVITY 
INPEFA_1           .                                       :  
INPEFA_2           .                                       :  
INPEFA_3           .                                       :  
INPEFA_4           .                                       :  
LITO               .                                       :  
NPHI               .%                                      : THERMAL NEUTRON POROSITY (ORIGINAL RATIO METHOD) IN SELECTED LITHOLOGY 
RHOB               .g/cm3                                  : BULK DENSITY 
~Ascii
# ...
4680.3999  13.5348    80.4686    94.5369    2.0492     -0.7623615 -0.3745372 -0.1201394 0.4071539  57         19.9066    2.5738    
4680.5999  13.5187    77.3746    98.8822    2.1193     -0.7830092 -0.4225978 -0.2024911 0.2948657  57         17.6692    2.5579    
4680.7999  13.5027    74.9735    96.1006    2.2292     -0.7917893 -0.4457398 -0.2429592 0.2557782  57         16.484     2.5564    
4680.9999  13.5431    75.25      95.1414    2.2073     -0.8063222 -0.4840243 -0.3148673 0.1388331  57         17.2499    2.5551    
4681.199900000001 13.4781    76.352     93.9221    2.148899999999573 -0.804758  -0.4903809 -0.3353155 0.1053163  57         18.6316    2.5599    
4681.3999  13.2832    77.3521    96.3899    2.0212     -0.7933088 -0.4725002 -0.3089793 0.1760413  57         21.0984    2.5685    
4681.5999  13.2426    80.0842    95.7095    1.9086     -0.8034781 -0.5003944 -0.3622263 0.09591807 57         22.1861    2.5719    
4681.7999  13.2344    81.0942    94.0427    2.1739     -0.7978041 -0.4977391 -0.3671886 0.09258688 57         19.4973    2.556     
4681.9999  13.2263    77.7449    88.8121    2.2426     -0.7987565 -0.5062054 -0.3883325 0.06428055 57         17.3298    2.5332    
4682.199900000001 13.2101    76.4898    85.535     2.227100000000011 -0.7922708 -0.4990606 -0.3827174 0.08557417 57         16.7636    2.5331    
4682.3999  13.2099    77.8509    83.4168    2.2602     -0.7904974 -0.5029852 -0.3982994 0.05983738 57         16.3291    2.5395    
4682.5999  13.2182    78.7861    87.5672    2.3877     -0.7862589 -0.50164   -0.4054615 0.04528149 57         16.3157    2.5507    
4682.7999  13.2344    79.2001    94.6401    2.3169     -0.7803709 -0.4951023 -0.4016183 0.05561226 57         16.1417    2.562     
4682.9999  13.202     80.8673    99.7855    1.9579     -0.7688255 -0.4757666 -0.3744576 0.1138292  57         16.4311    2.5658    
4683.199900000001 13.137     82.6122    102.1297   1.83140000000045 -0.7520221 -0.4441181 -0.3240307 0.224575   57         18.9963    2.5669    
4683.3999  13.0967    81.7003    104.0114   1.9918     -0.753538  -0.4497115 -0.336234  0.2233293  57         16.9931    2.5596    
4683.5999  13.0963    80.8625    106.7155   2.1654     -0.7617863 -0.4666693 -0.3639627 0.2076333  57         13.6598    2.5504    
4683.7999  13.1126    81.7059    108.3454   2.1449     -0.7861791 -0.524113  -0.4713959 0.01271562 57         13.8848    2.5597    
4683.9999  13.1451    82.7245    108.1825   1.9805     -0.8025188 -0.5687449 -0.5641784 -0.182491  57         13.566     2.5821    
4684.199900000001 13.1289    80.4439    103.1237   2.031500000000774 -0.7974128 -0.568311  -0.5797978 -0.2370599 57         13.4623    2.586     
4684.3999  13.0798    75.3352    95.8478    2.2263     -0.799491  -0.5888743 -0.6412244 -0.4123398 57         13.2235    2.577     
4684.5999  13.0884    73.2146    92.1522    2.4749     -0.7762067 -0.5515699 -0.5974796 -0.3800533 57         13.3058    2.5501    
4684.7999  13.0884    74.748     88.7122    2.5694     -0.7607183 -0.5269527 -0.570066  -0.3622704 57         14.2793    2.5528    
4684.9999  13.0802    77.2704    88.7952    2.312      -0.753314  -0.5218816 -0.5801438 -0.4276289 57         16.1701    2.5519    
4685.199900000001 13.1289    80.1225    87.5068    1.913999999998756 -0.7307863 -0.4852255 -0.536756  -0.399474  57         18.717     2.5497    
4685.3999  13.169     83.0993    85.9714    1.7544     -0.7162965 -0.4592559 -0.5031236 -0.3660478 57         21.4332    2.5491    
4685.5999  13.1207    85.5575    84.8247    1.7366     -0.7001292 -0.4322643 -0.4707054 -0.3423856 57         22.8939    2.5643    
4685.7999  13.0964    84.9798    83.4269    1.7818     -0.6858177 -0.4067249 -0.4376591 -0.3097581 57         20.8484    2.5717    
4685.9999  13.0477    79.7092    81.252     1.979      -0.6739904 -0.3853186 -0.4102615 -0.2843236 57         15.756     2.5694    
4686.199900000001 12.9421    78.0867    77.5687    2.324300000001504 -0.6553739 -0.3482763 -0.3532183 -0.1922043 57         12.9721    2.559     
4686.3999  12.9177    82.5624    77.1686    2.3494     -0.6505684 -0.340958  -0.3481206 -0.1977845 57         13.8244    2.5391    
4686.5999  12.9339    85.0719    81.1236    1.9728     -0.643962  -0.3292322 -0.33474   -0.1864523 57         16.8691    2.5422    
4686.7999  12.9015    85.2861    90.1007    1.7914     -0.6506663 -0.3466949 -0.3740367 -0.2843958 57         18.0027    2.5469    
4686.9999  12.9096    85.5765    98.147     1.8255     -0.6348812 -0.3174008 -0.333393  -0.2348099 57         17.7796    2.5554    
4687.199900000001 12.9664    83.9541    98.883     1.916300000000385 -0.6296468 -0.3102915 -0.3313953 -0.2615972 57         19.6604    2.5605    
4687.3999  12.9666    80.2733    93.7757    1.9399     -0.6080698 -0.2663124 -0.2620724 -0.1511678 57         19.2738    2.5535    
4687.5999  13.0313    79.1083    82.5663    1.8727     -0.5904647 -0.2274445 -0.1961517 -0.02781101 57         18.1764    2.5325    
4687.7999  13.1124    82.2823    73.0878    1.2183     -0.5892822 -0.2226541 -0.1883171 -0.01082377 57         21.0388    2.5061    
4687.9999  13.1045    87.7194    67.3467    1.0255     -0.5951629 -0.2293893 -0.1958502 -0.009635938 57         20.213     2.4774    
4688.199900000001 13.072     90.0816    62.7842    1.017900000000047 -0.6143597 -0.2688191 -0.267258  -0.153737  49         19.0534    2.4729    
4688.3999  13.1045    89.1086    61.7754    1.0259     -0.6238573 -0.2913282 -0.3158254 -0.2798842 49         19.3666    2.4662    
4688.5999  13.0315    87.9995    60.0008    0.9871     -0.6096623 -0.2677221 -0.2910627 -0.292063  49         19.311     2.4622    
4688.7999  12.9582    87.6531    59.6807    0.9454     -0.5911427 -0.2295029 -0.2335925 -0.2232137 49         20.3028    2.4664    
4688.9999  12.934     87.9694    60.2018    0.9177     -0.5845791 -0.2142528 -0.212272  -0.2107177 49         21.2899    2.4568    
4689.199900000001 12.9177    88.8112    59.618     0.9318000000000908 -0.5690889 -0.1819567 -0.1639313 -0.1537739 49         21.7858    2.4556    
4689.3999  12.9502    89.3519    61.0329    0.9516     -0.5696325 -0.1797272 -0.1627138 -0.1727946 49         21.7538    2.4652    
4689.5999  12.9419    89.0709    62.8847    0.9571     -0.5647786 -0.1689779 -0.1507935 -0.1832312 49         21.9797    2.4687    
4689.7999  12.9178    88.5967    67.4014    0.952      -0.547165  -0.1312741 -0.09230118 -0.1055887 49         22.0173    2.4618    
4689.9999  12.9177    88.602     68.0503    0.9834000000000001 -0.5419185 -0.116891  -0.07045016 -0.09198772 49         21.8468    2.4545    
4690.199900000001 12.9177    88.6582    67.0448    1.076100000000474 -0.5184239 -0.06199205 0.02541848 0.07925269 49         22.3571    2.4577    
4690.3999  12.9258    87.8929    61.887     1.1506     -0.5172214 -0.05429675 0.03990064 0.1010923  49         21.5279    2.4624    
4690.5999  12.9177    84.8277    56.9291    1.2568     -0.5217065 -0.05733531 0.03745518 0.09346129 49         18.72      2.4635    
4690.7999  12.8769    79.9378    56.2937    1.3235     -0.5154732 -0.03917639 0.06996081 0.146755   49         17.07      2.4799    
4690.9999  12.8609    75.898     60.4818    1.3381     -0.5253036 -0.05485637 0.04343621 0.0855843  49         16.93      2.4943    
4691.199900000001 12.8609    73.9439    69.4865    1.382600000000615 -0.5247175 -0.04870454 0.05399625 0.0884699  57         17.3449    2.5236    
4691.3999  12.8773    73.3316    76.5712    1.5989     -0.5294834 -0.05254106 0.04871693 0.06183916 57         15.1522    2.5602    
4691.5999  12.9664    73.9354    75.0686    1.6192     -0.536738  -0.06533174 0.02199625 -0.02646619 57         16.1737    2.5588    
4691.7999  12.9339    77.7577    67.376     1.1213     -0.5239441 -0.03779313 0.06158762 -0.003933662 57         21.8112    2.5191    
4691.9999  12.8203    84.3929    59.7717    1.0733     -0.5092633 -0.000570446 0.126291   0.08946916 57         21.2903    2.4577    
4692.199900000001 12.7553    87.5255    54.3315    1.059999999999927 -0.5037    0.01747117 0.1588143  0.1284323  49         20.2342    2.4389    
