~Version
 VERS              .         2.0                           : CWLS LOG ASCII STANDARD - VERSION 2.0
 WRAP              .         NO                            : ONE LINE PER DEPTH STEP
 DLM               .         SPACE                         : DELIMITING CHARACTER(SPACE TAB OR COMMA)
~Well Information
#_______________________________________________________________________________
#
#PARAMETER_NAME    .UNIT     VALUE                         : DESCRIPTION
#_______________________________________________________________________________
STRT               .m        2062.5046                     : First reference value
STOP               .m        6413.5046                     : Last reference value
STEP               .m        0.2                           : Step increment
NULL               .         -9999                         : Missing value
COMP               .         PETROLEO BRASILEIRO S/A       : Company
WELL               .         1-ESS-120_resample            : Well name
FLD                .                                       : Field
LOC                .                                       : Location
CNTY               .                                       : County
STAT               .         ESPIRITO SANTO                : State
CTRY               .                                       : Country
SRVC               .                                       : Service Company
DATE               .                                       : Date
API                .         342710278300                  : API number
EDF                .M        25.00                         : Elevation Derrick Floor
ELEV               .M        25.0000                       : Surface Elev
ELEV_TYPE          .         KB                            : Elev Type
GDAT               .         SIRGAS2000                    : Geodetic Datum
HZCS               .         UTM                           : Horizontal Coordinate System
LAT                .         -20.620145                    : Latitude
LMF                .         MR                            : Log Measure From
LON                .         -39.512655                    : Longitude
LATI               .         -20_37_15.239                 : Latitude
LONG               .         -39_30_38.085                 : Longitude
MC                 .         39 W                          : Meridiano Central
ORIG               .         SIGEO EXPORTACAO PERFIL       : Origem dos dados
ORIGINALWELLNAME   .         1ESS 0120  ES                 : 
WDMS               .M        2003.00                       : Water Depth to Mean Sea Level
X                  .         446729.00                     : Surface X
XCOORD             .         446584.000000                 : Surface X
Y                  .         7719623.00                    : Surface Y
YCOORD             .         7719778.000000                : Surface Y
~Parameter Information Block
#_______________________________________________________________________________
#
#PARAMETER_NAME    .UNIT     VALUE                         : DESCRIPTION
#_______________________________________________________________________________
SET                .         ESS120_resample               : 
TLFamily_CALI      .         Caliper                       : 
TLFamily_DEPT      .         Measured Depth                : 
TLFamily_DTCO      .         Compressional Slowness        : 
TLFamily_GR        .         Gamma Ray                     : 
TLFamily_INPEFA_1  .                                       : 
TLFamily_INPEFA_2  .                                       : 
TLFamily_INPEFA_3  .                                       : 
TLFamily_INPEFA_4  .                                       : 
TLFamily_LITO      .                                       : 
TLFamily_LLD       .         Deep Resistivity              : 
TLFamily_NPHI      .         Neutron Porosity              : 
TLFamily_OG        .                                       : 
TLFamily_RHOB_merge .         Bulk Density                  : 
~Curve Information
#_______________________________________________________________________________
#
#LOGNAME           .UNIT     LOG_ID                        : DESCRIPTION
#_______________________________________________________________________________
DEPT               .m                                      :  
CALI               .in                                     : CALIPER 
DTCO               .us/ft                                  : DELTA-T COMPRESSIONAL 
GR                 .gAPI                                   : GAMMA RAY 
INPEFA_1           .                                       :  
INPEFA_2           .                                       :  
INPEFA_3           .                                       :  
INPEFA_4           .                                       :  
LITO               .                                       :  
LLD                .ohm.m                                  : LATEROLOG DEEP RESISTIVITY 
NPHI               .%                                      : THERMAL NEUTRON POROSITY (ORIGINAL RATIO METHOD) IN SELECTED LITHOLOGY 
OG                 .                                       :  
RHOB_merge         .g/cm3                                  :  
~Ascii
# ...
2364.9046  -9999      -9999      32.69345   -0.1070508 0.02086983 0.1696966  0.1872805  57         -9999      -9999      32.69345   -9999     
2365.1046  -9999      -9999      33.41188   -0.09837948 0.04098866 0.1995726  0.2276973  57         -9999      -9999      33.41188   -9999     
2365.3046  -9999      -9999      37.43698   -0.09821706 0.04442091 0.2111761  0.2571886  57         -9999      -9999      37.43698   -9999     
2365.5046  -9999      -9999      38.65459   -0.09889024 0.04404614 0.2149982  0.2733729  57         -9999      -9999      38.65459   -9999     
2365.7046  -9999      -9999      42.72876   -0.1011726 0.03917861 0.211359   0.2778854  57         -9999      -9999      42.72876   -9999     
2365.9046  -9999      -9999      45.53047   -0.1074354 0.02347074 0.1902087  0.2550968  57         -9999      -9999      45.53047   -9999     
2366.1046  -9999      -9999      40.52074   -0.1129709 0.007491602 0.1650279  0.2168566  57         -9999      -9999      40.52074   -9999     
2366.3046  -9999      -9999      33.73974   -0.102646  0.03172296 0.1998078  0.2597538  57         -9999      -9999      33.73974   -9999     
2366.5046  -9999      -9999      36.91196   -0.1056823 0.02642038 0.1963485  0.2642627  57         -9999      -9999      36.91196   -9999     
2366.7046  -9999      -9999      41.01143   -0.106237  0.02340894 0.19161    0.2580843  57         -9999      -9999      41.01143   -9999     
2366.9046  -9999      -9999      38.65499   -0.1021268 0.03458805 0.2108244  0.2896305  57         -9999      -9999      38.65499   -9999     
2367.1046  -9999      -9999      31.47158   -0.1118236 0.009528191 0.1741995  0.2417428  57         -9999      -9999      31.47158   -9999     
2367.3046  -9999      -9999      30.3094    -0.09883684 0.04158115 0.2225528  0.3091463  57         -9999      -9999      30.3094    -9999     
2367.5046  -9999      -9999      32.72229   -0.1120957 0.009928436 0.1795263  0.2598843  57         -9999      -9999      32.72229   -9999     
2367.7046  -9999      -9999      32.23981   -0.1118741 0.006383828 0.169644   0.235775   57         -9999      -9999      32.23981   -9999     
2367.9046  -9999      -9999      36.49746   -0.1038201 0.02686707 0.2011845  0.2787594  57         -9999      -9999      36.49746   -9999     
2368.1046  -9999      -9999      39.59408   -0.1065602 0.02125316 0.196038   0.2787313  57         -9999      -9999      39.59408   -9999     
2368.3046  -9999      -9999      38.63621   -0.1059538 0.0216591  0.1964839  0.2790827  57         -9999      -9999      38.63621   -9999     
2368.5046  -9999      -9999      37.43533   -0.1033455 0.02955385 0.2113971  0.3064443  57         -9999      -9999      37.43533   -9999     
2368.7046  -9999      -9999      38.7995    -0.1269052 -0.03205083 0.117202   0.1717953  57         -9999      -9999      38.7995    -9999     
2368.9046  -9999      -9999      42.42705   -0.1080099 0.009382744 0.1702319  0.2212429  57         -9999      -9999      42.42705   -9999     
2369.1046  -9999      -9999      46.48355   -0.1101389 0.006692038 0.1696212  0.2240258  57         -9999      -9999      46.48355   -9999     
2369.3046  -9999      -9999      43.00072   -0.1124803 -0.002111351 0.1531426  0.1924486  57         -9999      -9999      43.00072   -9999     
2369.5046  -9999      -9999      38.41094   -0.1004842 0.02759376 0.1968303  0.2483507  57         -9999      -9999      38.41094   -9999     
2369.7046  -9999      -9999      37.78941   -0.10091   0.02912084 0.204131   0.269448   57         -9999      -9999      37.78941   -9999     
2369.9046  -9999      -9999      38.14211   -0.1142278 -0.004711242 0.1543846  0.2028493  57         -9999      -9999      38.14211   -9999     
2370.1046  -9999      -9999      40.95635   -0.1097153 0.003026118 0.1613169  0.2002371  57         -9999      -9999      40.95635   -9999     
2370.3046  -9999      -9999      39.59688   -0.1122125 -0.004161724 0.1490777  0.1770954  57         -9999      -9999      39.59688   -9999     
2370.5046  -9999      -9999      40.83336   -0.1111873 -0.003399848 0.1476698  0.1664512  57         -9999      -9999      40.83336   -9999     
2370.7046  -9999      -9999      43.61705   -0.1104174 -0.002244185 0.1482563  0.1609795  57         -9999      -9999      43.61705   -9999     
2370.9046  -9999      -9999      41.38171   -0.1111816 -0.005813688 0.1402745  0.1407408  57         -9999      -9999      41.38171   -9999     
2371.1046  -9999      -9999      38.45755   -0.1102937 -0.005279661 0.1382044  0.1274591  57         -9999      -9999      38.45755   -9999     
2371.3046  -9999      -9999      38.70453   -0.100809  0.01873705 0.1738777  0.1730899  57         -9999      -9999      38.70453   -9999     
2371.5046  -9999      -9999      39.25954   -0.1139457 -0.01425203 0.1247469  0.1046858  57         -9999      -9999      39.25954   -9999     
2371.7046  -9999      -9999      47.15602   -0.1096136 -0.007753529 0.127892   0.0922995  57         -9999      -9999      47.15602   -9999     
2371.9046  -9999      -9999      47.17524   -0.1080312 -0.003928125 0.1326303  0.09352734 57         -9999      -9999      47.17524   -9999     
2372.1046  -9999      -9999      41.57225   -0.1120975 -0.0161121 0.1114263  0.05598553 57         -9999      -9999      41.57225   -9999     
2372.3046  -9999      -9999      39.23087   -0.1120047 -0.01860435 0.1031377  0.03116966 57         -9999      -9999      39.23087   -9999     
2372.5046  -9999      -9999      36.47162   -0.1045995 -0.001027304 0.1271063  0.05654852 57         -9999      -9999      36.47162   -9999     
2372.7046  -9999      -9999      33.84497   -0.1112957 -0.01872128 0.09928279 0.01402567 57         -9999      -9999      33.84497   -9999     
2372.9046  -9999      -9999      39.95092   -0.1033779 -0.000595592 0.1237159  0.04034137 57         -9999      -9999      39.95092   -9999     
2373.1046  -9999      -9999      45.28049   -0.1125946 -0.02363588 0.08937622 -0.007694664 57         -9999      -9999      45.28049   -9999     
2373.3046  -9999      -9999      45.45261   -0.1153374 -0.03501335 0.06588279 -0.05665503 57         -9999      -9999      45.45261   -9999     
2373.5046  -9999      -9999      43.17727   -0.1119123 -0.02896228 0.06989579 -0.06694669 57         -9999      -9999      43.17727   -9999     
2373.7046  -9999      -9999      41.26272   -0.101171  -0.00267555 0.1074616  -0.02168158 57         -9999      -9999      41.26272   -9999     
2373.9046  -9999      -9999      40.39181   -0.1149431 -0.0368931 0.05673181 -0.09259497 57         -9999      -9999      40.39181   -9999     
2374.1046  -9999      -9999      40.20083   -0.1064834 -0.02055288 0.07379279 -0.08777352 57         -9999      -9999      40.20083   -9999     
2374.3046  -9999      -9999      37.09819   -0.1100588 -0.0296456 0.05896036 -0.1147564 57         -9999      -9999      37.09819   -9999     
2374.5046  -9999      -9999      39.48228   -0.1004682 -0.006818536 0.09110378 -0.07706996 57         -9999      -9999      39.48228   -9999     
2374.7046  -9999      -9999      42.63286   -0.1110604 -0.03429851 0.04868958 -0.1403448 57         -9999      -9999      42.63286   -9999     
2374.9046  -9999      -9999      42.05972   -0.1041573 -0.02037322 0.06422259 -0.134086  57         -9999      -9999      42.05972   -9999     
2375.1046  -9999      -9999      41.53497   -0.0897369 0.01764589 0.1230422  -0.05105074 57         -9999      -9999      41.53497   -9999     
2375.3046  -9999      -9999      42.357     -0.1091225 -0.03079953 0.05192334 -0.1453318 57         -9999      -9999      42.357     -9999     
2375.5046  -9999      -9999      39.93899   -0.08568397 0.02507969 0.1315134  -0.04461299 57         -9999      -9999      39.93899   -9999     
2375.7046  -9999      -9999      39.49476   -0.09472653 0.007514062 0.1135774  -0.04981416 57         -9999      -9999      39.49476   -9999     
2375.9046  -9999      -9999      38.54905   -0.09518242 0.004605205 0.1086419  -0.0538475 57         -9999      -9999      38.54905   -9999     
