~Version
 VERS              .         2.0                           : CWLS LOG ASCII STANDARD - VERSION 2.0
 WRAP              .         NO                            : ONE LINE PER DEPTH STEP
 DLM               .         SPACE                         : DELIMITING CHARACTER(SPACE TAB OR COMMA)
~Well Information
#_______________________________________________________________________________
#
#PARAMETER_NAME    .UNIT     VALUE                         : DESCRIPTION
#_______________________________________________________________________________
STRT               .m        1880.5999                     : First reference value
STOP               .m        5405.7999                     : Last reference value
STEP               .m        0.2                           : Step increment
NULL               .         -9999                         : Missing value
COMP               .         PETROLEO BRASILEIRO S/A       : Company
WELL               .         1-ESS-86A_resample            : Well name
FLD                .                                       : Field
LOC                .                                       : Location
CNTY               .                                       : County
STAT               .         ESPIRITO SANTO                : State
CTRY               .                                       : Country
SRVC               .                                       : Service Company
DATE               .                                       : Date
API                .         342710051600                  : API number
EDF                .M        14.00                         : Elevation Derrick Floor
GDAT               .         SIRGAS2000                    : Geodetic Datum
HZCS               .         UTM                           : Horizontal Coordinate System
LMF                .         MR                            : Log Measure From
LATI               .         -20_24_56.411                 : Latitude
LONG               .         -39_29_19.989                 : Longitude
MC                 .         39 W                          : Meridiano Central
ORIG               .         SIGEO EXPORTACAO PERFIL       : Origem dos dados
ORIGINALWELLNAME   .         1ESS 0086A ES                 : 
WDMS               .M        1841.00                       : Water Depth to Mean Sea Level
X                  .         448953.89                     : Surface X
Y                  .         7742410.09                    : Surface Y
~Parameter Information Block
#_______________________________________________________________________________
#
#PARAMETER_NAME    .UNIT     VALUE                         : DESCRIPTION
#_______________________________________________________________________________
SET                .         ESS86A_resample               : 
TLFamily_CALI      .         Caliper                       : 
TLFamily_DEPT      .         Measured Depth                : 
TLFamily_DT        .         Compressional Slowness        : 
TLFamily_GR        .         Gamma Ray                     : 
TLFamily_HDRS      .         Deep Resistivity              : 
TLFamily_INPEFA_1  .                                       : 
TLFamily_INPEFA_2  .                                       : 
TLFamily_INPEFA_3  .                                       : 
TLFamily_INPEFA_4  .                                       : 
TLFamily_LITO      .                                       : 
TLFamily_NPHI      .         Neutron Porosity              : 
TLFamily_RHOB      .         Bulk Density                  : 
~Curve Information
#_______________________________________________________________________________
#
#LOGNAME           .UNIT     LOG_ID                        : DESCRIPTION
#_______________________________________________________________________________
DEPT               .m                                      :  
CALI               .in                                     : CALIPER 1 CYLINDERDIAMETER 
DT                 .us/ft                                  : DELTA-T (ALSO CALLED SLOWNESS OR INTERVAL TRANSIT TIME) 
GR                 .gAPI                                   : GAMMA RAY 
HDRS               .ohm.m                                  : INDUCTION DEEP RESISTIVITY 
INPEFA_1           .                                       :  
INPEFA_2           .                                       :  
INPEFA_3           .                                       :  
INPEFA_4           .                                       :  
LITO               .                                       :  
NPHI               .%                                      : THERMAL NEUTRON POROSITY (ORIGINAL RATIO METHOD) IN SELECTED LITHOLOGY 
RHOB               .g/cm3                                  : BULK DENSITY 
~Ascii
# ...
3732.3999  12.6741    105.449    93.4452    1.176599999999997 0.1436041  -0.0102418 0.12685    0.1133985  57         26.2589    2.4411    
3732.5999  12.674     105.2801   96.9623    1.1754     0.1358977  -0.02653973 0.1003809  0.05443702 57         26.77      2.4339    
3732.7999  12.6335    104.0612   97.8491    1.1856     0.1526322  0.007340695 0.1593455  0.1555791  57         26.7286    2.4314    
3732.9999  12.5766    103.1684   92.9529    1.2091     0.1345747  -0.030578  0.09590464 0.02952886 57         26.3146    2.4256    
3733.1999  12.5928    103.2806   87.9851    1.2291     0.1343184  -0.03307784 0.09060328 0.003676125 57         27.0669    2.4389    
3733.3999  12.6172    103.6275   84.7151    1.227499999999964 0.1240166  -0.05786393 0.04454528 -0.1088658 57         27.2101    2.4439    
3733.5999  12.6172    103.3619   84.7301    1.1922     0.1308139  -0.04825433 0.05535531 -0.1240562 57         26.1498    2.4369    
3733.7999  12.6253    102.7143   82.4624    1.1838     0.1369016  -0.03811574 0.06974597 -0.1264467 57         26.5386    2.4406    
3733.9999  12.601     102.1837   81.7642    1.2276     0.1549569  0.000100929 0.1374548  -0.01118094 57         27.2025    2.442     
3734.1999  12.6335    101.949    84.178     1.232      0.1426051  -0.0262251 0.09295732 -0.1093562 57         26.3231    2.4456    
3734.3999  12.6741    101.6071   84.4853    1.23690000000002 0.1572626  0.001509254 0.1378147  -0.05136799 57         27.6268    2.4495    
3734.5999  12.6253    101.4339   87.8871    1.2468     0.1690081  0.02716158 0.1851063  0.03024172 57         26.7575    2.4427    
3734.7999  12.6253    102.3929   86.741     1.2352     0.1756537  0.0438796  0.2205863  0.105145   57         23.9313    2.4387    
3734.9999  12.6497    103.7551   87.3974    1.2036     0.1726224  0.04031095 0.2215398  0.1192268  57         24.8002    2.4376    
3735.1999  12.6741    104.3418   91.0852    1.1809     0.1656093  0.02567782 0.1989584  0.07410029 57         26.1632    2.4333    
3735.3999  12.6741    103.8929   94.4       1.187300000000069 0.1764584  0.04954341 0.2444318  0.1633776  57         25.9247    2.4338    
3735.5999  12.6822    102.8618   98.1005    1.2071     0.1642046  0.02521514 0.20755    0.1013495  57         24.7061    2.4431    
3735.7999  12.6335    102.2857   94.4507    1.209      0.1814611  0.0620603  0.2753897  0.2362671  57         25.3263    2.4449    
3735.9999  12.6172    103.0051   93.7138    1.2012     0.1800175  0.06302378 0.2863303  0.2805115  57         26.0224    2.4558    
3736.1999  12.6172    104.0765   92.4189    1.1878     0.1547603  0.01131794 0.2023236  0.1329355  57         26.6609    2.4497    
3736.3999  12.6253    104.8725   94.9609    1.176599999999987 0.1655025  0.03214401 0.2388118  0.1978232  57         27.2412    2.4447    
3736.5999  12.6336    105.7147   94.2684    1.1702     0.1772499  0.05700428 0.2849592  0.288691   57         26.3703    2.4445    
3736.7999  12.6659    105.8929   90.5332    1.1658     0.1839257  0.07529943 0.3263581  0.3936123  57         26.1107    2.4482    
3736.9999  12.6253    105.6582   84.8702    1.1639     0.18644    0.08419872 0.35122    0.4705732  57         25.9193    2.4415    
3737.1999  12.6335    105.8622   84.3152    1.1623     0.1744437  0.06463636 0.3296419  0.4690471  57         25.033     2.437     
3737.3999  12.6253    106        83.1785    1.166700000000011 0.1766239  0.07145667 0.349352   0.5366989  57         24.4353    2.4405    
3737.5999  12.5766    105.9846   82.8029    1.1725     0.1562313  0.03069492 0.2863033  0.446237   57         25.7989    2.4448    
3737.7999  12.5766    105.7194   81.985     1.1705     0.1374881  -0.008906714 0.2209516  0.3354135  57         28.0289    2.4496    
3737.9999  12.6659    105.1225   82.9219    1.1663     0.1364644  -0.0128516 0.2147387  0.3286723  57         27.9689    2.4543    
3738.1999  12.6822    104.4694   87.2094    1.167      0.1268327  -0.0390145 0.1638337  0.2166286  57         27.2677    2.4582    
3738.3999  12.6497    104.0765   88.8952    1.165300000000025 0.1434431  -0.006205755 0.2199813  0.3213365  57         27.2523    2.4512    
3738.5999  12.6497    104        91.6671    1.1801     0.1421186  -0.007726077 0.2223878  0.3446283  57         26.2211    2.446     
3738.7999  12.6335    104        88.7967    1.1885     0.1260151  -0.04517198 0.1555828  0.2155427  57         28.4435    2.4428    
3738.9999  12.6416    104        88.1671    1.189      0.151148   0.002978744 0.2349345  0.3573418  57         26.8264    2.4393    
3739.1999  12.6253    104.0153   92.2518    1.1949     0.1704653  0.04689413 0.3195274  0.5519352  57         25.8069    2.438     
3739.3999  12.6091    104.2806   93.0932    1.195899999999991 0.1530005  0.01489049 0.2762585  0.5217242  57         25.6534    2.4457    
3739.5999  12.666     104.7706   91.8202    1.189      0.1495762  0.008933324 0.2730619  0.5552627  57         26.6123    2.4406    
3739.7999  12.6091    104.9643   86.9021    1.1886     0.1372452  -0.01688072 0.2331428  0.5103014  57         27.311     2.4317    
3739.9999  12.6091    104.6633   83.3724    1.1939     0.1328654  -0.02552369 0.2237956  0.5276548  57         26.553     2.4349    
3740.1999  12.6253    104.352    87.3944    1.1956     0.1193847  -0.05440375 0.1780182  0.4736139  57         26.6222    2.4337    
3740.3999  12.6335    104.3826   90.942     1.19880000000002 0.120013   -0.05562038 0.1765832  0.4919306  57         26.8854    2.4327    
3740.5999  12.6659    104.204    96.911     1.2093     0.1104834  -0.07555038 0.1463839  0.4661297  57         27.3767    2.4364    
3740.7999  12.6497    104.2347   102.1605   1.2196     0.1062992  -0.08486919 0.134177   0.4769231  57         29.001     2.4304    
3740.9999  12.6416    104.6429   104.1059   1.2218     0.09595203 -0.1086034 0.0946902  0.429958   57         29.1917    2.4321    
3741.1999  12.6253    104.5357   103.7866   1.2171     0.06835429 -0.1711211 -0.01662535 0.2284264  57         27.6739    2.434     
3741.3999  12.6578    104.3878   96.9481    1.206999999999964 0.08029521 -0.1530918 0.007362454 0.2705272  57         26.0861    2.4329    
3741.5999  12.6577    104.7706   92.3525    1.1951     0.06847683 -0.1830833 -0.04926348 0.1660381  57         25.2165    2.434     
3741.7999  12.6578    105.1939   92.4248    1.1841     0.06276723 -0.2025271 -0.09152414 0.07491028 57         25.6132    2.4371    
3741.9999  12.6822    105.9439   89.2204    1.1729     0.07388051 -0.1860583 -0.07090308 0.1054046  57         25.406     2.4369    
3742.1999  12.6659    106.7347   85.5684    1.1596     0.07125415 -0.1975971 -0.09722736 0.05238137 57         27.3545    2.4401    
3742.3999  12.6984    106.7653   85.9831    1.148799999999989 0.0794424  -0.186096  -0.08313087 0.07875752 57         26.4475    2.4523    
3742.5999  12.7146    106.3877   89.1061    1.146      0.05889945 -0.2357801 -0.176764  -0.1083586 57         25.805     2.4631    
3742.7999  12.6091    106.7041   97.0614    1.137      0.07707682 -0.2065402 -0.1378095 -0.05748228 57         25.9444    2.4571    
3742.9999  12.6253    107.102    101.3818   1.126      0.07390165 -0.2200653 -0.1698091 -0.1331351 57         26.4814    2.4536    
3743.1999  12.6497    106.7449   103.7508   1.1212     0.09109137 -0.1899523 -0.124703  -0.05610526 57         27.6686    2.4548    
3743.3999  12.6578    106.0408   103.16     1.135200000000027 0.08078007 -0.217216  -0.1785985 -0.1681486 57         27.4815    2.4515    
3743.5999  12.7065    104.9943   102.9096   1.1537     0.1019965  -0.179243  -0.121163  -0.07373523 57         25.9187    2.4417    
3743.7999  12.6659    104.1684   102.0143   1.1926     0.1085731  -0.1692531 -0.1075675 -0.04683552 57         24.4178    2.4428    
3743.9999  12.6335    103.5408   102.8736   1.2195     0.1091208  -0.1734925 -0.1207492 -0.07690053 57         26.8334    2.4489    
3744.1999  12.6903    103.2551   107.5878   1.2309     0.1283692  -0.1362732 -0.05880971 0.0474477  57         27.2911    2.4513    
