~Version
 VERS              .         2.0                           : CWLS LOG ASCII STANDARD - VERSION 2.0
 WRAP              .         NO                            : ONE LINE PER DEPTH STEP
 DLM               .         SPACE                         : DELIMITING CHARACTER(SPACE TAB OR COMMA)
~Well Information
#_______________________________________________________________________________
#
#PARAMETER_NAME    .UNIT     VALUE                         : DESCRIPTION
#_______________________________________________________________________________
STRT               .m        2062.5046                     : First reference value
STOP               .m        6413.5046                     : Last reference value
STEP               .m        0.2                           : Step increment
NULL               .         -9999                         : Missing value
COMP               .         PETROLEO BRASILEIRO S/A       : Company
WELL               .         1-ESS-120_resample            : Well name
FLD                .                                       : Field
LOC                .                                       : Location
CNTY               .                                       : County
STAT               .         ESPIRITO SANTO                : State
CTRY               .                                       : Country
SRVC               .                                       : Service Company
DATE               .                                       : Date
API                .         342710278300                  : API number
EDF                .M        25.00                         : Elevation Derrick Floor
ELEV               .M        25.0000                       : Surface Elev
ELEV_TYPE          .         KB                            : Elev Type
GDAT               .         SIRGAS2000                    : Geodetic Datum
HZCS               .         UTM                           : Horizontal Coordinate System
LAT                .         -20.620145                    : Latitude
LMF                .         MR                            : Log Measure From
LON                .         -39.512655                    : Longitude
LATI               .         -20_37_15.239                 : Latitude
LONG               .         -39_30_38.085                 : Longitude
MC                 .         39 W                          : Meridiano Central
ORIG               .         SIGEO EXPORTACAO PERFIL       : Origem dos dados
ORIGINALWELLNAME   .         1ESS 0120  ES                 : 
WDMS               .M        2003.00                       : Water Depth to Mean Sea Level
X                  .         446729.00                     : Surface X
XCOORD             .         446584.000000                 : Surface X
Y                  .         7719623.00                    : Surface Y
YCOORD             .         7719778.000000                : Surface Y
~Parameter Information Block
#_______________________________________________________________________________
#
#PARAMETER_NAME    .UNIT     VALUE                         : DESCRIPTION
#_______________________________________________________________________________
SET                .         ESS120_resample               : 
TLFamily_CALI      .         Caliper                       : 
TLFamily_DEPT      .         Measured Depth                : 
TLFamily_DTCO      .         Compressional Slowness        : 
TLFamily_GR        .         Gamma Ray                     : 
TLFamily_INPEFA_1  .                                       : 
TLFamily_INPEFA_2  .                                       : 
TLFamily_INPEFA_3  .                                       : 
TLFamily_INPEFA_4  .                                       : 
TLFamily_LITO      .                                       : 
TLFamily_LLD       .         Deep Resistivity              : 
TLFamily_NPHI      .         Neutron Porosity              : 
TLFamily_OG        .                                       : 
TLFamily_RHOB_merge .         Bulk Density                  : 
~Curve Information
#_______________________________________________________________________________
#
#LOGNAME           .UNIT     LOG_ID                        : DESCRIPTION
#_______________________________________________________________________________
DEPT               .m                                      :  
CALI               .in                                     : CALIPER 
DTCO               .us/ft                                  : DELTA-T COMPRESSIONAL 
GR                 .gAPI                                   : GAMMA RAY 
INPEFA_1           .                                       :  
INPEFA_2           .                                       :  
INPEFA_3           .                                       :  
INPEFA_4           .                                       :  
LITO               .                                       :  
LLD                .ohm.m                                  : LATEROLOG DEEP RESISTIVITY 
NPHI               .%                                      : THERMAL NEUTRON POROSITY (ORIGINAL RATIO METHOD) IN SELECTED LITHOLOGY 
OG                 .                                       :  
RHOB_merge         .g/cm3                                  :  
~Ascii
# ...
6403.104600000001 8.262574   -9999      158.4027   0.02959521 -0.076544  -0.1267489 -0.05657257 57         7.058910958918528 12.02711   158.4027   2.716713  
6403.3046  8.260222   -9999      158.4027   0.02810835 -0.07608167 -0.1256701 -0.0560158 57         6.737899240861076 11.96918   158.4027   2.708357  
6403.5046  8.261003   -9999      158.4027   0.0266352  -0.07552485 -0.1244919 -0.05542607 57         6.529914200661761 11.87951   158.4027   2.699412  
6403.7046  8.260098   -9999      158.4027   0.02517574 -0.07487354 -0.1232144 -0.05480336 57         6.03164886931468 11.47105   158.4027   2.697311  
6403.904600000001 8.260001   -9999      158.4027   0.02372999 -0.07412776 -0.1218376 -0.05414769 57         6.635245553825759 11.13835   158.4027   2.700217  
6404.104600000001 8.260687   -9999      158.4027   0.02229793 -0.07328749 -0.1203613 -0.05345905 57         10.42444730504948 11.29677   158.4027   2.701928  
6404.3046  8.26       -9999      158.4027   0.02087957 -0.07235272 -0.1187857 -0.05273744 57         11.80410959939948 11.95605   158.4027   2.694743  
6404.5046  8.260288   -9999      158.4027   0.01947491 -0.07132348 -0.1171108 -0.05198287 57         8.695317231418585 11.9032    158.4027   2.700597  
6404.7046  8.260374   -9999      158.4027   0.01808395 -0.07019975 -0.1153365 -0.05119533 57         9.848788345393972 12.13823   158.4027   2.711249  
6404.904600000001 8.260475   -9999      158.4027   0.01670669 -0.06898154 -0.1134628 -0.05037483 57         10.31454319774267 13.11695   158.4027   2.716005  
6405.104600000001 8.260349   -9999      158.4027   0.01534312 -0.06766884 -0.1114897 -0.04952136 57         10.32893761187514 13.56025   158.4027   2.708405  
6405.3046  8.260651   -9999      158.4027   0.01399326 -0.06626166 -0.1094173 -0.04863494 57         10.7163567470231 13.5732    158.4027   2.712613  
6405.5046  8.259725   -9999      158.4027   0.01265709 -0.06475998 -0.1072456 -0.04771554 57         11.2746655128518 13.5732    158.4027   2.71138   
6405.7046  -9999      -9999      158.4027   0.01133463 -0.06316383 -0.1049744 -0.04676319 57         -9999      -9999      158.4027   -9999     
6405.904600000001 -9999      -9999      158.4027   0.01002586 -0.06147319 -0.1026039 -0.04577788 57         -9999      -9999      158.4027   -9999     
6406.104600000001 -9999      -9999      158.4027   0.008730792 -0.05968807 -0.1001341 -0.0447596 57         -9999      -9999      158.4027   -9999     
6406.3046  -9999      -9999      158.4027   0.007449423 -0.05780846 -0.09756487 -0.04370837 57         -9999      -9999      158.4027   -9999     
6406.5046  -9999      -9999      158.4027   0.006181753 -0.05583436 -0.09489629 -0.04262417 57         -9999      -9999      158.4027   -9999     
6406.7046  -9999      -9999      158.4027   0.004927781 -0.05376578 -0.09212836 -0.04150701 57         -9999      -9999      158.4027   -9999     
6406.904600000001 -9999      -9999      158.4027   0.003687509 -0.05160272 -0.08926106 -0.0403569 57         -9999      -9999      158.4027   -9999     
6407.104600000001 -9999      -9999      158.4027   0.002460936 -0.04934517 -0.08629441 -0.03917383 57         -9999      -9999      158.4027   -9999     
6407.3046  -9999      -9999      158.4027   0.001248062 -0.04699314 -0.08322838 -0.03795779 57         -9999      -9999      158.4027   -9999     
6407.5046  -9999      -9999      158.4027   0.0000489  -0.04454662 -0.080063  -0.0367088 57         -9999      -9999      158.4027   -9999     
6407.7046  -9999      -9999      158.4027   -0.00113659 -0.04200561 -0.07679825 -0.03542685 57         -9999      -9999      158.4027   -9999     
6407.904600000001 -9999      -9999      158.4027   -0.002308367 -0.03937012 -0.07343415 -0.03411194 57         -9999      -9999      158.4027   -9999     
6408.104600000001 -9999      -9999      158.4027   -0.003466446 -0.03664015 -0.06997069 -0.03276408 57         -9999      -9999      158.4027   -9999     
6408.3046  -9999      -9999      158.4027   -0.004610825 -0.03381569 -0.06640786 -0.03138325 57         -9999      -9999      158.4027   -9999     
6408.5046  -9999      -9999      158.4027   -0.005741505 -0.03089675 -0.06274568 -0.02996947 57         -9999      -9999      158.4027   -9999     
6408.7046  -9999      -9999      158.4027   -0.006858487 -0.02788332 -0.05898412 -0.02852273 57         -9999      -9999      158.4027   -9999     
6408.904600000001 -9999      -9999      158.4027   -0.007961769 -0.02477541 -0.05512321 -0.02704304 57         -9999      -9999      158.4027   -9999     
6409.104600000001 -9999      -9999      158.4027   -0.009051352 -0.02157301 -0.05116294 -0.02553038 -9         -9999      -9999      158.4027   -9999     
6409.3046  -9999      -9999      158.4027   -0.01012724 -0.01827612 -0.04710331 -0.02398477 -9         -9999      -9999      158.4027   -9999     
6409.5046  -9999      -9999      158.4027   -0.01118942 -0.01488476 -0.04294432 -0.0224062 -9         -9999      -9999      158.4027   -9999     
6409.7046  -9999      -9999      158.4027   -0.01223791 -0.0113989 -0.03868596 -0.02079468 -9         -9999      -9999      158.4027   -9999     
6409.904600000001 -9999      -9999      158.4027   -0.0132727 -0.007818564 -0.03432825 -0.0191502 -9         -9999      -9999      158.4027   -9999     
6410.104600000001 -9999      -9999      158.4027   -0.01429378 -0.004143741 -0.02987117 -0.01747276 -9         -9999      -9999      158.4027   -9999     
6410.3046  -9999      -9999      158.4027   -0.01530117 -0.000374433 -0.02531473 -0.01576236 -9         -9999      -9999      158.4027   -9999     
6410.5046  -9999      -9999      158.4027   -0.01629486 0.00348936 -0.02065894 -0.01401901 -9         -9999      -9999      158.4027   -9999     
6410.7046  -9999      -9999      158.4027   -0.004150042 -0.009239368 -0.02562603 -0.013631  -9         -9999      -9999      158.4027   -9999     
6410.904600000001 -9999      -9999      158.4027   -0.01533786 0.004924707 -0.0162212 -0.01152403 -9         -9999      -9999      158.4027   -9999     
6411.104600000001 -9999      -9999      158.4027   -0.004957708 -0.004766369 -0.01917735 -0.01085428 -9         -9999      -9999      158.4027   -9999     
6411.3046  -9999      -9999      158.4027   -0.008046301 -0.000715082 -0.01560526 -0.009579193 -9         -9999      -9999      158.4027   -9999     
6411.5046  -9999      -9999      158.4027   -0.006119658 -0.001265416 -0.0140353 -0.008489543 -9         -9999      -9999      158.4027   -9999     
6411.7046  -9999      -9999      158.4027   -0.004349095 -0.002411521 -0.01314315 -0.007569747 -9         -9999      -9999      158.4027   -9999     
6411.904600000001 -9999      -9999      158.4027   -0.00466325 -0.001060322 -0.01093797 -0.006529229 -9         -9999      -9999      158.4027   -9999     
6412.104600000001 -9999      -9999      158.4027   -0.002931066 -0.002034212 -0.009987433 -0.005665174 -9         -9999      -9999      158.4027   -9999     
6412.3046  -9999      -9999      158.4027   -0.002889126 -0.00135423 -0.008335136 -0.004780326 -9         -9999      -9999      158.4027   -9999     
6412.5046  -9999      -9999      158.4027   -0.001950584 -0.0015448 -0.007119757 -0.003971369 -9         -9999      -9999      158.4027   -9999     
6412.7046  -9999      -9999      158.4027   -0.001444757 -0.001447804 -0.005880337 -0.00320911 -9         -9999      -9999      158.4027   -9999     
6412.904600000001 -9999      -9999      158.4027   -0.001019371 -0.001255782 -0.004644734 -0.002488085 -9         -9999      -9999      158.4027   -9999     
6413.104600000001 -9999      -9999      158.4027   -0.00072463 -0.000926924 -0.003380112 -0.001797173 -9         -9999      -9999      158.4027   -9999     
6413.3046  -9999      -9999      158.4027   -0.000461205 -0.000631195 -0.00221147 -0.001158789 -9         -9999      -9999      158.4027   -9999     
6413.5046  -9999      -9999      158.4027   -0.000160084 -0.000354118 -0.001085294 -0.000556968 -9         -9999      -9999      158.4027   -9999     
