~Version
 VERS              .         2.0                           : CWLS LOG ASCII STANDARD - VERSION 2.0
 WRAP              .         NO                            : ONE LINE PER DEPTH STEP
 DLM               .         SPACE                         : DELIMITING CHARACTER(SPACE TAB OR COMMA)
~Well Information
#_______________________________________________________________________________
#
#PARAMETER_NAME    .UNIT     VALUE                         : DESCRIPTION
#_______________________________________________________________________________
STRT               .m        2062.5046                     : First reference value
STOP               .m        6413.5046                     : Last reference value
STEP               .m        0.2                           : Step increment
NULL               .         -9999                         : Missing value
COMP               .         PETROLEO BRASILEIRO S/A       : Company
WELL               .         1-ESS-120_resample            : Well name
FLD                .                                       : Field
LOC                .                                       : Location
CNTY               .                                       : County
STAT               .         ESPIRITO SANTO                : State
CTRY               .                                       : Country
SRVC               .                                       : Service Company
DATE               .                                       : Date
API                .         342710278300                  : API number
EDF                .M        25.00                         : Elevation Derrick Floor
ELEV               .M        25.0000                       : Surface Elev
ELEV_TYPE          .         KB                            : Elev Type
GDAT               .         SIRGAS2000                    : Geodetic Datum
HZCS               .         UTM                           : Horizontal Coordinate System
LAT                .         -20.620145                    : Latitude
LMF                .         MR                            : Log Measure From
LON                .         -39.512655                    : Longitude
LATI               .         -20_37_15.239                 : Latitude
LONG               .         -39_30_38.085                 : Longitude
MC                 .         39 W                          : Meridiano Central
ORIG               .         SIGEO EXPORTACAO PERFIL       : Origem dos dados
ORIGINALWELLNAME   .         1ESS 0120  ES                 : 
WDMS               .M        2003.00                       : Water Depth to Mean Sea Level
X                  .         446729.00                     : Surface X
XCOORD             .         446584.000000                 : Surface X
Y                  .         7719623.00                    : Surface Y
YCOORD             .         7719778.000000                : Surface Y
~Parameter Information Block
#_______________________________________________________________________________
#
#PARAMETER_NAME    .UNIT     VALUE                         : DESCRIPTION
#_______________________________________________________________________________
SET                .         ESS120_resample               : 
TLFamily_CALI      .         Caliper                       : 
TLFamily_DEPT      .         Measured Depth                : 
TLFamily_DTCO      .         Compressional Slowness        : 
TLFamily_GR        .         Gamma Ray                     : 
TLFamily_INPEFA_1  .                                       : 
TLFamily_INPEFA_2  .                                       : 
TLFamily_INPEFA_3  .                                       : 
TLFamily_INPEFA_4  .                                       : 
TLFamily_LITO      .                                       : 
TLFamily_LLD       .         Deep Resistivity              : 
TLFamily_NPHI      .         Neutron Porosity              : 
TLFamily_OG        .                                       : 
TLFamily_RHOB_merge .         Bulk Density                  : 
~Curve Information
#_______________________________________________________________________________
#
#LOGNAME           .UNIT     LOG_ID                        : DESCRIPTION
#_______________________________________________________________________________
DEPT               .m                                      :  
CALI               .in                                     : CALIPER 
DTCO               .us/ft                                  : DELTA-T COMPRESSIONAL 
GR                 .gAPI                                   : GAMMA RAY 
INPEFA_1           .                                       :  
INPEFA_2           .                                       :  
INPEFA_3           .                                       :  
INPEFA_4           .                                       :  
LITO               .                                       :  
LLD                .ohm.m                                  : LATEROLOG DEEP RESISTIVITY 
NPHI               .%                                      : THERMAL NEUTRON POROSITY (ORIGINAL RATIO METHOD) IN SELECTED LITHOLOGY 
OG                 .                                       :  
RHOB_merge         .g/cm3                                  :  
~Ascii
# ...
5283.104600000001 9.38256    54.70644   68.10541   -0.1413285 0.2424554  0.3630392  0.1168118  8          61.91526647907631 0.9378819  68.10541   2.662334  
5283.3046  9.395618   54.25698   62.15423   -0.1439576 0.2432794  0.3832047  0.1676628  8          55.84210707460552 1.154711   62.15423   2.665802  
5283.5046  9.417119   53.62235   48.25512   -0.1690857 0.1828392  0.3056862  0.07300813 8          57.73450213705969 0.9774657  48.25512   2.667821  
5283.704600000001 9.43149    52.69419   35.99434   -0.1620384 0.1987861  0.3350658  0.1079633  8          71.99216011151002 0.7210831  35.99434   2.67019   
5283.9046  9.431194   52.21505   30.63955   -0.1751278 0.1653891  0.2918526  0.04547221 8          124.1868893680749 0.6380072  30.63955   2.672411  
5284.104600000001 9.444824   52.11281   31.0859    -0.1633257 0.1934044  0.3383408  0.1021605  8          134.6191890362086 0.5476409  31.0859    2.665791  
5284.3046  9.465971   52.0227    36.22139   -0.1625083 0.1981231  0.3572013  0.1391966  8          138.5955828787495 0.3728791  36.22139   2.664215  
5284.5046  9.466953   51.99397   39.75594   -0.1676218 0.1855377  0.3476511  0.1339495  8          142.59236298626 0.2657046  39.75594   2.669546  
5284.704600000001 9.469809   51.99725   36.46003   -0.1654866 0.1914005  0.3655705  0.1658545  8          145.3082711608953 0.2849454  36.46003   2.682385  
5284.9046  9.467917   51.89938   32.07095   -0.1631099 0.1996499  0.3902172  0.216658   8          148.201597690135 0.3432468  32.07095   2.688376  
5285.104600000001 9.468665   51.97472   32.99626   -0.1710288 0.1811717  0.374025   0.2115024  8          150.5726625183668 0.4014684  32.99626   2.692115  
5285.3046  9.4653     52.00898   34.20377   -0.1841073 0.145858   0.3268408  0.1499959  8          152.6976700937002 0.3643346  34.20377   2.685181  
5285.5046  9.469282   52.2252    33.60986   -0.1790522 0.1557142  0.3452677  0.1730652  8          153.9987897060327 0.2847862  33.60986   2.687864  
5285.704600000001 9.466469   52.62052   39.43114   -0.1867039 0.134391   0.3184028  0.1360151  8          157.8330912056051 0.3498572  39.43114   2.702775  
5285.9046  9.469568   53.17087   56.79112   -0.1760627 0.1595889  0.3609204  0.1942732  8          172.243432584878 0.554921   56.79112   2.710954  
5286.104600000001 9.467801   54.38388   65.39898   -0.1777645 0.1558234  0.36417    0.2100883  48         191.805613402422 0.809396   65.39898   2.692484  
5286.3046  9.4682     56.06747   63.39046   -0.1874202 0.1302315  0.3319139  0.1705074  48         215.880829096875 0.9009343  63.39046   2.669603  
5286.5046  9.466116   57.70462   69.65174   -0.1809024 0.1439558  0.3559075  0.2023056  48         148.046036725306 1.341011   69.65174   2.672495  
5286.704600000001 9.469234   59.48189   74.93634   -0.1907142 0.1184449  0.3234638  0.1615517  48         38.35619365112886 3.750811   74.93634   2.6768    
5286.9046  9.467374   60.65253   75.7586    -0.1764539 0.1518166  0.3765031  0.2337687  48         27.86327106532855 6.349655   75.7586    2.670942  
5287.104600000001 9.484807   60.5024    69.68154   -0.1813558 0.1421434  0.3728004  0.2464729  48         31.00281796284096 6.385348   69.68154   2.658445  
5287.3046  9.522864   58.97742   62.97167   -0.1928434 0.1103168  0.3278952  0.1859985  48         61.53258461403399 6.225009   62.97167   2.648787  
5287.5046  9.582184   57.75333   62.49137   -0.181027  0.1368398  0.3683202  0.237825   48         86.58555515195059 6.525466   62.49137   2.612458  
5287.704600000001 9.573969   56.73692   65.29439   -0.178937  0.1433365  0.3851476  0.2746807  48         99.5936429215441 4.178724   65.29439   2.63187   
5287.9046  9.530751   55.6018    65.62761   -0.1898067 0.1148206  0.3464495  0.2322755  48         117.2452375820446 1.903928   65.62761   2.645091  
5288.104600000001 9.530073   54.78836   67.97224   -0.1915356 0.1068067  0.3343073  0.2193462  48         124.4123747187572 1.183097   67.97224   2.640066  
5288.3046  9.537197   54.65696   75.74599   -0.2113901 0.05175969 0.2491495  0.09991273 48         107.7931312988468 0.8016324  75.74599   2.646602  
5288.5046  9.539748   54.58403   79.16258   -0.2177772 0.02680856 0.2018022  0.01464652 48         102.2661498339031 0.6455618  79.16258   2.653777  
5288.704600000001 9.557167   54.65011   78.52964   -0.2033111 0.05187147 0.2251547  0.01669562 48         100.9415798249517 0.6517628  78.52964   2.642032  
5288.9046  9.596354   54.86056   73.7496    -0.2059713 0.04281398 0.2085159  -0.01180109 48         102.5567712237506 0.6250269  73.7496    2.629862  
5289.104600000001 9.612565   54.79093   70.36052   -0.2018417 0.04395348 0.1995198  -0.04207776 48         106.678833923982 0.6594917  70.36052   2.631981  
5289.3046  9.59097    54.7014    74.14436   -0.1982753 0.04621241 0.1939278  -0.06564279 48         105.3000184907971 0.6603071  74.14436   2.634027  
5289.5046  9.553535   54.55651   76.44807   -0.1924092 0.05387719 0.1962142  -0.07554007 48         104.6809158714741 0.6317958  76.44807   2.637326  
5289.704600000001 9.507065   54.69038   77.96802   -0.1724597 0.09914326 0.2588308  0.009481666 48         104.2801772423584 0.6218925  77.96802   2.647565  
5289.9046  9.453984   54.83907   74.07307   -0.182425  0.07442491 0.2250193  -0.01598052 48         104.5500387848621 0.6296421  74.07307   2.654943  
5290.104600000001 9.434019   54.53587   71.09388   -0.1757891 0.08459352 0.235123   0.005413909 48         105.1181360219288 0.6990613  71.09388   2.689651  
5290.3046  9.432095   54.43496   75.70171   -0.1911828 0.04162693 0.1680899  -0.0755528 48         107.7157058268127 0.7074744  75.70171   2.700348  
5290.5046  9.43081    54.88348   77.06189   -0.181206  0.05912492 0.1867654  -0.04778358 48         112.3323103386542 0.5540631  77.06189   2.657066  
5290.704600000001 9.429988   55.05431   73.20026   -0.1904797 0.03105615 0.1414331  -0.09934055 48         118.7992107627341 0.4415678  73.20026   2.593406  
5290.9046  9.426828   56.57542   75.43573   -0.192822  0.01746329 0.1131435  -0.1382319 48         121.0440868903546 0.560441   75.43573   2.587847  
5291.104600000001 9.42454    59.5903    81.29858   -0.186252  0.02817942 0.1233988  -0.1189576 57         80.33837296651787 1.102804   81.29858   2.604116  
5291.3046  9.424919   62.21595   90.02762   -0.2017726 -0.01665981 0.05094469 -0.2112307 57         41.74232058275764 4.322505   90.02762   2.620026  
5291.5046  9.422786   63.19785   96.16803   -0.2162355 -0.06500311 -0.0362766 -0.3481501 57         32.93359411354008 10.73959   96.16803   2.621233  
5291.704600000001 9.408335   61.68445   87.29239   -0.2052701 -0.05209101 -0.03764941 -0.3847036 57         32.37690461671549 11.33859   87.29239   2.609516  
5291.9046  9.395      58.76049   76.31252   -0.1849762 -0.00773494 0.0187888  -0.3189783 57         43.73514488010933 5.675762   76.31252   2.603543  
5292.104600000001 9.39646    56.22096   71.3538    -0.1894802 -0.02460215 -0.01275256 -0.3634312 8          75.40458028673457 2.093213   71.3538    2.610762  
5292.3046  9.391576   55.10841   69.87744   -0.1823407 -0.01564019 -0.0105682 -0.3729695 8          107.1889467074845 1.340657   69.87744   2.610671  
5292.5046  9.375229   54.74503   67.79575   -0.1704335 0.00965369 0.02223783 -0.3280683 8          111.4979877927177 1.110091   67.79575   2.609501  
5292.704600000001 9.360821   54.67204   60.61984   -0.1666567 0.01559168 0.02858031 -0.3118664 8          111.4051192725903 0.9836295  60.61984   2.625433  
5292.9046  9.35689    54.60361   61.59058   -0.170713  -0.000975209 -0.002281374 -0.3552798 8          113.2237554798489 0.9023201  61.59058   2.621844  
5293.104600000001 9.358278   54.67428   67.08762   -0.146756  0.05601604 0.0807412  -0.2332368 48         114.5501496365817 0.8597524  67.08762   2.615951  
5293.3046  9.353033   54.61877   76.01592   -0.162044  0.01617117 0.02351356 -0.2910883 48         115.153692607097 0.8440059  76.01592   2.618815  
5293.5046  9.33554    54.58824   78.21766   -0.1485454 0.04401628 0.0606645  -0.2350217 48         116.3733431938754 0.8900094  78.21766   2.609962  
