~Version
 VERS              .         2.0                           : CWLS LOG ASCII STANDARD - VERSION 2.0
 WRAP              .         NO                            : ONE LINE PER DEPTH STEP
 DLM               .         SPACE                         : DELIMITING CHARACTER(SPACE TAB OR COMMA)
~Well Information
#_______________________________________________________________________________
#
#PARAMETER_NAME    .UNIT     VALUE                         : DESCRIPTION
#_______________________________________________________________________________
STRT               .m        2430.3999                     : First reference value
STOP               .m        5554.9999                     : Last reference value
STEP               .m        0.2                           : Step increment
NULL               .         -9999                         : Missing value
COMP               .         PETROLEO BRASILEIRO S/A       : Company
WELL               .         1-ESS-186_resample            : Well name
FLD                .                                       : Field
LOC                .                                       : Location
CNTY               .                                       : County
STAT               .         ESPIRITO SANTO                : State
CTRY               .                                       : Country
SRVC               .                                       : Service Company
DATE               .                                       : Date
API                .         342710339400                  : API number
EDF                .M        25.00                         : Elevation Derrick Floor
GDAT               .         SIRGAS2000                    : Geodetic Datum
HZCS               .         UTM                           : Horizontal Coordinate System
LAT                .         -20.356499                    : Latitude
LONG               .         -39.496292                    : Longitude
MC                 .         39 W                          : Meridiano Central
ORIG               .         SIGEO EXPORTACAO PERFIL       : Origem dos dados
WDMS               .M        1798.00                       : Water Depth to Mean Sea Level
XCOORD             .         448202.60                     : Surface X
YCOORD             .         7748989.80                    : Surface Y
~Parameter Information Block
#_______________________________________________________________________________
#
#PARAMETER_NAME    .UNIT     VALUE                         : DESCRIPTION
#_______________________________________________________________________________
SET                .         ESS186_resample               : 
TLFamily_CALI      .         Caliper                       : 
TLFamily_DEPT      .         Measured Depth                : 
TLFamily_DT        .         Compressional Slowness        : 
TLFamily_DTS       .         Shear Slowness                : 
TLFamily_GR        .         Gamma Ray                     : 
TLFamily_INPEFA_1  .                                       : 
TLFamily_INPEFA_2  .                                       : 
TLFamily_INPEFA_3  .                                       : 
TLFamily_INPEFA_4  .                                       : 
TLFamily_LITO      .                                       : 
TLFamily_NPHI      .         Neutron Porosity              : 
TLFamily_OG        .                                       : 
TLFamily_RESD      .         Deep Resistivity              : 
TLFamily_RESM      .         Medium Resistivity            : 
TLFamily_RESS      .         Shallow Resistivity           : 
TLFamily_RHOB      .         Bulk Density                  : 
TLFamily_TVD       .         True Vertical Depth           : 
~Curve Information
#_______________________________________________________________________________
#
#LOGNAME           .UNIT     LOG_ID                        : DESCRIPTION
#_______________________________________________________________________________
DEPT               .m                                      :  
CALI               .in                                     :  
DT                 .us/ft                                  :  
DTS                .us/ft                                  :  
GR                 .gAPI                                   : GAMMA RAY 
INPEFA_1           .                                       :  
INPEFA_2           .                                       :  
INPEFA_3           .                                       :  
INPEFA_4           .                                       :  
LITO               .Sem                                    : Não definido 
NPHI               .%                                      : THERMAL NEUTRON POROSITY (ORIGINAL RATIO METHOD) IN SELECTED LITHOLOGY 
OG                 .                                       :  
RESD               .ohm.m                                  :  
RESM               .ohm.m                                  :  
RESS               .ohm.m                                  :  
RHOB               .g/cm3                                  :  
TVD                .                                       : Vertical Depth 
~Ascii
# ...
3484.9999  -9999      -9999      -9999      59.97078   0.008982304 -0.02703281 -0.2482751 -0.3335719 57         -9999      59.97078   1.098914   1.122522   1.148289025385298 -9999      3484.914905249344
3485.1999  -9999      -9999      -9999      59.93163   0.02735495 0.004648452 -0.1942347 -0.2466728 57         -9999      59.93163   1.079498   1.080476   1.118926944329533 -9999      3485.1149 
3485.3999  -9999      -9999      -9999      58.62693   0.03138822 0.01494746 -0.1732027 -0.2166803 57         -9999      58.62693   1.06687    1.016721   1.035842419099534 -9999      3485.314842782152
3485.5999  -9999      -9999      -9999      60.43262   0.03994617 0.033029   -0.1374837 -0.150461  57         -9999      60.43262   1.073527   0.9263696  0.8375724335426931 -9999      3485.5148 
3485.7999  -9999      -9999      -9999      63.37822   0.04803823 0.05044033 -0.1022167 -0.08055837 57         -9999      63.37822   1.087837   0.933647   0.8244801842838774 -9999      3485.7148 
3485.9999  -9999      -9999      -9999      65.82783   0.05847015 0.07406286 -0.05173779 0.04148111 57         -9999      65.82783   1.098234   1.075871   1.113568255945187 -9999      3485.914749081364
3486.1999  -9999      -9999      -9999      58.21157   0.04556073 0.05984235 -0.06583434 0.02966865 57         -9999      58.21157   1.12537    1.219027   1.330542729657771 -9999      3486.1147 
3486.3999  -9999      -9999      -9999      54.38884   0.03542547 0.04587767 -0.08656674 -0.02213206 57         -9999      54.38884   1.142255   1.22403    1.279092934186478 -9999      3486.3147 
3486.5999  -9999      -9999      -9999      56.2477    0.03598202 0.049272   -0.07822327 -0.01654791 57         -9999      56.2477    1.145735   1.207169   1.232492771975384 -9999      3486.514655380578
3486.7999  -9999      -9999      -9999      58.41188   0.03781589 0.05358157 -0.07017225 -0.01934803 57         -9999      58.41188   1.144427   1.181579   1.198253253824646 -9999      3486.7146 
3486.9999  -9999      -9999      -9999      58.22866   0.03592141 0.05246996 -0.0710817 -0.0425633 57         -9999      58.22866   1.142971   1.129388   1.101923720190352 -9999      3486.914592913386
3487.1999  -9999      -9999      -9999      58.76799   0.04307889 0.06544207 -0.048526  -0.01867545 57         -9999      58.76799   1.143708   1.111966   1.075510971559725 -9999      3487.114499999999
3487.3999  -9999      -9999      -9999      59.363     0.05468687 0.08786675 -0.005930934 0.06195438 57         -9999      59.363     1.143817   1.146443   1.158211241129571 -9999      3487.3145 
3487.5999  -9999      -9999      -9999      55.81237   0.06301408 0.1057059  0.03082464 0.1427252  57         -9999      55.81237   1.150498   1.18573    1.206469155053116 -9999      3487.514499212599
3487.7999  -9999      -9999      -9999      56.40929   0.05491373 0.0984531  0.0271608  0.1477144  57         -9999      56.40929   1.164403   1.242702   1.27999270182334 -9999      3487.7144 
3487.9999  -9999      -9999      -9999      57.36367   0.05037332 0.09324608 0.02133488 0.130292   57         -9999      57.36367   1.159678   1.287932   1.384102166950561 -9999      3487.9144 
3488.1999  -9999      -9999      -9999      55.21281   0.05173779 0.09743816 0.03104208 0.1434228  57         -9999      55.21281   1.133166   1.275286   1.433728123113061 -9999      3488.1144 
3488.3999  -9999      -9999      -9999      53.80125   0.05690205 0.1095443  0.0572986  0.2014821  57         -9999      53.80125   1.089589   1.12564    1.239887696762589 -9999      3488.3143 
3488.5999  -9999      -9999      -9999      53.29518   0.05108138 0.1037556  0.0526513  0.1931092  57         -9999      53.29518   1.061365   0.9832137  0.990175632338267 -9999      3488.5143 
3488.7999  -9999      -9999      -9999      53.17287   0.04197315 0.09067033 0.03172221 0.1333991  57         -9999      53.17287   1.051677   0.9640629  1.00587344145189 -9999      3488.714211811024
3488.9999  -9999      -9999      -9999      52.78392   0.04508169 0.09672064 0.04199233 0.1320892  57         -9999      52.78392   1.059615   1.054204   1.154815920164278 -9999      3488.9142 
3489.1999  -9999      -9999      -9999      56.15123   0.04882949 0.1033416  0.05221687 0.1236977  57         -9999      56.15123   1.094144   1.111993   1.172875053628847 -9999      3489.1142 
3489.3999  -9999      -9999      -9999      60.43094   0.05110871 0.1081353  0.05977759 0.1090758  57         -9999      60.43094   1.119906   1.137309   1.158739969498443 -9999      3489.314118110236
3489.5999  -9999      -9999      -9999      61.81063   0.08545649 0.1674015  0.1662349  0.3287497  57         -9999      61.81063   1.132681   1.147755   1.158345597750383 -9999      3489.5141 
3489.7999  -9999      -9999      -9999      60.60843   0.07809164 0.1628758  0.1696656  0.3512695  57         -9999      60.60843   1.142123   1.157863   1.165195172024639 -9999      3489.7141 
3489.9999  -9999      -9999      -9999      59.9096    0.08686462 0.1843212  0.2180673  0.4778747  57         -9999      59.9096    1.151163   1.167812   1.175010040286313 -9999      3489.914024409448
3490.1999  -9999      -9999      -9999      58.77073   0.08200639 0.182725   0.2262582  0.5226266  57         -9999      58.77073   1.166561   1.184942   1.195066460472143 -9999      3490.114  
3490.3999  -9999      -9999      -9999      56.67614   0.08005422 0.1855975  0.2418636  0.5863975  57         -9999      56.67614   1.1911     1.236203   1.270018230275819 -9999      3490.314  
3490.5999  -9999      -9999      -9999      55.08197   0.06305907 0.162434   0.2097714  0.5377933  57         -9999      55.08197   1.206207   1.272937   1.321163826608663 -9999      3490.513930708662
3490.7999  -9999      -9999      -9999      56.91278   0.0653559  0.1683657  0.2238426  0.5765744  57         -9999      56.91278   1.21422    1.28071    1.334305812817451 -9999      3490.7139 
3490.9999  -9999      -9999      -9999      59.38414   0.0673332  0.17619    0.2449816  0.6458766  57         -9999      59.38414   1.21873    1.282827   1.334001031352981 -9999      3490.91386824147
3491.1999  -9999      -9999      -9999      60.31919   0.04031864 0.1351672  0.178505   0.5125572  57         -9999      60.31919   1.2095     1.26234    1.323744247824214 -9999      3491.1138 
3491.3999  -9999      -9999      -9999      59.7174    0.05500814 0.1594804  0.2204024  0.6009736  57         -9999      59.7174    1.147243   1.121355   1.224873089213432 -9999      3491.3138 
3491.5999  -9999      -9999      -9999      60.57662   0.03522145 0.129125   0.169632   0.4923941  57         -9999      60.57662   1.154917   1.102538   1.154020930796558 -9999      3491.513774540683
3491.7999  -9999      -9999      -9999      62.7061    0.03997502 0.1368246  0.180938   0.5051313  57         -9999      62.7061    1.19897    1.201671   1.219598757247522 -9999      3491.7137 
3491.9999  -9999      -9999      -9999      62.83917   0.03061    0.1220173  0.153591   0.4332212  57         -9999      62.83917   1.201298   1.218025   1.242261278394151 -9999      3491.9137 
3492.1999  -9999      -9999      -9999      60.98583   0.04364085 0.1434166  0.1883493  0.4972878  57         -9999      60.98583   1.200678   1.215623   1.220723378859353 -9999      3492.113680839895
3492.3999  -9999      -9999      -9999      59.49014   0.03296899 0.1278742  0.1618518  0.4385982  57         -9999      59.49014   1.197236   1.217062   1.228386856432308 -9999      3492.3136 
3492.5999  -9999      -9999      -9999      53.88493   0.02353414 0.1108392  0.126643   0.3381795  57         -9999      53.88493   1.188575   1.223777   1.256181216215949 -9999      3492.5136 
3492.7999  -9999      -9999      -9999      53.34864   0.03643276 0.1303178  0.1543234  0.3743028  57         -9999      53.34864   1.176196   1.225285   1.26943681006474 -9999      3492.7135 
3492.9999  -9999      -9999      -9999      54.92778   0.02578506 0.1127824  0.1201739  0.2834149  57         -9999      54.92778   1.161339   1.216716   1.272135428407432 -9999      3492.9135 
