~Version
 VERS              .         2.0                           : CWLS LOG ASCII STANDARD - VERSION 2.0
 WRAP              .         NO                            : ONE LINE PER DEPTH STEP
 DLM               .         SPACE                         : DELIMITING CHARACTER(SPACE TAB OR COMMA)
~Well Information
#_______________________________________________________________________________
#
#PARAMETER_NAME    .UNIT     VALUE                         : DESCRIPTION
#_______________________________________________________________________________
STRT               .m        2062.5046                     : First reference value
STOP               .m        6413.5046                     : Last reference value
STEP               .m        0.2                           : Step increment
NULL               .         -9999                         : Missing value
COMP               .         PETROLEO BRASILEIRO S/A       : Company
WELL               .         1-ESS-120_resample            : Well name
FLD                .                                       : Field
LOC                .                                       : Location
CNTY               .                                       : County
STAT               .         ESPIRITO SANTO                : State
CTRY               .                                       : Country
SRVC               .                                       : Service Company
DATE               .                                       : Date
API                .         342710278300                  : API number
EDF                .M        25.00                         : Elevation Derrick Floor
ELEV               .M        25.0000                       : Surface Elev
ELEV_TYPE          .         KB                            : Elev Type
GDAT               .         SIRGAS2000                    : Geodetic Datum
HZCS               .         UTM                           : Horizontal Coordinate System
LAT                .         -20.620145                    : Latitude
LMF                .         MR                            : Log Measure From
LON                .         -39.512655                    : Longitude
LATI               .         -20_37_15.239                 : Latitude
LONG               .         -39_30_38.085                 : Longitude
MC                 .         39 W                          : Meridiano Central
ORIG               .         SIGEO EXPORTACAO PERFIL       : Origem dos dados
ORIGINALWELLNAME   .         1ESS 0120  ES                 : 
WDMS               .M        2003.00                       : Water Depth to Mean Sea Level
X                  .         446729.00                     : Surface X
XCOORD             .         446584.000000                 : Surface X
Y                  .         7719623.00                    : Surface Y
YCOORD             .         7719778.000000                : Surface Y
~Parameter Information Block
#_______________________________________________________________________________
#
#PARAMETER_NAME    .UNIT     VALUE                         : DESCRIPTION
#_______________________________________________________________________________
SET                .         ESS120_resample               : 
TLFamily_CALI      .         Caliper                       : 
TLFamily_DEPT      .         Measured Depth                : 
TLFamily_DTCO      .         Compressional Slowness        : 
TLFamily_GR        .         Gamma Ray                     : 
TLFamily_INPEFA_1  .                                       : 
TLFamily_INPEFA_2  .                                       : 
TLFamily_INPEFA_3  .                                       : 
TLFamily_INPEFA_4  .                                       : 
TLFamily_LITO      .                                       : 
TLFamily_LLD       .         Deep Resistivity              : 
TLFamily_NPHI      .         Neutron Porosity              : 
TLFamily_OG        .                                       : 
TLFamily_RHOB_merge .         Bulk Density                  : 
~Curve Information
#_______________________________________________________________________________
#
#LOGNAME           .UNIT     LOG_ID                        : DESCRIPTION
#_______________________________________________________________________________
DEPT               .m                                      :  
CALI               .in                                     : CALIPER 
DTCO               .us/ft                                  : DELTA-T COMPRESSIONAL 
GR                 .gAPI                                   : GAMMA RAY 
INPEFA_1           .                                       :  
INPEFA_2           .                                       :  
INPEFA_3           .                                       :  
INPEFA_4           .                                       :  
LITO               .                                       :  
LLD                .ohm.m                                  : LATEROLOG DEEP RESISTIVITY 
NPHI               .%                                      : THERMAL NEUTRON POROSITY (ORIGINAL RATIO METHOD) IN SELECTED LITHOLOGY 
OG                 .                                       :  
RHOB_merge         .g/cm3                                  :  
~Ascii
# ...
3248.5046  -9999      80.41694   100.7446   0.1612383  0.1991738  0.4160046  0.3855208  49         -9999      3.871827   100.7446   2.700311  
3248.7046  -9999      73.08074   98.00911   0.1476215  0.1765518  0.3991189  0.3948269  6          -9999      3.737735   98.00911   2.638652  
3248.9046  -9999      67.13718   100.1205   0.1427168  0.1667466  0.3903199  0.3968896  6          -9999      5.017957   100.1205   2.639355  
3249.104600000001 -9999      62.76632   105.0121   0.1144786  0.09961979 0.2959911  0.2791156  6          -9999      6.332537   105.0121   2.604389  
3249.3046  -9999      60.33734   110.1107   0.09972825 0.05930628 0.2306947  0.1751854  6          -9999      6.842387   110.1107   2.591076  
3249.5046  -9999      55.77423   118.9769   0.0874855  0.02247367 0.1645747  0.05121811 6          -9999      7.927777   118.9769   2.574853  
3249.7046  -9999      64.16181   128.7087   0.117706   0.09162781 0.2541728  0.1317716  6          -9999      8.879827   128.7087   2.569063  
3249.9046  -9999      89.46468   136.3248   0.1125412  0.0836733  0.2449126  0.1121703  6          -9999      9.522772   136.3248   2.586274  
3250.104600000001 -9999      103.9751   133.5205   0.126928   0.1158282  0.2847238  0.1400769  6          -9999      12.63528   133.5205   2.526835  
3250.3046  -9999      115.3363   127.7711   0.1444976  0.1663942  0.3656105  0.2538092  6          -9999      20.72457   127.7711   2.400295  
3250.5046  -9999      119.3456   123.5374   0.1146352  0.1012596  0.2806423  0.1621902  49         -9999      28.67849   123.5374   2.275619  
3250.7046  -9999      118.0137   120.027    0.09715361 0.04936961 0.1905797  0.00889211 49         -9999      32.97326   120.027    2.160923  
3250.9046  -9999      117.3365   105.6186   0.1060918  0.0712783  0.2167963  0.02184451 49         -9999      35.01628   105.6186   2.142085  
3251.104600000001 -9999      116.4076   98.93601   0.08234364 0.005199191 0.1049678  -0.1680154 49         -9999      35.95656   98.93601   2.121948  
3251.3046  -9999      109.9164   110.3816   0.1145473  0.07784523 0.1947774  -0.09962852 49         -9999      34.94328   110.3816   2.133461  
3251.5046  -9999      101.0851   116.8169   0.1256269  0.1104594  0.2440626  -0.04171437 49         -9999      31.10365   116.8169   2.156836  
3251.7046  -9999      96.1348    120.3862   0.1169668  0.08678224 0.2022774  -0.1209705 49         -9999      26.66889   120.3862   2.326478  
3251.9046  -9999      93.8247    126.4463   0.1425494  0.1516823  0.2945189  -0.01456918 49         -9999      25.77114   126.4463   2.425671  
3252.104600000001 -9999      96.33254   140.6281   0.1473557  0.1705712  0.3292114  0.04367309 49         -9999      26.85314   140.6281   2.35938   
3252.3046  -9999      99.2688    153.5153   0.1369705  0.1500151  0.3039009  0.02106811 49         -9999      28.83548   153.5153   2.371365  
3252.5046  -9999      105.3422   156.6728   0.1302821  0.1321964  0.2739007  -0.02566452 49         -9999      35.17157   156.6728   2.374855  
3252.7046  -9999      105.4264   136.5164   0.1230878  0.1153575  0.2469791  -0.06608282 49         -9999      42.57829   136.5164   2.288292  
3252.9046  -9999      86.00109   117.9271   0.1204354  0.1060611  0.2263333  -0.1076728 49         -9999      37.16651   117.9271   2.236396  
3253.104600000001 -9999      68.10719   108.1079   0.1206691  0.1036545  0.2146911  -0.141473  49         -9999      22.04593   108.1079   2.22878   
3253.3046  -9999      58.86409   101.1177   0.1269975  0.1195656  0.2343782  -0.1227698 49         -9999      16.56962   101.1177   2.575146  
3253.5046  -9999      60.74239   112.6133   0.1178056  0.09396968 0.1898498  -0.1964025 49         -9999      15.39456   112.6133   2.429779  
3253.7046  -9999      66.05575   135.3064   0.1332919  0.1310088  0.2388559  -0.1434707 49         -9999      12.8098    135.3064   2.59866   
3253.9046  -9999      74.53159   143.1274   0.1443263  0.1627968  0.290024   -0.06320412 49         -9999      10.28775   143.1274   2.578952  
3254.104600000001 -9999      82.05795   142.5011   0.1462122  0.1709694  0.3062321  -0.02667153 49         -9999      12.55412   142.5011   2.533953  
3254.3046  -9999      89.74858   127.7856   0.1324528  0.1395735  0.2633386  -0.07064845 49         -9999      20.12534   127.7856   2.408887  
3254.5046  -9999      93.45639   109.1451   0.1465902  0.1742408  0.3137696  0.001202986 49         -9999      32.11881   109.1451   2.343143  
3254.7046  -9999      92.35655   105.2708   0.149956   0.1892949  0.3447181  0.06865004 49         -9999      35.83242   105.2708   2.292506  
3254.9046  -9999      94.28953   104.2406   0.1544261  0.2039871  0.372779   0.1331531  49         -9999      29.49962   104.2406   2.127849  
3255.104600000001 -9999      98.80019   101.2507   0.1504337  0.2007786  0.3787185  0.1800962  49         -9999      29.14166   101.2507   2.142194  
3255.3046  -9999      107.7001   108.0078   0.1414024  0.1822049  0.3595972  0.1926596  49         -9999      33.51662   108.0078   2.328812  
3255.5046  -9999      116.483    120.174    0.1072753  0.09608082 0.2322436  0.03933032 49         -9999      42.1856    120.174    2.32844   
3255.7046  -9999      120.2866   129.123    0.1216925  0.1269761  0.2714278  0.09397856 49         -9999      47.35348   129.123    2.341935  
3255.9046  -9999      120.0013   131.2113   0.11971    0.1239735  0.2704134  0.1174924  49         -9999      42.08504   131.2113   2.27582   
3256.104600000001 -9999      110.0974   127.9159   0.1170204  0.1189457  0.2672245  0.1429386  49         -9999      36.46046   127.9159   2.235664  
3256.3046  -9999      95.37205   122.0869   0.09908598 0.07489131 0.2054322  0.08659305 49         -9999      41.24155   122.0869   2.176326  
3256.5046  -9999      93.27058   121.0384   0.1015049  0.07844243 0.2087715  0.1052449  49         -9999      37.3547    121.0384   2.327065  
3256.7046  -9999      100.4183   117.7894   0.09129456 0.05370216 0.1738896  0.07917055 49         -9999      26.39871   117.7894   2.594596  
3256.9046  -9999      103.3997   110.4217   0.08012859 0.02187216 0.1218989  0.01423687 49         -9999      22.63424   110.4217   2.387433  
3257.104600000001 -9999      100.9797   105.9004   0.07449895 0.002545393 0.08416168 -0.04378386 49         -9999      30.15794   105.9004   2.241928  
3257.3046  -9999      101.7412   112.589    0.07257678 -0.00955363 0.05417863 -0.09988766 49         -9999      36.87655   112.589    2.248021  
3257.5046  -9999      102.2149   114.9402   0.08406311 0.01627894 0.0858123  -0.06289397 49         -9999      36.85908   114.9402   2.303396  
3257.7046  -9999      99.83745   111.3271   0.08209313 0.009196174 0.07084709 -0.08241762 49         -9999      33.48005   111.3271   2.334645  
3257.9046  -9999      96.46529   108.3566   0.08291344 0.008537392 0.0646406  -0.09414618 49         -9999      29.81934   108.3566   2.304874  
3258.104600000001 -9999      94.45937   113.1493   0.08901464 0.02168828 0.07945813 -0.07829081 49         -9999      28.7262    113.1493   2.326525  
3258.3046  -9999      95.46949   123.3002   0.09316971 0.03204001 0.09276456 -0.05839881 49         -9999      32.14946   123.3002   2.398211  
3258.5046  -9999      99.1939    142.2883   0.09723365 0.041286   0.10365    -0.04293884 49         -9999      30.49768   142.2883   2.250209  
3258.7046  -9999      104.4666   147.2762   0.09997026 0.04822762 0.1124071  -0.02779965 49         -9999      23.51524   147.2762   2.345712  
3258.9046  -9999      109.5109   137.6203   0.1046731  0.05997457 0.1281739  -0.002442188 49         -9999      20.37323   137.6203   2.319874  
3259.104600000001 -9999      111.5646   129.1219   0.1162629  0.09154741 0.1775841  0.08102555 49         -9999      22.8149    129.1219   2.271589  
3259.3046  -9999      111.1344   133.4509   0.09514654 0.04048017 0.104101   -0.000922412 49         -9999      27.04026   133.4509   2.236712  
3259.5046  -9999      109.3537   136.8345   0.1007091  0.04935954 0.1094508  0.000101803 49         -9999      29.601     136.8345   2.211582  
