~Version
 VERS              .         2.0                           : CWLS LOG ASCII STANDARD - VERSION 2.0
 WRAP              .         NO                            : ONE LINE PER DEPTH STEP
 DLM               .         SPACE                         : DELIMITING CHARACTER(SPACE TAB OR COMMA)
~Well Information
#_______________________________________________________________________________
#
#PARAMETER_NAME    .UNIT     VALUE                         : DESCRIPTION
#_______________________________________________________________________________
STRT               .m        2062.5046                     : First reference value
STOP               .m        6413.5046                     : Last reference value
STEP               .m        0.2                           : Step increment
NULL               .         -9999                         : Missing value
COMP               .         PETROLEO BRASILEIRO S/A       : Company
WELL               .         1-ESS-120_resample            : Well name
FLD                .                                       : Field
LOC                .                                       : Location
CNTY               .                                       : County
STAT               .         ESPIRITO SANTO                : State
CTRY               .                                       : Country
SRVC               .                                       : Service Company
DATE               .                                       : Date
API                .         342710278300                  : API number
EDF                .M        25.00                         : Elevation Derrick Floor
ELEV               .M        25.0000                       : Surface Elev
ELEV_TYPE          .         KB                            : Elev Type
GDAT               .         SIRGAS2000                    : Geodetic Datum
HZCS               .         UTM                           : Horizontal Coordinate System
LAT                .         -20.620145                    : Latitude
LMF                .         MR                            : Log Measure From
LON                .         -39.512655                    : Longitude
LATI               .         -20_37_15.239                 : Latitude
LONG               .         -39_30_38.085                 : Longitude
MC                 .         39 W                          : Meridiano Central
ORIG               .         SIGEO EXPORTACAO PERFIL       : Origem dos dados
ORIGINALWELLNAME   .         1ESS 0120  ES                 : 
WDMS               .M        2003.00                       : Water Depth to Mean Sea Level
X                  .         446729.00                     : Surface X
XCOORD             .         446584.000000                 : Surface X
Y                  .         7719623.00                    : Surface Y
YCOORD             .         7719778.000000                : Surface Y
~Parameter Information Block
#_______________________________________________________________________________
#
#PARAMETER_NAME    .UNIT     VALUE                         : DESCRIPTION
#_______________________________________________________________________________
SET                .         ESS120_resample               : 
TLFamily_CALI      .         Caliper                       : 
TLFamily_DEPT      .         Measured Depth                : 
TLFamily_DTCO      .         Compressional Slowness        : 
TLFamily_GR        .         Gamma Ray                     : 
TLFamily_INPEFA_1  .                                       : 
TLFamily_INPEFA_2  .                                       : 
TLFamily_INPEFA_3  .                                       : 
TLFamily_INPEFA_4  .                                       : 
TLFamily_LITO      .                                       : 
TLFamily_LLD       .         Deep Resistivity              : 
TLFamily_NPHI      .         Neutron Porosity              : 
TLFamily_OG        .                                       : 
TLFamily_RHOB_merge .         Bulk Density                  : 
~Curve Information
#_______________________________________________________________________________
#
#LOGNAME           .UNIT     LOG_ID                        : DESCRIPTION
#_______________________________________________________________________________
DEPT               .m                                      :  
CALI               .in                                     : CALIPER 
DTCO               .us/ft                                  : DELTA-T COMPRESSIONAL 
GR                 .gAPI                                   : GAMMA RAY 
INPEFA_1           .                                       :  
INPEFA_2           .                                       :  
INPEFA_3           .                                       :  
INPEFA_4           .                                       :  
LITO               .                                       :  
LLD                .ohm.m                                  : LATEROLOG DEEP RESISTIVITY 
NPHI               .%                                      : THERMAL NEUTRON POROSITY (ORIGINAL RATIO METHOD) IN SELECTED LITHOLOGY 
OG                 .                                       :  
RHOB_merge         .g/cm3                                  :  
~Ascii
# ...
6117.3046  8.696483   60.25803   102.7768   -0.2040641 -0.2289266 -0.2237762 0.1120487  57         20.79837959636602 7.54563    102.7768   2.629973  
6117.5046  8.695201   60.33839   97.24043   -0.2100543 -0.2422105 -0.2453409 0.09120834 57         20.31774614300498 6.865275   97.24043   2.635057  
6117.704600000001 8.683806   60.43609   94.79886   -0.2079002 -0.2362814 -0.2404215 0.1016674  57         23.50960168924015 5.690496   94.79886   2.620884  
6117.9046  8.684188   59.89899   92.70866   -0.2233168 -0.2757012 -0.3052069 0.01087224 57         25.31389874967135 5.992708   92.70866   2.618524  
6118.104600000001 8.683045   59.55145   92.94791   -0.2199767 -0.2712914 -0.3102992 -0.01369004 57         26.44137877316244 7.733396   92.94791   2.625175  
6118.3046  8.698098   59.4782    97.91418   -0.2204211 -0.2742649 -0.3239128 -0.04848872 57         28.29006607947038 8.268201   97.91418   2.640817  
6118.5046  8.697248   59.28294   102.4686   -0.2000478 -0.2224151 -0.2523974 0.04009678 57         39.86284835256451 7.61006    102.4686   2.645671  
6118.704600000001 8.701837   59.47383   113.0115   -0.1979425 -0.2132489 -0.2390382 0.0627625  57         51.74713740850994 7.448631   113.0115   2.64748   
6118.9046  8.716802   59.66816   112.8902   -0.194756  -0.2005704 -0.2190945 0.09969743 57         60.32395759953077 8.028074   112.8902   2.631882  
6119.104600000001 8.732801   59.53605   110.3584   -0.2113956 -0.2393405 -0.2774233 0.02650066 57         62.24410530239125 7.429425   110.3584   2.603392  
6119.3046  8.731134   59.36384   108.7194   -0.2141245 -0.2476083 -0.2975813 -0.01393522 57         53.21236786545338 6.457394   108.7194   2.587238  
6119.5046  8.71458    59.29245   106.7198   -0.2175552 -0.2552727 -0.3149543 -0.04954834 57         47.56536210009899 5.894856   106.7198   2.578474  
6119.704600000001 8.716183   59.49401   103.9164   -0.2253815 -0.2786813 -0.3624794 -0.1446317 57         46.60271283817668 5.532998   103.9164   2.568578  
6119.9046  8.72872    60.18242   107.6236   -0.2102112 -0.2421594 -0.3201538 -0.11961   57         50.03729620807719 5.447722   107.6236   2.576915  
6120.104600000001 8.732263   61.14344   119.1011   -0.2066125 -0.2302405 -0.3068632 -0.1166244 57         57.11470704646433 5.86998    119.1011   2.596478  
6120.3046  8.73278    61.96383   121.004    -0.2066611 -0.2295135 -0.3131764 -0.1470994 57         53.31259591816631 6.906511   121.004    2.626395  
6120.5046  8.740611   63.12297   114.6808   -0.2035953 -0.2212329 -0.3093465 -0.1676542 57         37.80573543899191 8.454126   114.6808   2.641917  
6120.704600000001 8.749966   63.67183   108.8171   -0.1997673 -0.2107766 -0.3018801 -0.1821078 57         27.36416699791958 9.652957   108.8171   2.637793  
6120.9046  8.762539   63.36613   111.6879   -0.191575  -0.1882001 -0.2744424 -0.1654592 57         24.54885423588669 9.739062   111.6879   2.632061  
6121.104600000001 8.759552   63.03932   113.4341   -0.1908645 -0.1835223 -0.2720931 -0.1792886 57         26.48627979840569 9.213565   113.4341   2.629035  
6121.3046  8.7611     62.5483    109.9694   -0.1746227 -0.1397367 -0.2110476 -0.110899  57         31.84213623172365 8.450172   109.9694   2.622659  
6121.5046  8.761171   62.60678   98.78636   -0.1796701 -0.1459609 -0.2191128 -0.1241376 57         38.53282511005425 7.216694   98.78636   2.622084  
6121.704600000001 8.760288   63.15544   90.57462   -0.1706358 -0.1203081 -0.1842521 -0.0860509 57         41.53031076126523 5.88542    90.57462   2.622175  
6121.9046  8.76229    64.64488   90.57254   -0.1832664 -0.1482295 -0.2280002 -0.1540507 57         30.19303987912699 5.96369    90.57254   2.623943  
6122.104600000001 8.759706   66.2533    101.1452   -0.1712086 -0.1172063 -0.1889081 -0.1199954 57         14.53711285984564 8.858155   101.1452   2.624509  
6122.3046  8.763258   67.85534   110.6679   -0.166298  -0.09975847 -0.163252  -0.08819262 57         11.35087705595902 10.75404   110.6679   2.628368  
6122.5046  8.762691   68.15511   113.8689   -0.1614311 -0.08214844 -0.1359392 -0.04834388 57         9.155964682788246 12.82836   113.8689   2.634772  
6122.704600000001 8.749082   67.29379   113.1844   -0.1521922 -0.05243781 -0.0880225 0.02774522 57         8.419342938022178 15.76496   113.1844   2.646521  
6122.9046  8.741646   65.92374   105.0475   -0.1684294 -0.08557412 -0.1317064 -0.01516003 57         7.957241715954598 14.51183   105.0475   2.645987  
6123.104600000001 8.743917   63.42531   95.3444    -0.1640756 -0.07366535 -0.1174936 0.000939159 57         9.596325485951082 9.74056    95.3444    2.637729  
6123.3046  8.746056   62.20676   92.63166   -0.1602404 -0.05650647 -0.08686746 0.05724831 57         17.64174892578881 6.816669   92.63166   2.644485  
6123.5046  8.767879   63.23636   94.32397   -0.1734691 -0.08556179 -0.1289427 0.008469621 57         33.31795102461124 7.096285   94.32397   2.640259  
6123.704600000001 8.766594   64.66273   94.25878   -0.1777992 -0.09568116 -0.1486228 -0.02500089 57         34.5399931067036 8.204956   94.25878   2.628413  
6123.9046  8.769111   66.14133   90.49705   -0.1844079 -0.1099227 -0.1728208 -0.06305744 57         21.0158104540028 10.07615   90.49705   2.630836  
6124.104600000001 8.765428   66.99055   87.99537   -0.1743703 -0.08646061 -0.1460449 -0.04475086 57         12.92648311664795 11.28754   87.99537   2.631438  
6124.3046  8.748544   66.23922   83.51498   -0.1666772 -0.05939307 -0.1019144 0.02175859 57         10.53730355472129 10.9654    83.51498   2.626637  
6124.5046  8.734365   64.60235   83.57471   -0.1707877 -0.06697452 -0.1139316 0.005439348 57         11.15468174636989 10.35214   83.57471   2.621144  
6124.704600000001 8.731061   63.29482   85.43684   -0.1554904 -0.02452953 -0.05093575 0.09050158 57         15.030574343882 10.18804   85.43684   2.624599  
6124.9046  8.733635   62.3386    91.77448   -0.1573842 -0.01928449 -0.03370895 0.1367848  57         19.63935726943091 8.54822    91.77448   2.629476  
6125.104600000001 8.732473   62.68381   93.20657   -0.161242  -0.02468835 -0.0393122 0.13878    57         27.59091585479417 7.101106   93.20657   2.633347  
6125.3046  8.732392   63.52958   89.19919   -0.1573212 -0.008898794 -0.01220695 0.1854636  57         24.88175430207739 7.056385   89.19919   2.626265  
6125.5046  8.734188   64.12108   85.30869   -0.1637216 -0.01931711 -0.02422644 0.1797092  57         16.38207179820463 9.495033   85.30869   2.619437  
6125.704600000001 8.733816   65.20071   82.68703   -0.1526443 0.01350369 0.02681733 0.2583708  57         14.28944001166035 11.30233   82.68703   2.615294  
6125.9046  8.7334     65.21275   88.72138   -0.1677822 -0.01776495 -0.01462108 0.2183298  57         15.6352259833939 10.04653   88.72138   2.620104  
6126.104600000001 8.733624   64.57942   94.62345   -0.1630292 -0.003410894 0.005548748 0.248424   57         21.96220318208976 8.961959   94.62345   2.637311  
6126.3046  8.7376     64.53246   94.28294   -0.173305  -0.02371768 -0.02214022 0.2200192  57         28.71615924806668 8.028452   94.28294   2.650841  
6126.5046  8.74123    64.13271   96.78416   -0.1876465 -0.05910352 -0.07938471 0.1336863  57         33.12211524166773 7.134508   96.78416   2.653642  
6126.704600000001 8.750118   63.38256   102.4518   -0.1683012 -0.01155482 -0.01660264 0.1994015  57         35.12497846376606 7.07237    102.4518   2.644434  
6126.9046  8.744962   63.73153   106.2421   -0.1664419 0.002042999 0.009064785 0.2440124  57         32.75571143773983 8.066628   106.2421   2.626247  
6127.104600000001 8.713652   63.78934   100.106    -0.169885  -0.004086039 -0.002101369 0.2254205  57         30.00156811632587 8.381469   100.106    2.605029  
6127.3046  8.701274   62.5205    90.353     -0.1642308 0.01533003 0.02722439 0.2650767  57         28.09070300742378 8.214269   90.353     2.567709  
6127.5046  8.696261   59.90034   86.96745   -0.1717035 0.0000074  0.002810591 0.2280138  57         31.8988382230032 7.389849   86.96745   2.548075  
6127.704600000001 8.720124   59.34154   83.9545    -0.1505797 0.05758458 0.08800218 0.3425424  57         38.03932879189411 5.506755   83.9545    2.562536  
