~Version
 VERS              .         2.0                           : CWLS LOG ASCII STANDARD - VERSION 2.0
 WRAP              .         NO                            : ONE LINE PER DEPTH STEP
 DLM               .         SPACE                         : DELIMITING CHARACTER(SPACE TAB OR COMMA)
~Well Information
#_______________________________________________________________________________
#
#PARAMETER_NAME    .UNIT     VALUE                         : DESCRIPTION
#_______________________________________________________________________________
STRT               .m        2119.8892                     : First reference value
STOP               .m        5043.2892                     : Last reference value
STEP               .m        0.2                           : Step increment
NULL               .         -9999                         : Missing value
COMP               .         PETROLEO BRASILEIRO S/A       : Company
WELL               .         1ESS 0094  ES                 : Well name
FLD                .                                       : Field
LOC                .                                       : Location
CNTY               .                                       : County
STAT               .         ESPIRITO SANTO                : State
CTRY               .                                       : Country
SRVC               .                                       : Service Company
DATE               .                                       : Date
API                .         342710052700                  : API number
EDF                .M        25.00                         : Elevation Derrick Floor
GDAT               .         SIRGAS2000                    : Geodetic Datum
HZCS               .         UTM                           : Horizontal Coordinate System
LAT                .         -20.952076                    : Latitude
LONG               .         -39.451195                    : Longitude
MC                 .         39 W                          : Meridiano Central
ORIG               .         SIGEO EXPORTACAO PERFIL       : Origem dos dados
WDMS               .M        2081.00                       : Water Depth to Mean Sea Level
XCOORD             .         453092.70                     : Surface X
YCOORD             .         7683090.10                    : Surface Y
~Parameter Information Block
#_______________________________________________________________________________
#
#PARAMETER_NAME    .UNIT     VALUE                         : DESCRIPTION
#_______________________________________________________________________________
SET                .         ESS94_resample                : 
TLFamily_CALI      .         Caliper                       : 
TLFamily_DEPT      .         Measured Depth                : 
TLFamily_DT        .         Compressional Slowness        : 
TLFamily_DTS       .         Shear Slowness                : 
TLFamily_GR        .         Gamma Ray                     : 
TLFamily_INPEFA_1  .                                       : 
TLFamily_INPEFA_2  .                                       : 
TLFamily_INPEFA_3  .                                       : 
TLFamily_INPEFA_4  .                                       : 
TLFamily_LITO      .                                       : 
TLFamily_NPHI      .         Neutron Porosity              : 
TLFamily_OG        .                                       : 
TLFamily_RESD      .         Deep Resistivity              : 
TLFamily_RESM      .         Medium Resistivity            : 
TLFamily_RESS      .         Shallow Resistivity           : 
TLFamily_RHOB      .         Bulk Density                  : 
TLFamily_SP        .         Spontaneous Potential         : 
TLFamily_TVD       .         True Vertical Depth           : 
~Curve Information
#_______________________________________________________________________________
#
#LOGNAME           .UNIT     LOG_ID                        : DESCRIPTION
#_______________________________________________________________________________
DEPT               .m                                      :  
CALI               .in                                     :  
DT                 .us/ft                                  :  
DTS                .us/ft                                  :  
GR                 .Sem                                    : GAMMA RAY 
INPEFA_1           .                                       :  
INPEFA_2           .                                       :  
INPEFA_3           .                                       :  
INPEFA_4           .                                       :  
LITO               .Sem                                    : Não definido 
NPHI               .Sem                                    : THERMAL NEUTRON POROSITY (ORIGINAL RATIO METHOD) IN SELECTED LITHOLOGY 
OG                 .                                       :  
RESD               .ohm.m                                  :  
RESM               .ohm.m                                  :  
RESS               .ohm.m                                  :  
RHOB               .g/cm3                                  :  
SP                 .mV                                     : SPONTANEOUS POTENTIAL 
TVD                .m                                      : Vertical Depth 
~Ascii
# ...
4278.0892  8.241394   75.35732   141.0002   109.6546   -0.2719333 0.05404901 -0.3081411 0.1324827  49         15.21041840831173 109.6546   0.677222   0.8194737  0.840757   2.373346   -87.50648503937144 4277.8293 
4278.2892  8.242033   77.33317   142.0037   104.5857   -0.2809185 0.03864193 -0.3579184 0.006247746 49         15.13664936205797 104.5857   0.6851271  0.8181622  0.828627   2.365487   -87.35373963254467 4278.0293 
4278.4892  8.228865   78.08161   143.657    100.8976   -0.2851415 0.02826164 -0.4034171 -0.1389132 49         14.94872884424883 100.8976   0.6876414  0.8296404  0.8576639  2.359337   -84.93517847768811 4278.2293 
4278.689200000001 8.247927   77.80944   139.2802   105.4169   -0.2724197 0.04524907 -0.3900882 -0.1701994 49         14.19023537823162 105.4169   0.7355806  0.9178643  0.9618871  2.360239   -83.67519291338986 4278.429300000001
4278.8892  8.2213     77.9812    140.9285   104.47     -0.2648451 0.05502889 -0.3903402 -0.2248405 49         13.60456657409668 104.47     0.8097076  1.055789   1.096477   2.375433   -85.26323333333333 4278.6293 
4279.0892  8.168167   77.05708   139.853    100.7596   -0.2429952 0.08993832 -0.3313102 -0.1401354 49         13.54584717187353 100.7596   0.8211255  1.088721   1.116147   2.397837   -89.15947874015552 4278.8293 
4279.2892  8.221503   75.4606    136.8395   102.77     -0.2420746 0.09213651 -0.3407879 -0.1837901 49         14.15217984567425 102.77     0.7553545  0.9810539  0.9884778  2.407646   -91.43094173228577 4279.029270866142
4279.4892  8.231252   74.51669   139.2571   107.9852   -0.2391163 0.09893674 -0.3381782 -0.1903103 49         14.80219259537287 107.9852   0.6962123  0.8734742  0.8688961  2.40141    -88.92155328084462 4279.2292 
4279.689200000001 8.257963   75.65274   135.0552   110.2053   -0.2615694 0.06165908 -0.43773   -0.4317155 49         15.08750430430025 110.2053   0.6732015  0.8167431  0.8207598  2.38501    -86.92921811023241 4279.429200000001
4279.8892  8.264595   76.27483   135.764    106.8952   -0.2488599 0.07897267 -0.4239969 -0.4648776 49         14.51419273136391 106.8952   0.7360257  0.8766072  0.8889004  2.37662    -87.67880314959405 4279.629199999999
4280.0892  8.211751   74.33447   137.5833   106.0708   -0.2475677 0.07732619 -0.4530014 -0.5976995 49         13.98818664350522 106.0708   0.846029   0.9919509  1.003082   2.381863   -91.10946614173469 4279.8292 
4280.2892  8.203548   74.08698   138.6154   108.0395   -0.2294128 0.1045305  -0.4171383 -0.5928778 49         12.75587728955782 108.0395   0.9713575  1.105703   1.078269   2.39103    -90.58835721784638 4280.0292 
4280.4892  8.231772   74.86005   133.9056   106.3412   -0.2143222 0.1279909  -0.3856622 -0.5803217 49         10.74309481222764 106.3412   1.093572   1.204697   1.18735    2.397165   -87.50419212598354 4280.2292 
4280.689200000001 8.255463   74.39997   132.1002   108.6062   -0.2051387 0.143752   -0.3665883 -0.5804898 49         9.639449307296504 108.6062   1.145944   1.247813   1.321753   2.397592   -84.32194120733274 4280.429200000001
4280.8892  8.256353   73.00539   132.6632   106.5744   -0.1970696 0.1577739  -0.3507778 -0.5860426 49         9.220662076955328 106.5744   1.068935   1.171084   1.422352   2.39581    -82.86846141732274 4280.629199999999
4281.0892  8.22168    72.50298   131.6936   103.5021   -0.1822195 0.1826592  -0.3110501 -0.5389809 49         9.45071538039649 103.5021   0.9244572  1.039277   1.495218   2.399591   -84.96268267717092 4280.829200000001
4281.2892  8.157931   71.62434   132.7913   104.1496   -0.1560472 0.2282842  -0.2197114 -0.3570058 49         11.63520484334396 104.1496   0.811422   1.007361   1.338862   2.406471   -85.9747645669276 4281.029200000001
4281.4892  8.18748    70.74781   135.9729   106.3117   -0.1672343 0.2176671  -0.242268  -0.3744643 49         14.82731657953944 106.3117   0.7052965  0.8424368  1.024289   2.412063   -85.46680052493493 4281.2292 
4281.689200000001 8.259937   71.87317   142.0467   104.8948   -0.1818092 0.1957265  -0.300933  -0.5060773 49         17.4153236629479 104.8948   0.5524173  0.639084   0.7593635  2.399537   -85.57367007874048 4281.429200000001
4281.8892  8.256621   74.13988   144.5191   101.3905   -0.1756683 0.2065479  -0.2907881 -0.5146255 49         18.61532135209838 101.3905   0.4398444  0.5010461  0.582453   2.361994   -85.89943543306848 4281.629164829395
4282.0892  8.25332    78.57536   146.1872   96.547     -0.1536571 0.2428875  -0.2249452 -0.4047677 49         19.21835297111486 96.547     0.3739567  0.421607   0.4875322  2.329179   -85.60685301837208 4281.8291 
4282.2892  8.190261   80.94635   150.3654   94.83281   -0.157974  0.2404578  -0.2364701 -0.4312932 49         20.23293094184451 94.83281   0.3609212  0.4087622  0.4791335  2.31637    -83.37685196850403 4282.0291 
4282.4892  8.13785    82.39172   154.2387   96.69857   -0.1471397 0.2610503  -0.1998614 -0.3638788 49         19.78731461272211 96.69857   0.38108    0.44168    0.5289317  2.319309   -83.33404120734784 4282.2291 
4282.689200000001 8.186349   83.46305   157.1589   102.9187   -0.1588494 0.2458546  -0.2406077 -0.4575984 49         18.40427429719239 102.9187   0.3944924  0.4670543  0.5685654  2.323884   -85.52334566929892 4282.4291 
4282.8892  8.232092   83.37631   157.9179   104.5229   -0.1611414 0.2431068  -0.2610958 -0.5395933 49         16.85329043771575 104.5229   0.4001306  0.4773173  0.5863271  2.32834    -87.06457401574596 4282.6291 
4283.0892  8.256236   82.64686   157.6714   102.2961   -0.1427705 0.2730823  -0.2113394 -0.4910919 49         16.59217038993375 102.2961   0.4056009  0.4801654  0.5833155  2.334048   -87.10901417322889 4282.829100000001
4283.2892  8.212557   82.34463   157.4302   98.07028   -0.1283186 0.3012321  -0.1557073 -0.3966336 49         17.92445829096442 98.07028   0.4130449  0.4839825  0.5659164  2.338645   -86.92152729658649 4283.029100000001
4283.4892  8.173291   80.6987    156.6304   93.65711   -0.1302715 0.3036071  -0.1536096 -0.4118835 49         19.35751237644146 93.65711   0.4232478  0.4917948  0.5549858  2.338949   -87.57006377952941 4283.229100000001
4283.689200000001 8.211924   80.04227   156.6865   91.4129    -0.1165379 0.3309414  -0.09750637 -0.3165455 49         18.32722002564398 91.4129    0.4328957  0.5017393  0.5687052  2.339709   -87.72093727033351 4283.429100000001
4283.8892  8.269822   79.99958   157.9137   90.83663   -0.1153668 0.3399152  -0.07617832 -0.2801977 49         17.06531885102013 90.83663   0.4420346  0.5106676  0.5872648  2.343675   -86.39546981627272 4283.6291 
4284.0892  8.278588   80.13501   155.4899   89.73172   -0.1266398 0.3272463  -0.1054994 -0.368051  49         16.67650057574906 89.73172   0.4534689  0.5242339  0.5951609  2.348662   -86.60344881889834 4283.8291 
4284.2892  8.24699    81.13911   151.7736   86.24488   -0.122195  0.3384405  -0.08606025 -0.3765467 49         17.27595873955194 86.24488   0.4586273  0.5259026  0.5873355  2.350951   -87.9521356955382 4284.0291 
4284.4892  8.206438   82.19847   151.8977   88.67352   -0.1066109 0.3679472  -0.02507746 -0.3025641 49         18.85958672070302 88.67352   0.4487026  0.5107028  0.565577   2.343267   -87.5500669291351 4284.22905879265
4284.689200000001 8.220045   82.64574   152.8615   95.93849   -0.08849318 0.4061561  0.06517383 -0.1369217 49         18.76270738736594 95.93849   0.4356415  0.4940135  0.54194    2.328976   -86.36489842519312 4284.429  
4284.8892  8.229548   81.0528    154.5406   99.62318   -0.1133656 0.3748501  0.004143853 -0.2894256 49         17.227948746978 99.62318   0.4245743  0.4808477  0.525677   2.324653   -87.42982440944626 4284.629  
4285.0892  8.260387   78.34387   157.3945   95.96399   -0.1079467 0.387333   0.02811918 -0.3143335 49         14.24856546356734 95.96399   0.4285646  0.4885812  0.5360926  2.337181   -88.6767776902915 4284.829000000001
4285.2892  8.250472   77.43188   156.3399   94.52518   -0.08483128 0.4311523  0.1266472  -0.1718681 49         13.70235653374151 94.52518   0.4499415  0.5180792  0.5741007  2.348657   -90.0053110236229 4285.029000000001
