~Version
 VERS              .         2.0                           : CWLS LOG ASCII STANDARD - VERSION 2.0
 WRAP              .         NO                            : ONE LINE PER DEPTH STEP
 DLM               .         SPACE                         : DELIMITING CHARACTER(SPACE TAB OR COMMA)
~Well Information
#_______________________________________________________________________________
#
#PARAMETER_NAME    .UNIT     VALUE                         : DESCRIPTION
#_______________________________________________________________________________
STRT               .m        2062.5046                     : First reference value
STOP               .m        6413.5046                     : Last reference value
STEP               .m        0.2                           : Step increment
NULL               .         -9999                         : Missing value
COMP               .         PETROLEO BRASILEIRO S/A       : Company
WELL               .         1-ESS-120_resample            : Well name
FLD                .                                       : Field
LOC                .                                       : Location
CNTY               .                                       : County
STAT               .         ESPIRITO SANTO                : State
CTRY               .                                       : Country
SRVC               .                                       : Service Company
DATE               .                                       : Date
API                .         342710278300                  : API number
EDF                .M        25.00                         : Elevation Derrick Floor
ELEV               .M        25.0000                       : Surface Elev
ELEV_TYPE          .         KB                            : Elev Type
GDAT               .         SIRGAS2000                    : Geodetic Datum
HZCS               .         UTM                           : Horizontal Coordinate System
LAT                .         -20.620145                    : Latitude
LMF                .         MR                            : Log Measure From
LON                .         -39.512655                    : Longitude
LATI               .         -20_37_15.239                 : Latitude
LONG               .         -39_30_38.085                 : Longitude
MC                 .         39 W                          : Meridiano Central
ORIG               .         SIGEO EXPORTACAO PERFIL       : Origem dos dados
ORIGINALWELLNAME   .         1ESS 0120  ES                 : 
WDMS               .M        2003.00                       : Water Depth to Mean Sea Level
X                  .         446729.00                     : Surface X
XCOORD             .         446584.000000                 : Surface X
Y                  .         7719623.00                    : Surface Y
YCOORD             .         7719778.000000                : Surface Y
~Parameter Information Block
#_______________________________________________________________________________
#
#PARAMETER_NAME    .UNIT     VALUE                         : DESCRIPTION
#_______________________________________________________________________________
SET                .         ESS120_resample               : 
TLFamily_CALI      .         Caliper                       : 
TLFamily_DEPT      .         Measured Depth                : 
TLFamily_DTCO      .         Compressional Slowness        : 
TLFamily_GR        .         Gamma Ray                     : 
TLFamily_INPEFA_1  .                                       : 
TLFamily_INPEFA_2  .                                       : 
TLFamily_INPEFA_3  .                                       : 
TLFamily_INPEFA_4  .                                       : 
TLFamily_LITO      .                                       : 
TLFamily_LLD       .         Deep Resistivity              : 
TLFamily_NPHI      .         Neutron Porosity              : 
TLFamily_OG        .                                       : 
TLFamily_RHOB_merge .         Bulk Density                  : 
~Curve Information
#_______________________________________________________________________________
#
#LOGNAME           .UNIT     LOG_ID                        : DESCRIPTION
#_______________________________________________________________________________
DEPT               .m                                      :  
CALI               .in                                     : CALIPER 
DTCO               .us/ft                                  : DELTA-T COMPRESSIONAL 
GR                 .gAPI                                   : GAMMA RAY 
INPEFA_1           .                                       :  
INPEFA_2           .                                       :  
INPEFA_3           .                                       :  
INPEFA_4           .                                       :  
LITO               .                                       :  
LLD                .ohm.m                                  : LATEROLOG DEEP RESISTIVITY 
NPHI               .%                                      : THERMAL NEUTRON POROSITY (ORIGINAL RATIO METHOD) IN SELECTED LITHOLOGY 
OG                 .                                       :  
RHOB_merge         .g/cm3                                  :  
~Ascii
# ...
4424.704600000001 -9999      89.58107   73.95346   -0.5458152 -0.3056164 -0.04628967 0.1075195  57         -9999      22.04648   73.95346   2.509366  
4424.9046  -9999      90.40749   99.90978   -0.5137324 -0.2228919 0.07409886 0.2515826  57         -9999      27.0595    99.90978   2.414018  
4425.104600000001 -9999      92.64481   108.8655   -0.5270922 -0.2510707 0.03617062 0.2016631  48         -9999      29.27883   108.8655   2.383101  
4425.3046  -9999      93.95949   97.44839   -0.5361853 -0.2760894 -0.00864024 0.1172758  48         -9999      29.71426   97.44839   2.379562  
4425.5046  -9999      93.4753    88.96115   -0.5332309 -0.271572  -0.01153664 0.08273968 48         -9999      29.48679   88.96115   2.405113  
4425.704600000001 -9999      92.10693   92.98598   -0.5255221 -0.2540178 0.005883153 0.07685681 48         -9999      27.57977   92.98598   2.383716  
4425.9046  -9999      90.73524   89.81787   -0.5119537 -0.2180566 0.05551985 0.1273156  48         -9999      26.7658    89.81787   2.342024  
4426.104600000001 -9999      90.5355    91.33504   -0.5051105 -0.1992106 0.08091918 0.1511841  48         -9999      27.47554   91.33504   2.434292  
4426.3046  -9999      91.2972    95.11423   -0.5064883 -0.1989862 0.08061692 0.1460173  48         -9999      27.4191    95.11423   2.422351  
4426.5046  -9999      91.97296   94.56328   -0.4995427 -0.1808139 0.1040896  0.1697053  48         -9999      27.36305   94.56328   2.449442  
4426.704600000001 -9999      91.54486   90.8255    -0.501902  -0.183887  0.09783868 0.1575509  48         -9999      27.43981   90.8255    2.451626  
4426.9046  -9999      89.00271   89.83174   -0.5042751 -0.1898081 0.0835746  0.1285404  48         -9999      29.3406    89.83174   2.426707  
4427.104600000001 -9999      86.03869   94.98885   -0.5063948 -0.1960229 0.06703086 0.09249549 48         -9999      29.36157   94.98885   2.438373  
4427.3046  -9999      84.6693    106.05     -0.492371  -0.1607925 0.1137051  0.1471571  48         -9999      25.81352   106.05     2.432675  
4427.5046  -9999      85.11661   113.5078   -0.4902937 -0.1501478 0.1320532  0.1842831  48         -9999      24.20558   113.5078   2.449943  
4427.704600000001 -9999      86.18123   110.5442   -0.4944117 -0.1591847 0.1159588  0.1671382  48         -9999      22.36219   110.5442   2.42271   
4427.9046  -9999      87.2566    92.61572   -0.4947174 -0.1588405 0.1128641  0.1664568  48         -9999      24.33946   92.61572   2.480982  
4428.104600000001 -9999      87.65379   83.49534   -0.51011   -0.199398  0.04430168 0.06658392 57         -9999      29.78257   83.49534   2.473459  
4428.3046  -9999      86.09461   90.81205   -0.4878142 -0.1470737 0.1106245  0.1437753  57         -9999      32.24931   90.81205   2.500828  
4428.5046  -9999      83.92654   97.24863   -0.4816293 -0.1266905 0.1423477  0.2078534  57         -9999      31.59741   97.24863   2.481053  
4428.704600000001 -9999      83.08349   92.6096    -0.4942037 -0.1568633 0.09596235 0.165237   57         -9999      31.5637    92.6096    2.470145  
4428.9046  -9999      83.13628   82.80447   -0.5110831 -0.2003919 0.02573041 0.0792316  57         -9999      26.20725   82.80447   2.471579  
4429.104600000001 -9999      83.68119   75.71069   -0.5195654 -0.2266866 -0.02552582 0.003148438 57         -9999      23.0875    75.71069   2.430179  
4429.3046  -9999      84.35912   77.55372   -0.5139599 -0.2208609 -0.03403345 -0.02863522 57         -9999      24.81525   77.55372   2.494766  
4429.5046  -9999      85.39277   81.61424   -0.4999128 -0.1843319 0.01549459 0.04500503 57         -9999      24.13686   81.61424   2.493158  
4429.704600000001 -9999      85.229     85.67463   -0.4984039 -0.1819663 0.01312116 0.05172316 57         -9999      25.38602   85.67463   2.490708  
4429.9046  -9999      85.27767   89.66453   -0.5316663 -0.2659698 -0.1185802 -0.1227255 57         -9999      27.68955   89.66453   2.474477  
4430.104600000001 -9999      86.88967   92.59059   -0.5217879 -0.2530621 -0.1215734 -0.157235  57         -9999      27.50615   92.59059   2.468231  
4430.3046  -9999      88.92578   87.65699   -0.5162923 -0.2443405 -0.1233889 -0.1797114 57         -9999      25.92267   87.65699   2.506906  
4430.5046  -9999      89.28053   81.69839   -0.5055308 -0.2183255 -0.09312949 -0.1431472 57         -9999      26.31384   81.69839   2.506815  
4430.704600000001 -9999      88.53635   82.64175   -0.5082846 -0.2293874 -0.1212364 -0.190768  57         -9999      30.21457   82.64175   2.513175  
4430.9046  -9999      87.12943   87.61852   -0.5034415 -0.219092  -0.1152498 -0.1888439 57         -9999      28.41578   87.61852   2.511952  
4431.104600000001 -9999      86.84252   95.67087   -0.5010957 -0.216531  -0.1218121 -0.2046478 57         -9999      25.68218   95.67087   2.504144  
4431.3046  -9999      87.94573   92.04037   -0.5017048 -0.2201241 -0.1359603 -0.2288576 57         -9999      26.08104   92.04037   2.53867   
4431.5046  -9999      89.48404   81.84975   -0.5018497 -0.2237713 -0.1516591 -0.2604714 57         -9999      26.33759   81.84975   2.499341  
4431.704600000001 -9999      91.09267   83.30526   -0.5002478 -0.2226162 -0.1604935 -0.2856961 57         -9999      26.76205   83.30526   2.48955   
4431.9046  -9999      90.72949   98.24155   -0.5011062 -0.2296673 -0.1847548 -0.340812  57         -9999      28.32442   98.24155   2.473579  
4432.104600000001 -9999      89.91044   110.1849   -0.4781306 -0.1739492 -0.1117156 -0.2553484 57         -9999      28.18653   110.1849   2.457936  
4432.3046  -9999      89.49851   106.3056   -0.4802608 -0.1778501 -0.1212973 -0.2671665 57         -9999      26.09929   106.3056   2.457718  
4432.5046  -9999      90.46921   92.06926   -0.4734493 -0.1625235 -0.1065098 -0.2554862 57         -9999      25.14482   92.06926   2.473873  
4432.704600000001 -9999      92.24539   82.13571   -0.4627978 -0.134652  -0.06913609 -0.204605  57         -9999      25.76845   82.13571   2.455797  
4432.9046  -9999      93.75593   95.15901   -0.45472   -0.1105132 -0.032587  -0.1407718 57         -9999      27.85041   95.15901   2.455705  
4433.104600000001 -9999      93.55216   105.7396   -0.4662608 -0.1385174 -0.076991  -0.1925152 57         -9999      27.7037    105.7396   2.450346  
4433.3046  -9999      91.12589   99.37666   -0.4541752 -0.1098704 -0.0412753 -0.1450836 57         -9999      27.29171   99.37666   2.466156  
4433.5046  -9999      88.70155   86.43383   -0.4618933 -0.1267451 -0.06759194 -0.169166  57         -9999      27.36199   86.43383   2.488237  
4433.704600000001 -9999      88.06349   81.89693   -0.4642519 -0.1351421 -0.08783183 -0.1982336 57         -9999      24.04601   81.89693   2.457993  
4433.9046  -9999      88.76984   83.58477   -0.4634475 -0.1352753 -0.09579073 -0.2130639 57         -9999      23.78891   83.58477   2.481504  
4434.104600000001 -9999      90.10307   85.14257   -0.4610085 -0.1304221 -0.095562  -0.2157914 57         -9999      27.32291   85.14257   2.481359  
4434.3046  -9999      90.59374   86.40012   -0.458645  -0.1258697 -0.0956651 -0.2188874 57         -9999      31.63091   86.40012   2.477642  
4434.5046  -9999      89.64326   88.3757    -0.4606224 -0.1332558 -0.1153293 -0.2533897 57         -9999      31.25038   88.3757    2.472201  
4434.704600000001 -9999      88.49016   89.05822   -0.4505489 -0.1100764 -0.08922241 -0.2250133 57         -9999      28.6353    89.05822   2.465083  
4434.9046  -9999      88.68721   88.0406    -0.4435381 -0.09097129 -0.06308718 -0.1813747 57         -9999      24.6305    88.0406    2.499453  
4435.104600000001 -9999      89.80656   79.14417   -0.4520887 -0.1126122 -0.09919666 -0.2256131 57         -9999      24.92557   79.14417   2.48292   
4435.3046  -9999      90.18748   73.22865   -0.4435882 -0.09428307 -0.08060556 -0.2074882 57         -9999      28.48407   73.22865   2.481111  
4435.5046  -9999      90.23164   73.43398   -0.4357239 -0.07275183 -0.050359  -0.1569627 57         -9999      31.7355    73.43398   2.491911  
