~Version
 VERS              .         2.0                           : CWLS LOG ASCII STANDARD - VERSION 2.0
 WRAP              .         NO                            : ONE LINE PER DEPTH STEP
 DLM               .         SPACE                         : DELIMITING CHARACTER(SPACE TAB OR COMMA)
~Well Information
#_______________________________________________________________________________
#
#PARAMETER_NAME    .UNIT     VALUE                         : DESCRIPTION
#_______________________________________________________________________________
STRT               .m        2062.5046                     : First reference value
STOP               .m        6413.5046                     : Last reference value
STEP               .m        0.2                           : Step increment
NULL               .         -9999                         : Missing value
COMP               .         PETROLEO BRASILEIRO S/A       : Company
WELL               .         1-ESS-120_resample            : Well name
FLD                .                                       : Field
LOC                .                                       : Location
CNTY               .                                       : County
STAT               .         ESPIRITO SANTO                : State
CTRY               .                                       : Country
SRVC               .                                       : Service Company
DATE               .                                       : Date
API                .         342710278300                  : API number
EDF                .M        25.00                         : Elevation Derrick Floor
ELEV               .M        25.0000                       : Surface Elev
ELEV_TYPE          .         KB                            : Elev Type
GDAT               .         SIRGAS2000                    : Geodetic Datum
HZCS               .         UTM                           : Horizontal Coordinate System
LAT                .         -20.620145                    : Latitude
LMF                .         MR                            : Log Measure From
LON                .         -39.512655                    : Longitude
LATI               .         -20_37_15.239                 : Latitude
LONG               .         -39_30_38.085                 : Longitude
MC                 .         39 W                          : Meridiano Central
ORIG               .         SIGEO EXPORTACAO PERFIL       : Origem dos dados
ORIGINALWELLNAME   .         1ESS 0120  ES                 : 
WDMS               .M        2003.00                       : Water Depth to Mean Sea Level
X                  .         446729.00                     : Surface X
XCOORD             .         446584.000000                 : Surface X
Y                  .         7719623.00                    : Surface Y
YCOORD             .         7719778.000000                : Surface Y
~Parameter Information Block
#_______________________________________________________________________________
#
#PARAMETER_NAME    .UNIT     VALUE                         : DESCRIPTION
#_______________________________________________________________________________
SET                .         ESS120_resample               : 
TLFamily_CALI      .         Caliper                       : 
TLFamily_DEPT      .         Measured Depth                : 
TLFamily_DTCO      .         Compressional Slowness        : 
TLFamily_GR        .         Gamma Ray                     : 
TLFamily_INPEFA_1  .                                       : 
TLFamily_INPEFA_2  .                                       : 
TLFamily_INPEFA_3  .                                       : 
TLFamily_INPEFA_4  .                                       : 
TLFamily_LITO      .                                       : 
TLFamily_LLD       .         Deep Resistivity              : 
TLFamily_NPHI      .         Neutron Porosity              : 
TLFamily_OG        .                                       : 
TLFamily_RHOB_merge .         Bulk Density                  : 
~Curve Information
#_______________________________________________________________________________
#
#LOGNAME           .UNIT     LOG_ID                        : DESCRIPTION
#_______________________________________________________________________________
DEPT               .m                                      :  
CALI               .in                                     : CALIPER 
DTCO               .us/ft                                  : DELTA-T COMPRESSIONAL 
GR                 .gAPI                                   : GAMMA RAY 
INPEFA_1           .                                       :  
INPEFA_2           .                                       :  
INPEFA_3           .                                       :  
INPEFA_4           .                                       :  
LITO               .                                       :  
LLD                .ohm.m                                  : LATEROLOG DEEP RESISTIVITY 
NPHI               .%                                      : THERMAL NEUTRON POROSITY (ORIGINAL RATIO METHOD) IN SELECTED LITHOLOGY 
OG                 .                                       :  
RHOB_merge         .g/cm3                                  :  
~Ascii
# ...
5557.5046  8.939207   63.77942   56.39009   0.5542894  0.2962994  0.148663   0.08500665 6          41.5757231817591 7.957716   56.39009   2.648175  
5557.704600000001 8.93796    64.46502   52.17973   0.560216   0.3112775  0.1722458  0.1249954  6          44.61894249021432 6.826224   52.17973   2.666644  
5557.9046  8.923075   64.3395    51.56509   0.5725454  0.3454333  0.2290023  0.2214976  6          49.7042972527362 6.710418   51.56509   2.677281  
5558.104600000001 8.903111   62.77177   50.90871   0.5685262  0.3386935  0.2259286  0.241163   8          56.42294818991836 6.947649   50.90871   2.674101  
5558.3046  8.903196   60.60158   46.00218   0.5766474  0.3619698  0.2666188  0.3198551  8          66.22307466292538 6.216608   46.00218   2.669896  
5558.5046  8.901484   58.43692   38.24017   0.5751051  0.3627743  0.2769499  0.367569   8          82.4753889553554 3.905673   38.24017   2.667872  
5558.704600000001 8.896878   57.13987   32.5243    0.5758446  0.3684177  0.2937978  0.4264675  8          98.36807206179101 2.271333   32.5243    2.660629  
5558.9046  8.896255   56.84472   34.12117   0.5542179  0.3231777  0.241819   0.4110954  8          90.52599686886525 2.446293   34.12117   2.65334   
5559.104600000001 8.903682   56.71437   39.91253   0.5144829  0.2194197  0.08506712 0.2181659  8          75.89782598711224 3.326999   39.91253   2.652014  
5559.3046  8.937907   57.18647   39.44898   0.4819015  0.1302017  -0.0592258 0.01500609 8          72.68173043762533 3.048245   39.44898   2.650155  
5559.5046  8.951838   57.88496   40.50293   0.5150366  0.185967   -0.01540184 0.001758399 8          73.56902285617011 2.921052   40.50293   2.641177  
5559.704600000001 8.9523     58.41827   45.59313   0.5393888  0.2514142  0.08089489 0.1334275  8          69.1375965714345 3.978951   45.59313   2.633599  
5559.9046  8.952418   58.14086   45.00882   0.5351676  0.2312085  0.03712113 0.05797438 8          61.90119817291184 4.916174   45.00882   2.630966  
5560.104600000001 8.953986   57.83847   43.017     0.5499693  0.2654621  0.07937916 0.1028585  8          60.92197348565578 4.543207   43.017     2.628373  
5560.3046  8.955792   59.21965   46.71423   0.5624533  0.2914122  0.1087804  0.1325494  8          59.09423118542803 4.265596   46.71423   2.631304  
5560.5046  8.966634   60.45391   51.99677   0.5782068  0.332457   0.1688859  0.2218739  8          58.26761817845509 5.072513   51.99677   2.624399  
5560.704600000001 8.968559   60.66918   52.07098   0.5732911  0.3230242  0.1581005  0.2299407  8          57.98282237311181 5.226306   52.07098   2.613834  
5560.9046  8.968504   60.84853   46.22443   0.5644107  0.29598    0.111013   0.1673484  8          60.19224601761095 4.507905   46.22443   2.596417  
5561.104600000001 8.974223   61.57882   44.61609   0.570843   0.3114434  0.1310022  0.2010396  8          69.21078139640173 4.653239   44.61609   2.564092  
5561.3046  8.972535   62.00638   46.60212   0.5733251  0.3137187  0.128619   0.2007056  8          75.22690213941027 5.18202    46.60212   2.544792  
5561.5046  8.977819   62.51433   50.57073   0.5823255  0.3368616  0.1619783  0.25781    8          79.28649366942989 5.448233   50.57073   2.57322   
5561.704600000001 8.977277   65.29354   54.89208   0.5961189  0.3724278  0.2165011  0.3548175  8          81.45884188500054 5.748991   54.89208   2.628652  
5561.9046  8.978718   75.12844   68.67361   0.5980356  0.3833583  0.2421482  0.4338078  8          86.26326305146664 7.205715   68.67361   2.636397  
5562.104600000001 8.980504   86.64133   93.86393   0.5860642  0.3624763  0.2258274  0.4751591  57         83.20602208837849 14.94963   93.86393   2.641152  
5562.3046  8.967485   88.47349   119.0417   0.5481706  0.2721251  0.1010428  0.3650515  57         68.22924463954428 24.42739   119.0417   2.650828  
5562.5046  8.954977   76.3882    103.0242   0.4974087  0.1378461  -0.1079843 0.09762301 57         64.65072681286989 20.54369   103.0242   2.64731   
5562.704600000001 8.952787   62.22483   63.62932   0.5098559  0.1572229  -0.09770555 0.1076284  57         76.92206729352198 7.739325   63.62932   2.634469  
5562.9046  8.952898   58.43232   41.24028   0.4804872  0.06596576 -0.2608212 -0.1432082 57         108.5640036202249 2.196215   41.24028   2.625296  
5563.104600000001 8.954605   59.08663   39.81432   0.4947504  0.08787907 -0.2558581 -0.1752562 8          111.6351827031788 2.420952   39.81432   2.615124  
5563.3046  8.959491   58.79426   39.87123   0.5102923  0.1112578  -0.2488668 -0.2030858 8          94.98277191773187 2.985998   39.87123   2.6125    
5563.5046  8.971273   60.147     37.74702   0.5274692  0.1425207  -0.2269055 -0.2091982 8          86.45759259201881 2.766899   37.74702   2.624172  
5563.704600000001 8.979364   63.62917   43.82325   0.5365303  0.1575695  -0.2231086 -0.2286465 8          78.43861588290649 3.392483   43.82325   2.632081  
5563.9046  8.98119    66.49664   57.12795   0.5520904  0.1863739  -0.2015644 -0.2298587 8          56.99154532286231 6.599701   57.12795   2.623338  
5564.104600000001 8.974802   67.38849   64.84534   0.5660526  0.2185248  -0.1655456 -0.1917003 8          41.40870463582407 9.721164   64.84534   2.569606  
5564.3046  8.971445   66.55669   63.10579   0.5702905  0.2244776  -0.168491  -0.2029329 8          36.16384886288113 10.81257   63.10579   2.499971  
5564.5046  8.97201    64.91837   58.46909   0.5558802  0.1811689  -0.2495876 -0.3360574 8          39.11019051451659 10.03468   58.46909   2.468297  
5564.704600000001 8.975098   64.19175   52.85523   0.5769868  0.2239898  -0.2074096 -0.3156989 8          48.43522521572191 8.59887    52.85523   2.490124  
5564.9046  8.988228   65.8866    51.90357   0.590819   0.2518984  -0.1826362 -0.3109427 8          58.15915676661515 7.567724   51.90357   2.531554  
5565.104600000001 9.011517   67.53227   63.25232   0.6119599  0.3039287  -0.1138451 -0.2285732 8          79.88804810269721 8.347939   63.25232   2.584579  
5565.3046  9.038321   75.11147   90.98943   0.6161677  0.3110528  -0.1127348 -0.2372648 8          93.13694477675003 12.46132   90.98943   2.635659  
5565.5046  9.046677   88.00725   127.2052   0.6315345  0.3497663  -0.06045267 -0.1694144 8          87.04936268708428 21.35134   127.2052   2.665944  
5565.704600000001 9.049577   94.85104   134.2642   0.6443876  0.3832129  -0.01188811 -0.09250159 8          87.84259133157075 27.6741    134.2642   2.666183  
5565.9046  9.048324   90.06093   119.4011   0.6415278  0.3791152  -0.01605634 -0.07887746 8          94.24673157896595 24.8186    119.4011   2.662341  
5566.104600000001 9.048701   78.4163    98.53516   0.6275685  0.3437264  -0.07003297 -0.1416079 8          108.2257020248868 18.61488   98.53516   2.662993  
5566.3046  9.047887   68.50874   75.65891   0.6355619  0.362006   -0.04709095 -0.1111427 8          113.4496593503958 12.58384   75.65891   2.665874  
5566.5046  9.038545   60.08075   55.04739   0.6485555  0.3985429  0.01112891 -0.01440991 8          104.2490629315908 6.85298    55.04739   2.673625  
5566.704600000001 9.004756   56.75605   46.66045   0.6337729  0.3645747  -0.03603362 -0.05971165 8          92.60548383333088 3.397082   46.66045   2.686829  
5566.9046  8.96435    55.87105   44.4332    0.6238743  0.3382704  -0.07917494 -0.1169164 8          83.98547444814489 3.2663     44.4332    2.695037  
5567.104600000001 8.955263   56.07312   42.99013   0.6042001  0.282954   -0.1727024 -0.2627552 8          88.348416056147 2.967413   42.99013   2.689267  
5567.3046  8.951502   57.05083   43.74756   0.6194674  0.3101735  -0.1526747 -0.2805049 8          105.1627776632182 2.908242   43.74756   2.681395  
5567.5046  8.935802   56.56245   54.70164   0.6406055  0.360417   -0.08737864 -0.2148881 8          135.8488491713348 2.889353   54.70164   2.6761    
5567.704600000001 8.881923   54.21115   59.086     0.6467068  0.3744968  -0.07183315 -0.2109469 8          174.0673846546576 1.859188   59.086     2.672612  
5567.9046  8.876462   52.35746   50.89006   0.6542749  0.3909833  -0.05431899 -0.2087661 8          217.7565505248357 0.9452635  50.89006   2.671772  
