~Version
 VERS              .         2.0                           : CWLS LOG ASCII STANDARD - VERSION 2.0
 WRAP              .         NO                            : ONE LINE PER DEPTH STEP
 DLM               .         SPACE                         : DELIMITING CHARACTER(SPACE TAB OR COMMA)
~Well Information
#_______________________________________________________________________________
#
#PARAMETER_NAME    .UNIT     VALUE                         : DESCRIPTION
#_______________________________________________________________________________
STRT               .m        1880.5999                     : First reference value
STOP               .m        5405.7999                     : Last reference value
STEP               .m        0.2                           : Step increment
NULL               .         -9999                         : Missing value
COMP               .         PETROLEO BRASILEIRO S/A       : Company
WELL               .         1-ESS-86A_resample            : Well name
FLD                .                                       : Field
LOC                .                                       : Location
CNTY               .                                       : County
STAT               .         ESPIRITO SANTO                : State
CTRY               .                                       : Country
SRVC               .                                       : Service Company
DATE               .                                       : Date
API                .         342710051600                  : API number
EDF                .M        14.00                         : Elevation Derrick Floor
GDAT               .         SIRGAS2000                    : Geodetic Datum
HZCS               .         UTM                           : Horizontal Coordinate System
LMF                .         MR                            : Log Measure From
LATI               .         -20_24_56.411                 : Latitude
LONG               .         -39_29_19.989                 : Longitude
MC                 .         39 W                          : Meridiano Central
ORIG               .         SIGEO EXPORTACAO PERFIL       : Origem dos dados
ORIGINALWELLNAME   .         1ESS 0086A ES                 : 
WDMS               .M        1841.00                       : Water Depth to Mean Sea Level
X                  .         448953.89                     : Surface X
Y                  .         7742410.09                    : Surface Y
~Parameter Information Block
#_______________________________________________________________________________
#
#PARAMETER_NAME    .UNIT     VALUE                         : DESCRIPTION
#_______________________________________________________________________________
SET                .         ESS86A_resample               : 
TLFamily_CALI      .         Caliper                       : 
TLFamily_DEPT      .         Measured Depth                : 
TLFamily_DT        .         Compressional Slowness        : 
TLFamily_GR        .         Gamma Ray                     : 
TLFamily_HDRS      .         Deep Resistivity              : 
TLFamily_INPEFA_1  .                                       : 
TLFamily_INPEFA_2  .                                       : 
TLFamily_INPEFA_3  .                                       : 
TLFamily_INPEFA_4  .                                       : 
TLFamily_LITO      .                                       : 
TLFamily_NPHI      .         Neutron Porosity              : 
TLFamily_RHOB      .         Bulk Density                  : 
~Curve Information
#_______________________________________________________________________________
#
#LOGNAME           .UNIT     LOG_ID                        : DESCRIPTION
#_______________________________________________________________________________
DEPT               .m                                      :  
CALI               .in                                     : CALIPER 1 CYLINDERDIAMETER 
DT                 .us/ft                                  : DELTA-T (ALSO CALLED SLOWNESS OR INTERVAL TRANSIT TIME) 
GR                 .gAPI                                   : GAMMA RAY 
HDRS               .ohm.m                                  : INDUCTION DEEP RESISTIVITY 
INPEFA_1           .                                       :  
INPEFA_2           .                                       :  
INPEFA_3           .                                       :  
INPEFA_4           .                                       :  
LITO               .                                       :  
NPHI               .%                                      : THERMAL NEUTRON POROSITY (ORIGINAL RATIO METHOD) IN SELECTED LITHOLOGY 
RHOB               .g/cm3                                  : BULK DENSITY 
~Ascii
# ...
5377.9999  8.4567     52.3422    62.5919    85.09889999999999 -0.02687099 0.01623815 0.03075358 -0.008677835 8          2.3128     2.686     
5378.199900000001 8.4567     53.85      61.1693    130.0682000002018 -0.03181852 0.006534567 0.01650018 -0.04529157 8          2.1758     2.6895    
5378.3999  8.4584     53.4194    59.0517    170.7806   -0.02973201 0.01059623 0.02489444 -0.0401688 8          2.2283     2.6994    
5378.5999  8.4624     53.787     57.1874    175.5079   -0.03095725 0.007750554 0.02187336 -0.05260973 8          2.3803     2.6974    
5378.7999  8.463      55.3784    57.078     121.6184000000001 -0.03162728 0.006533022 0.02269579 -0.05265664 8          2.252      2.7002    
5378.9999  8.463      56.6547    56.1702    79.03220000000002 -0.03374942 0.002209862 0.01822271 -0.06138365 8          2.2057     2.6944    
5379.199900000001 8.4698     55.2703    56.5285    55.94779999992365 -0.03339123 0.002855652 0.02224946 -0.05277178 8          2.2552     2.6841    
5379.3999  8.4754     53.1327    56.7115    44.486     -0.01538161 0.006271792 0.008185466 -0.08398511 8          2.2419     2.6712    
5379.5999  8.4754     54.4607    58.2288    45.3952    -0.02445403 0.002754026 0.01253045 -0.07218165 8          2.274      2.6827    
5379.7999  8.4737     55.9146    59.1733    60.94160000000001 -0.02412635 0.001506654 0.01227891 -0.06656696 8          2.3259     2.6859    
5379.9999  8.4749     55.9469    58.2592    76.66589999999999 -0.01397508 0.004348185 0.007983548 -0.070942  8          2.3252     2.6862    
5380.199900000001 8.4777     63.9047    58.53      54.96909999985857 -0.01191591 0.003407531 0.004175507 -0.07363749 8          2.3882     2.6762    
5380.3999  8.4782     68.3626    59.0997    31.64429999999999 -0.01675259 0.00138317 0.007684963 -0.05911841 8          2.3588     2.6752    
5380.5999  8.4783     68.3633    59.553     20.0247    -0.01040728 0.002283283 0.003946421 -0.05997442 8          2.3027     2.6746    
5380.7999  8.4839     60.132     58.9248    19.2837    -0.005976312 0.002197509 -0.000855555 -0.06394774 8          2.3397     2.6747    
5380.9999  8.4941     55.8203    57.343     18.0243    -0.008325508 0.000820323 0.000241541 -0.05490782 8          2.3817     2.6752    
5381.199900000001 8.5145     63.8828    57.1156    18.42720000002107 -0.007303057 0.000476576 0.000264191 -0.0467216 8          2.4118     2.68      
5381.3999  8.5458     59.2065    57.1032    22.2226    -0.001702849 0.001571825 -0.002651893 -0.04496038 8          2.428      2.6831    
5381.5999  8.5633     55.8104    57.5644    25.4591    -0.002105742 0.000820379 -0.002599408 -0.0371104 8          2.4437     2.6868    
5381.7999  8.5746     56.1312    57.4956    29.2104    -0.003390317 -0.00024352 -0.001456082 -0.02608191 8          2.4027     2.6762    
5381.9999  8.5922     58.8094    57.689     37.5024    0.000259192 0.000900388 -0.00139168 -0.01754247 8          2.3685     2.6737    
5382.199900000001 8.603      57.3703    57.7047    51.33120000006243 0.001459835 0.00067759 -0.001922567 -0.01103003 8          2.363      2.6753    
5382.3999  8.6035     55.4037    -9999      58.4479    -9999      -9999      -9999      -9999      8          2.4677     2.6815    
5382.5999  8.603      56.9864    -9999      47.8401    -9999      -9999      -9999      -9999      8          2.5134     2.6794    
5382.7999  8.6013     56.5672    -9999      35.1382    -9999      -9999      -9999      -9999      8          2.5345     2.6677    
5382.9999  8.6013     63.3031    -9999      27.5181    -9999      -9999      -9999      -9999      8          2.4981     2.6621    
5383.199900000001 8.6018     63.4547    -9999      24.07049999999358 -9999      -9999      -9999      -9999      8          2.4839     2.6587    
5383.3999  8.6001     65.3831    -9999      24.4197    -9999      -9999      -9999      -9999      8          2.5005     2.6691    
5383.5999  8.6013     66.7012    -9999      31.2929    -9999      -9999      -9999      -9999      8          2.4418     2.6845    
5383.7999  8.6007     57.3141    -9999      44.5315    -9999      -9999      -9999      -9999      8          2.359      2.6929    
5383.9999  8.5803     53.1937    -9999      70.15810000000001 -9999      -9999      -9999      -9999      8          2.3993     2.6957    
5384.199900000001 8.5338     52.9297    -9999      129.5088000003545 -9999      -9999      -9999      -9999      8          2.4082     2.6902    
5384.3999  8.4844     51.1965    -9999      155.7821   -9999      -9999      -9999      -9999      8          2.4028     2.6905    
5384.5999  8.4181     50.4355    -9999      78.17610000000001 -9999      -9999      -9999      -9999      8          2.4025     2.6954    
5384.7999  8.3281     50.0906    -9999      46.13839999999999 -9999      -9999      -9999      -9999      8          2.4044     2.6952    
5384.9999  8.2634     50.9469    -9999      35.552     -9999      -9999      -9999      -9999      8          2.4082     2.6884    
5385.199900000001 8.2283     50.375     -9999      29.61659999997012 -9999      -9999      -9999      -9999      8          2.449      2.6873    
5385.3999  8.2181     51.0901    -9999      23.6972    -9999      -9999      -9999      -9999      8          2.4658     2.6825    
5385.5999  8.2153     55.9868    -9999      19.6796    -9999      -9999      -9999      -9999      8          2.5204     2.6864    
5385.7999  8.2136     56.3828    -9999      19.80890000000001 -9999      -9999      -9999      -9999      8          2.5304     2.6853    
5385.9999  8.2124     59.1656    -9999      19.8557    -9999      -9999      -9999      -9999      8          2.4671     2.6846    
5386.199900000001 8.2119     59.6969    -9999      23.56990000002583 -9999      -9999      -9999      -9999      8          2.4147     2.6826    
5386.3999  8.213      58.1008    -9999      28.4961    -9999      -9999      -9999      -9999      8          2.4378     2.6809    
5386.5999  8.2153     56.8369    -9999      30.2565    -9999      -9999      -9999      -9999      8          2.4556     2.6834    
5386.7999  8.217      -9999      -9999      28.8584    -9999      -9999      -9999      -9999      8          -9999      2.6873    
5386.9999  8.2181     -9999      -9999      28.2481    -9999      -9999      -9999      -9999      8          -9999      2.6887    
5387.199900000001 8.2181     -9999      -9999      27.2819999999899 -9999      -9999      -9999      -9999      8          -9999      2.6871    
5387.3999  8.2187     -9999      -9999      24.5698    -9999      -9999      -9999      -9999      8          -9999      2.6864    
5387.5999  8.2187     -9999      -9999      25.4473    -9999      -9999      -9999      -9999      8          -9999      2.6886    
5387.7999  8.2192     -9999      -9999      30.84260000000001 -9999      -9999      -9999      -9999      8          -9999      2.6916    
5387.9999  8.2198     -9999      -9999      29.881     -9999      -9999      -9999      -9999      8          -9999      2.6952    
5388.199900000001 8.2181     -9999      -9999      22.55329999996723 -9999      -9999      -9999      -9999      8          -9999      2.6934    
5388.3999  8.2175     -9999      -9999      15.1715    -9999      -9999      -9999      -9999      8          -9999      2.6848    
5388.5999  8.2175     -9999      -9999      10.906     -9999      -9999      -9999      -9999      8          -9999      2.687     
5388.7999  8.2181     -9999      -9999      12.3866    -9999      -9999      -9999      -9999      8          -9999      2.6898    
5388.9999  8.2175     -9999      -9999      15.0686    -9999      -9999      -9999      -9999      8          -9999      2.6904    
5389.199900000001 8.217      -9999      -9999      17.80540000002783 -9999      -9999      -9999      -9999      8          -9999      2.6901    
5389.3999  8.2175     -9999      -9999      26.7446    -9999      -9999      -9999      -9999      8          -9999      2.6892    
5389.5999  8.2181     -9999      -9999      52.47840000000002 -9999      -9999      -9999      -9999      8          -9999      2.6859    
