~Version
 VERS              .         2.0                           : CWLS LOG ASCII STANDARD - VERSION 2.0
 WRAP              .         NO                            : ONE LINE PER DEPTH STEP
 DLM               .         SPACE                         : DELIMITING CHARACTER(SPACE TAB OR COMMA)
~Well Information
#_______________________________________________________________________________
#
#PARAMETER_NAME    .UNIT     VALUE                         : DESCRIPTION
#_______________________________________________________________________________
STRT               .m        2119.8892                     : First reference value
STOP               .m        5043.2892                     : Last reference value
STEP               .m        0.2                           : Step increment
NULL               .         -9999                         : Missing value
COMP               .         PETROLEO BRASILEIRO S/A       : Company
WELL               .         1ESS 0094  ES                 : Well name
FLD                .                                       : Field
LOC                .                                       : Location
CNTY               .                                       : County
STAT               .         ESPIRITO SANTO                : State
CTRY               .                                       : Country
SRVC               .                                       : Service Company
DATE               .                                       : Date
API                .         342710052700                  : API number
EDF                .M        25.00                         : Elevation Derrick Floor
GDAT               .         SIRGAS2000                    : Geodetic Datum
HZCS               .         UTM                           : Horizontal Coordinate System
LAT                .         -20.952076                    : Latitude
LONG               .         -39.451195                    : Longitude
MC                 .         39 W                          : Meridiano Central
ORIG               .         SIGEO EXPORTACAO PERFIL       : Origem dos dados
WDMS               .M        2081.00                       : Water Depth to Mean Sea Level
XCOORD             .         453092.70                     : Surface X
YCOORD             .         7683090.10                    : Surface Y
~Parameter Information Block
#_______________________________________________________________________________
#
#PARAMETER_NAME    .UNIT     VALUE                         : DESCRIPTION
#_______________________________________________________________________________
SET                .         ESS94_resample                : 
TLFamily_CALI      .         Caliper                       : 
TLFamily_DEPT      .         Measured Depth                : 
TLFamily_DT        .         Compressional Slowness        : 
TLFamily_DTS       .         Shear Slowness                : 
TLFamily_GR        .         Gamma Ray                     : 
TLFamily_INPEFA_1  .                                       : 
TLFamily_INPEFA_2  .                                       : 
TLFamily_INPEFA_3  .                                       : 
TLFamily_INPEFA_4  .                                       : 
TLFamily_LITO      .                                       : 
TLFamily_NPHI      .         Neutron Porosity              : 
TLFamily_OG        .                                       : 
TLFamily_RESD      .         Deep Resistivity              : 
TLFamily_RESM      .         Medium Resistivity            : 
TLFamily_RESS      .         Shallow Resistivity           : 
TLFamily_RHOB      .         Bulk Density                  : 
TLFamily_SP        .         Spontaneous Potential         : 
TLFamily_TVD       .         True Vertical Depth           : 
~Curve Information
#_______________________________________________________________________________
#
#LOGNAME           .UNIT     LOG_ID                        : DESCRIPTION
#_______________________________________________________________________________
DEPT               .m                                      :  
CALI               .in                                     :  
DT                 .us/ft                                  :  
DTS                .us/ft                                  :  
GR                 .Sem                                    : GAMMA RAY 
INPEFA_1           .                                       :  
INPEFA_2           .                                       :  
INPEFA_3           .                                       :  
INPEFA_4           .                                       :  
LITO               .Sem                                    : Não definido 
NPHI               .Sem                                    : THERMAL NEUTRON POROSITY (ORIGINAL RATIO METHOD) IN SELECTED LITHOLOGY 
OG                 .                                       :  
RESD               .ohm.m                                  :  
RESM               .ohm.m                                  :  
RESS               .ohm.m                                  :  
RHOB               .g/cm3                                  :  
SP                 .mV                                     : SPONTANEOUS POTENTIAL 
TVD                .m                                      : Vertical Depth 
~Ascii
# ...
2552.6892  -9999      136.2661   -9999      24.62538   -0.01926915 -0.1673859 -0.3503157 -0.3243975 57         -9999      24.62538   0.9910739  0.9708419  0.908      -9999      -9999      2552.580894488189
2552.8892  -9999      141.9559   -9999      20.70156   -0.0114645 -0.1548835 -0.3218704 -0.2466319 57         -9999      20.70156   0.9950593  0.9674377  0.9110592  -9999      -9999      2552.779834120735
2553.0892  -9999      143.7071   -9999      21.72188   -0.01299354 -0.157282  -0.3241262 -0.2266966 57         -9999      21.72188   0.9989136  0.9707797  0.9161578  -9999      -9999      2552.9792 
2553.2892  -9999      142.6082   -9999      22.37979   -0.00816099 -0.148368  -0.2990717 -0.1445915 57         -9999      22.37979   1.002746   0.9814163  0.9235569  -9999      -9999      2553.1791167979
2553.4892  -9999      139.4218   -9999      23.3976    -0.01496622 -0.1587545 -0.3166186 -0.1560595 57         -9999      23.3976    1.007077   0.9898587  0.9285433  -9999      -9999      2553.3791 
2553.6892  -9999      138.3807   -9999      23.53313   -0.01104644 -0.1513999 -0.2947056 -0.09192829 57         -9999      23.53313   1.012325   0.9881928  0.9267422  -9999      -9999      2553.5791 
2553.8892  -9999      140.5468   -9999      23.27617   -0.01345279 -0.1540178 -0.2942419 -0.07590991 57         -9999      23.27617   1.016576   0.9827151  0.9225307  -9999      -9999      2553.779023097113
2554.0892  -9999      141.6097   -9999      23.31936   -0.01234243 -0.1511909 -0.2828045 -0.04647939 57         -9999      23.31936   1.021984   0.9888131  0.9261867  -9999      -9999      2553.979000000001
2554.2892  -9999      141.9953   -9999      22.50972   -0.002341904 -0.1329581 -0.2355854 0.06430352 57         -9999      22.50972   1.026498   1.000042   0.9330764  -9999      -9999      2554.178960629921
2554.4892  -9999      143.9859   -9999      22.06234   -0.01689013 -0.1542971 -0.2748972 -0.007608869 57         -9999      22.06234   1.029559   1.005324   0.9339994  -9999      -9999      2554.3789 
2554.6892  -9999      139.9478   -9999      21.85365   -0.01509928 -0.1516495 -0.2673745 -0.006890695 57         -9999      21.85365   1.02745    0.9977599  0.9270208  -9999      -9999      2554.5789 
2554.8892  -9999      136.3639   -9999      21.5498    -0.00105571 -0.1277761 -0.2105485 0.1044554  57         -9999      21.5498    1.024535   0.9879131  0.9217073  -9999      -9999      2554.778866929134
2555.0892  -9999      139.8356   -9999      21.84172   -0.01349982 -0.1458094 -0.2437064 0.03087267 57         -9999      21.84172   1.024772   0.9811054  0.9185351  -9999      -9999      2554.9788 
2555.2892  -9999      144.289    -9999      23.11666   -0.001617759 -0.1263437 -0.1990077 0.104024   57         -9999      23.11666   1.030645   0.985827   0.9215346  -9999      -9999      2555.1788 
2555.4892  -9999      146.1474   -9999      24.06162   0.00949659 -0.1056797 -0.1460546 0.2163619  57         -9999      24.06162   1.036082   0.9973547  0.9313541  -9999      -9999      2555.378773228346
2555.6892  -9999      147.8252   -9999      22.80814   0.002479323 -0.1137595 -0.1545082 0.2073468  57         -9999      22.80814   1.038674   1.005665   0.9403602  -9999      -9999      2555.5787 
2555.8892  -9999      148.7557   -9999      20.35236   0.00752012 -0.1033962 -0.1247825 0.2729246  57         -9999      20.35236   1.037015   1.006086   0.9409291  -9999      -9999      2555.7787 
2556.0892  -9999      145.474    -9999      19.82095   0.009291372 -0.09800407 -0.1048186 0.32557    57         -9999      19.82095   1.036      1.006246   0.9405113  -9999      -9999      2555.9786 
2556.2892  -9999      140.4561   -9999      20.03906   0.007966276 -0.09706037 -0.09319723 0.3645724  57         -9999      20.03906   1.037292   1.008234   0.9445661  -9999      -9999      2556.1786 
2556.4892  -9999      137.9162   -9999      21.67223   0.008614011 -0.09337791 -0.07663251 0.4128605  57         -9999      21.67223   1.039744   1.009863   0.9487388  -9999      -9999      2556.3786 
2556.6892  -9999      138.4157   -9999      22.36411   0.003272241 -0.09975444 -0.08304083 0.4105422  57         -9999      22.36411   1.041483   1.011667   0.9528822  -9999      -9999      2556.5785 
2556.8892  -9999      137.2869   -9999      22.69622   -0.000753064 -0.105027  -0.08969858 0.3978758  57         -9999      22.69622   1.045241   1.019074   0.9583269  -9999      -9999      2556.7785 
2557.0892  -9999      133.1061   -9999      22.84305   0.002243742 -0.09891054 -0.07167204 0.4360512  57         -9999      22.84305   1.051377   1.032485   0.9670012  -9999      -9999      2556.9785 
2557.2892  -9999      133.2484   -9999      21.33952   -0.009958419 -0.117885  -0.1099069 0.349101   57         -9999      21.33952   1.056712   1.043049   0.9738809  -9999      -9999      2557.1784 
2557.4892  -9999      138.8538   -9999      22.94814   0.004874771 -0.0939482 -0.05633024 0.4463739  57         -9999      22.94814   1.059044   1.041586   0.9740808  -9999      -9999      2557.3784 
2557.6892  -9999      143.0698   -9999      24.48504   0.004196828 -0.09227444 -0.04520807 0.47852    57         -9999      24.48504   1.057393   1.030755   0.9663118  -9999      -9999      2557.578329658793
2557.8892  -9999      139.1825   -9999      22.30419   0.000140085 -0.09667254 -0.04846204 0.4787179  57         -9999      22.30419   1.053437   1.022264   0.9570511  -9999      -9999      2557.7783 
2558.0892  -9999      136.7214   -9999      22.43192   -0.0252297 -0.1372918 -0.1357472 0.2808341  57         -9999      22.43192   1.048186   1.02       0.9536061  -9999      -9999      2557.9783 
2558.2892  -9999      136.0685   -9999      21.70204   0.001128481 -0.09770437 -0.05504501 0.4060767  57         -9999      21.70204   1.042937   1.019231   0.9515187  -9999      -9999      2558.178235958006
2558.4892  -9999      132.9189   -9999      19.11534   0.003625346 -0.0903322 -0.0316417 0.4584668  57         -9999      19.11534   1.034258   1.009842   0.9429858  -9999      -9999      2558.3782 
2558.6892  -9999      130.2794   -9999      19.43492   -0.006767715 -0.104941  -0.05821146 0.4031583  57         -9999      19.43492   1.023399   0.9935797  0.931077   -9999      -9999      2558.5782 
2558.8892  -9999      134.1458   -9999      20.42857   -0.01308869 -0.1157598 -0.0826479 0.3295195  57         -9999      20.42857   1.007989   0.9737077  0.9157742  -9999      -9999      2558.778142257218
2559.0892  -9999      138.5624   -9999      20.99602   -0.008475997 -0.1090545 -0.06986246 0.3268898  57         -9999      20.99602   0.9962803  0.9633609  0.9061157  -9999      -9999      2558.9781 
2559.2892  -9999      139.1392   -9999      21.87864   -0.005420878 -0.1031356 -0.05509812 0.3399569  57         -9999      21.87864   0.9928808  0.9580776  0.9026383  -9999      -9999      2559.178079790027
2559.4892  -9999      137.6496   -9999      22.68757   -0.01278535 -0.1144861 -0.07918298 0.2676134  57         -9999      22.68757   0.9961282  0.9595124  0.9032853  -9999      -9999      2559.378  
2559.6892  -9999      136.9798   -9999      23.94823   -0.0146937 -0.1182591 -0.08986516 0.2088941  57         -9999      23.94823   1.004519   0.9666579  0.9078059  -9999      -9999      2559.578  
2559.8892  -9999      139.6305   -9999      25.27528   -0.01465019 -0.1190174 -0.09492406 0.1565385  57         -9999      25.27528   1.013497   0.9783846  0.9154969  -9999      -9999      2559.777986089239
2560.0892  -9999      142.7019   -9999      25.25456   -0.007005147 -0.1070581 -0.07128463 0.1678216  57         -9999      25.25456   1.018102   0.985718   0.9195611  -9999      -9999      2559.9779 
2560.2892  -9999      147.7469   -9999      26.48195   -0.01007541 -0.1114507 -0.08124378 0.116525   57         -9999      26.48195   1.019811   0.9868945  0.92       -9999      -9999      2560.1779 
2560.4892  -9999      154.6573   -9999      24.76784   -0.008495922 -0.1089941 -0.07772309 0.08970457 57         -9999      24.76784   1.018739   0.986      0.9212608  -9999      -9999      2560.377892388452
