~Version
 VERS              .         2.0                           : CWLS LOG ASCII STANDARD - VERSION 2.0
 WRAP              .         NO                            : ONE LINE PER DEPTH STEP
 DLM               .         SPACE                         : DELIMITING CHARACTER(SPACE TAB OR COMMA)
~Well Information
#_______________________________________________________________________________
#
#PARAMETER_NAME    .UNIT     VALUE                         : DESCRIPTION
#_______________________________________________________________________________
STRT               .m        2119.8892                     : First reference value
STOP               .m        5043.2892                     : Last reference value
STEP               .m        0.2                           : Step increment
NULL               .         -9999                         : Missing value
COMP               .         PETROLEO BRASILEIRO S/A       : Company
WELL               .         1ESS 0094  ES                 : Well name
FLD                .                                       : Field
LOC                .                                       : Location
CNTY               .                                       : County
STAT               .         ESPIRITO SANTO                : State
CTRY               .                                       : Country
SRVC               .                                       : Service Company
DATE               .                                       : Date
API                .         342710052700                  : API number
EDF                .M        25.00                         : Elevation Derrick Floor
GDAT               .         SIRGAS2000                    : Geodetic Datum
HZCS               .         UTM                           : Horizontal Coordinate System
LAT                .         -20.952076                    : Latitude
LONG               .         -39.451195                    : Longitude
MC                 .         39 W                          : Meridiano Central
ORIG               .         SIGEO EXPORTACAO PERFIL       : Origem dos dados
WDMS               .M        2081.00                       : Water Depth to Mean Sea Level
XCOORD             .         453092.70                     : Surface X
YCOORD             .         7683090.10                    : Surface Y
~Parameter Information Block
#_______________________________________________________________________________
#
#PARAMETER_NAME    .UNIT     VALUE                         : DESCRIPTION
#_______________________________________________________________________________
SET                .         ESS94_resample                : 
TLFamily_CALI      .         Caliper                       : 
TLFamily_DEPT      .         Measured Depth                : 
TLFamily_DT        .         Compressional Slowness        : 
TLFamily_DTS       .         Shear Slowness                : 
TLFamily_GR        .         Gamma Ray                     : 
TLFamily_INPEFA_1  .                                       : 
TLFamily_INPEFA_2  .                                       : 
TLFamily_INPEFA_3  .                                       : 
TLFamily_INPEFA_4  .                                       : 
TLFamily_LITO      .                                       : 
TLFamily_NPHI      .         Neutron Porosity              : 
TLFamily_OG        .                                       : 
TLFamily_RESD      .         Deep Resistivity              : 
TLFamily_RESM      .         Medium Resistivity            : 
TLFamily_RESS      .         Shallow Resistivity           : 
TLFamily_RHOB      .         Bulk Density                  : 
TLFamily_SP        .         Spontaneous Potential         : 
TLFamily_TVD       .         True Vertical Depth           : 
~Curve Information
#_______________________________________________________________________________
#
#LOGNAME           .UNIT     LOG_ID                        : DESCRIPTION
#_______________________________________________________________________________
DEPT               .m                                      :  
CALI               .in                                     :  
DT                 .us/ft                                  :  
DTS                .us/ft                                  :  
GR                 .Sem                                    : GAMMA RAY 
INPEFA_1           .                                       :  
INPEFA_2           .                                       :  
INPEFA_3           .                                       :  
INPEFA_4           .                                       :  
LITO               .Sem                                    : Não definido 
NPHI               .Sem                                    : THERMAL NEUTRON POROSITY (ORIGINAL RATIO METHOD) IN SELECTED LITHOLOGY 
OG                 .                                       :  
RESD               .ohm.m                                  :  
RESM               .ohm.m                                  :  
RESS               .ohm.m                                  :  
RHOB               .g/cm3                                  :  
SP                 .mV                                     : SPONTANEOUS POTENTIAL 
TVD                .m                                      : Vertical Depth 
~Ascii
# ...
3902.2892  12.2485    102.5878   198.3289   94.25943   0.2962157  0.1926189  0.374161   0.1640943  57         29.87653459963985 94.25943   0.6147753  0.6700346  0.5494121  2.399353   -13.992056361019 3902.045700000001
3902.4892  12.24757   103.3899   199.1674   94.12173   0.3120021  0.2205995  0.4503852  0.3645211  57         28.17794424342436 94.12173   0.6196097  0.6779029  0.5553888  2.405272   -12.92650840789388 3902.2457 
3902.6892  12.24941   103.4983   205.6844   95.99143   0.3052428  0.2182891  0.4739844  0.5103801  57         28.76278785144971 95.99143   0.6242763  0.6842548  0.560025   2.41583    -16.37965683424102 3902.4457 
3902.8892  12.26427   103.8608   202.4689   99.57193   0.2926683  0.2012095  0.4563569  0.5534877  57         29.87581006247872 99.57193   0.6247015  0.685887   0.5616525  2.42181    -17.4008530243799 3902.6457 
3903.0892  12.27802   104.1165   210.4087   104.3663   0.2756513  0.1773332  0.4233098  0.5646319  57         30.29266085587173 104.3663   0.6216307  0.6826578  0.559867   2.424094   -13.03400210882376 3902.8457 
3903.2892  12.27391   103.7373   210.7762   102.603    0.2626801  0.1573394  0.393124   0.5711614  57         29.73988496474945 102.603    0.6194302  0.6805902  0.5570402  2.42671    -12.59996450980321 3903.0457 
3903.4892  12.27353   103.563    209.7908   95.3655    0.2506378  0.1361727  0.3547724  0.5443001  57         29.25623153826662 95.3655    0.6171576  0.6788989  0.555806   2.425158   -14.96261024975775 3903.2457 
3903.6892  12.27981   103.6623   209.3022   101.03     0.244439   0.125465   0.3401999  0.5710776  57         28.86946458891584 101.03     0.61349    0.6742743  0.5537075  2.42142    -14.22501415342613 3903.4457 
3903.8892  12.25388   103.5578   203.8228   103.7393   0.2374801  0.1130994  0.3212882  0.5961817  57         28.45596644384012 103.7393   0.6106958  0.6691394  0.5506411  2.417179   -16.17119794130011 3903.6457 
3904.0892  12.25084   102.0794   198.0726   102.3003   0.2153593  0.0739907  0.2392772  0.4769024  57         29.39405380709779 102.3003   0.6216615  0.6816087  0.5583583  2.412464   -7.924830419204334 3903.8457 
3904.2892  12.25308   100.4071   196.4795   98.60319   0.187396   0.02331747 0.1254193  0.2594743  57         28.26031576741991 98.60319   0.6278645  0.6873399  0.5585825  2.406491   -12.47146053764427 3904.0457 
3904.4892  12.25809   99.41323   194.5795   94.01601   0.1726665  -0.009895617 0.03991271 0.0550218  57         25.60105882479339 94.01601   0.6248838  0.6823229  0.5547707  2.407529   -12.76484770537121 3904.2457 
3904.6892  12.25522   98.70543   189.1197   94.36357   0.2369361  0.08094063 0.2194281  0.3824176  57         25.51056447367123 94.36357   0.6243855  0.6800428  0.5573716  2.409558   -13.92517453041761 3904.445671391076
3904.8892  12.25972   98.46926   185.1092   95.07782   0.2190735  0.05383307 0.1699574  0.3266743  57         26.06149584852826 95.07782   0.6246384  0.6801394  0.5548025  2.409665   -17.47543609048546 3904.6456 
3905.0892  12.25191   99.12576   182.6751   87.80191   0.2108196  0.0385688  0.1396964  0.2950138  57         27.05294138490498 87.80191   0.6235426  0.6774761  0.5467858  2.404566   -15.65700776057135 3904.8456 
3905.2892  12.25129   100.3824   192.5594   83.93903   0.2093914  0.02959993 0.1145584  0.2459634  57         28.7668591797205 83.93903   0.6171911  0.6699118  0.543156   2.395905   -16.83413643223984 3905.0456 
3905.4892  12.25131   103.2921   206.7883   83.92846   0.2096651  0.02599703 0.104679   0.2371676  57         30.46661256805189 83.92846   0.6109087  0.6632237  0.5434322  2.389786   -20.54559106901889 3905.2456 
3905.6892  12.26699   104.616    215.2046   89.1228    0.2044256  0.01206565 0.06987339 0.1698761  57         30.91706656408382 89.1228    0.6061315  0.6595648  0.5385337  2.394432   -14.83826826248935 3905.445600000001
3905.8892  12.25694   103.9357   215.6024   96.68082   0.2043769  0.006005855 0.05055661 0.124961   57         30.63746195515314 96.68082   0.6073155  0.6621093  0.5342621  2.414097   -6.138259373308652 3905.6456 
3906.0892  12.25559   104.1191   212.0977   104.3104   0.2030144  -0.002045369 0.02690206 0.06911404 57         30.73217668308088 104.3104   0.610161   0.6703859  0.5458964  2.422528   -5.756107206426547 3905.845600000001
3906.2892  12.25539   101.9938   208.3981   109.7029   0.2023733  -0.009493889 0.003078753 0.004105621 57         30.55959185903146 109.7029   0.6090157  0.674143   0.5533552  2.411641   -12.69174719232439 3906.0456 
3906.4892  12.26456   103.4132   202.4273   112.0986   0.2102465  -0.002004035 0.01426707 0.0199953  57         29.51026580089722 112.0986   0.6074358  0.6680496  0.5447438  2.398258   -18.39716657253626 3906.2456 
3906.6892  12.25552   106.4508   213.8578   112.7379   0.1925224  -0.03711421 -0.07017243 -0.1735236 57         27.8718190831443 112.7379   0.6093137  0.6651683  0.5424553  2.401011   -9.971767643314816 3906.445600000001
3906.8892  12.26167   106.7711   232.8599   112.4937   0.2050475  -0.02361947 -0.04924586 -0.1630534 57         27.43499532083856 112.4937   0.6097669  0.6655557  0.55114    2.408747   -13.21875554182418 3906.6456 
3907.0892  12.26374   106.7649   230.8377   114.3604   0.1993834  -0.03833672 -0.08787789 -0.2700843 57         29.42356976687872 114.3604   0.5922757  0.6449776  0.5284133  2.413351   -21.5883779775787 3906.845600000001
3907.2892  12.25584   106.9933   237.4042   118.9171   0.2088924  -0.02960642 -0.07766486 -0.2858316 57         33.85808797521586 118.9171   0.562408   0.6086202  0.4924475  2.411959   -14.69497082177606 3907.0456 
3907.4892  12.24943   104.3952   226.4142   121.3752   0.2037117  -0.04396248 -0.1165345 -0.4038267 57         37.79287394325682 121.3752   0.5620804  0.6085707  0.4977846  2.394939   -19.09812579317295 3907.2456 
3907.6892  12.2695    101.2871   201.1888   106.9971   0.210817   -0.0392164 -0.1156048 -0.4510982 57         35.72825315179745 106.9971   0.5945331  0.6523186  0.5370839  2.378703   -11.15412844759322 3907.4456 
3907.8892  12.24921   102.6889   202.0941   98.77405   0.242375   0.006521324 -0.02063142 -0.2862984 57         30.13445387111807 98.77405   0.6262695  0.6918205  0.5621899  2.394286   -12.55309608039314 3907.645571653543
3908.0892  12.25002   103.05     210.0852   101.3483   0.2466574  0.01271041 -0.001974397 -0.2434039 57         29.80219137637568 101.3483   0.6388743  0.7022289  0.5633285  2.413501   -15.88648011364687 3907.8455 
3908.2892  12.25025   103.1535   212.5747   104.876    0.2387507  -0.000436821 -0.02483864 -0.2775315 57         29.14237178091377 104.876    0.6430792  0.7037449  0.5614918  2.419298   -12.70455717601875 3908.0455 
3908.4892  12.25112   103.3676   212.77     106.0946   0.2281235  -0.02278307 -0.07696036 -0.4067262 57         28.66355658703903 106.0946   0.6449864  0.7042102  0.5604248  2.438082   -10.36515597095867 3908.2455 
3908.6892  12.2558    103.0762   213.5541   106.6346   0.2500348  0.006805411 -0.01767809 -0.3147305 57         28.82792040306773 106.6346   0.6478093  0.7057713  0.5583536  2.454776   -13.35760506056835 3908.4455 
3908.8892  12.25294   102.3224   214.4753   106.4714   0.258093   0.01653714 0.003621151 -0.2818526 57         29.14131873924276 106.4714   0.6537921  0.7126271  0.5604877  2.452084   -12.44060349151527 3908.6455 
3909.0892  12.25272   101.5793   208.2872   105.698    0.2761836  0.04312812 0.06385408 -0.1545694 57         27.8891962607053 105.698    0.6599517  0.7234911  0.5686437  2.442464   -12.90415781877251 3908.8455 
3909.2892  12.2507    101.3745   206.0751   105.17     0.2875664  0.05977239 0.1056392  -0.04481417 57         26.7647490013293 105.17     0.6618635  0.728045   0.5721     2.4451     -11.57820188466722 3909.0455 
3909.4892  12.2507    101.3053   199.3645   103.2302   0.3015381  0.08312792 0.1684399  0.1426576  57         26.79829982447227 103.2302   0.6617177  0.72767    0.5693606  2.453411   -11.82220637204063 3909.2455 
3909.6892  12.24806   101.7724   196.2096   104.7281   0.2992083  0.08450532 0.194208   0.3080728  57         28.67133209649326 104.7281   0.656997   0.7223211  0.5665038  2.446901   -18.14652058458857 3909.4455 
