~Version
 VERS              .         2.0                           : CWLS LOG ASCII STANDARD - VERSION 2.0
 WRAP              .         NO                            : ONE LINE PER DEPTH STEP
 DLM               .         SPACE                         : DELIMITING CHARACTER(SPACE TAB OR COMMA)
~Well Information
#_______________________________________________________________________________
#
#PARAMETER_NAME    .UNIT     VALUE                         : DESCRIPTION
#_______________________________________________________________________________
STRT               .m        2430.3999                     : First reference value
STOP               .m        5554.9999                     : Last reference value
STEP               .m        0.2                           : Step increment
NULL               .         -9999                         : Missing value
COMP               .         PETROLEO BRASILEIRO S/A       : Company
WELL               .         1-ESS-186_resample            : Well name
FLD                .                                       : Field
LOC                .                                       : Location
CNTY               .                                       : County
STAT               .         ESPIRITO SANTO                : State
CTRY               .                                       : Country
SRVC               .                                       : Service Company
DATE               .                                       : Date
API                .         342710339400                  : API number
EDF                .M        25.00                         : Elevation Derrick Floor
GDAT               .         SIRGAS2000                    : Geodetic Datum
HZCS               .         UTM                           : Horizontal Coordinate System
LAT                .         -20.356499                    : Latitude
LONG               .         -39.496292                    : Longitude
MC                 .         39 W                          : Meridiano Central
ORIG               .         SIGEO EXPORTACAO PERFIL       : Origem dos dados
WDMS               .M        1798.00                       : Water Depth to Mean Sea Level
XCOORD             .         448202.60                     : Surface X
YCOORD             .         7748989.80                    : Surface Y
~Parameter Information Block
#_______________________________________________________________________________
#
#PARAMETER_NAME    .UNIT     VALUE                         : DESCRIPTION
#_______________________________________________________________________________
SET                .         ESS186_resample               : 
TLFamily_CALI      .         Caliper                       : 
TLFamily_DEPT      .         Measured Depth                : 
TLFamily_DT        .         Compressional Slowness        : 
TLFamily_DTS       .         Shear Slowness                : 
TLFamily_GR        .         Gamma Ray                     : 
TLFamily_INPEFA_1  .                                       : 
TLFamily_INPEFA_2  .                                       : 
TLFamily_INPEFA_3  .                                       : 
TLFamily_INPEFA_4  .                                       : 
TLFamily_LITO      .                                       : 
TLFamily_NPHI      .         Neutron Porosity              : 
TLFamily_OG        .                                       : 
TLFamily_RESD      .         Deep Resistivity              : 
TLFamily_RESM      .         Medium Resistivity            : 
TLFamily_RESS      .         Shallow Resistivity           : 
TLFamily_RHOB      .         Bulk Density                  : 
TLFamily_TVD       .         True Vertical Depth           : 
~Curve Information
#_______________________________________________________________________________
#
#LOGNAME           .UNIT     LOG_ID                        : DESCRIPTION
#_______________________________________________________________________________
DEPT               .m                                      :  
CALI               .in                                     :  
DT                 .us/ft                                  :  
DTS                .us/ft                                  :  
GR                 .gAPI                                   : GAMMA RAY 
INPEFA_1           .                                       :  
INPEFA_2           .                                       :  
INPEFA_3           .                                       :  
INPEFA_4           .                                       :  
LITO               .Sem                                    : Não definido 
NPHI               .%                                      : THERMAL NEUTRON POROSITY (ORIGINAL RATIO METHOD) IN SELECTED LITHOLOGY 
OG                 .                                       :  
RESD               .ohm.m                                  :  
RESM               .ohm.m                                  :  
RESS               .ohm.m                                  :  
RHOB               .g/cm3                                  :  
TVD                .                                       : Vertical Depth 
~Ascii
# ...
3689.9999  -9999      -9999      -9999      61.20204   0.1476346  -0.07543437 -0.1578669 -0.06751353 57         -9999      61.20204   1.044738   1.045087   1.058429948702764 -9999      3689.8773 
3690.1999  -9999      -9999      -9999      60.33223   0.1594733  -0.05607904 -0.1237847 0.000914743 57         -9999      60.33223   1.046989   1.055797   1.081006944039204 -9999      3690.0773 
3690.3999  -9999      -9999      -9999      62.3429    0.1626336  -0.04891505 -0.1067453 0.05021179 57         -9999      62.3429    1.050091   1.061393   1.087475880095977 -9999      3690.2773 
3690.5999  -9999      -9999      -9999      59.98155   0.1569861  -0.05743821 -0.1184491 0.03419183 57         -9999      59.98155   1.052512   1.063408   1.085468233083101 -9999      3690.4772 
3690.7999  -9999      -9999      -9999      61.7527    0.1567117  -0.05824926 -0.1184425 0.03927401 57         -9999      61.7527    1.058445   1.057564   1.072006987265157 -9999      3690.6772 
3690.9999  -9999      -9999      -9999      62.04848   0.1614455  -0.04963262 -0.09983287 0.09471735 57         -9999      62.04848   1.066387   1.048637   1.052323285719349 -9999      3690.877199999999
3691.1999  -9999      -9999      -9999      62.06093   0.1471294  -0.07270724 -0.1370468 0.02603027 57         -9999      62.06093   1.07545    1.049308   1.04383621304328 -9999      3691.077103412074
3691.3999  -9999      -9999      -9999      63.15824   0.1438223  -0.07967762 -0.1499274 -0.004350774 57         -9999      63.15824   1.088696   1.067248   1.067885164783548 -9999      3691.2771 
3691.5999  -9999      -9999      -9999      62.4309    0.1390945  -0.08967886 -0.1698435 -0.05778081 57         -9999      62.4309    1.099093   1.094515   1.109370957657318 -9999      3691.4771 
3691.7999  -9999      -9999      -9999      60.25316   0.1382317  -0.0951021 -0.1851328 -0.1157748 57         -9999      60.25316   1.106674   1.112247   1.129095605822189 -9999      3691.677009711286
3691.9999  -9999      -9999      -9999      58.26907   0.1669193  -0.05004461 -0.1091441 0.0417275  57         -9999      58.26907   1.115217   1.124703   1.142517287940365 -9999      3691.877  
3692.1999  -9999      -9999      -9999      58.97567   0.1640354  -0.05256749 -0.1082783 0.06624863 57         -9999      58.97567   1.122561   1.133046   1.14954513542993 -9999      3692.077  
3692.3999  -9999      -9999      -9999      56.04754   0.1394503  -0.09222492 -0.1746484 -0.0638306 57         -9999      56.04754   1.126348   1.136776   1.150696014408234 -9999      3692.276916010499
3692.5999  -9999      -9999      -9999      55.18836   0.1347822  -0.1043982 -0.201758  -0.1379917 57         -9999      55.18836   1.126802   1.140469   1.153499746427564 -9999      3692.4769 
3692.7999  -9999      -9999      -9999      55.01959   0.1292137  -0.1192356 -0.2364066 -0.2438752 57         -9999      55.01959   1.124445   1.151126   1.174961291229367 -9999      3692.676853543307
3692.9999  -9999      -9999      -9999      54.15946   0.1454211  -0.09708627 -0.2051566 -0.2030432 57         -9999      54.15946   1.117713   1.159006   1.197142415026132 -9999      3692.8768 
3693.1999  -9999      -9999      -9999      52.6326    0.1495829  -0.09243177 -0.200368  -0.2051751 57         -9999      52.6326    1.107559   1.151101   1.195726645572912 -9999      3693.0768 
3693.3999  -9999      -9999      -9999      52.88011   0.1487187  -0.09663482 -0.211757  -0.2461139 57         -9999      52.88011   1.092559   1.117367   1.1427318483473 -9999      3693.27675984252
3693.5999  -9999      -9999      -9999      55.66911   0.1636897  -0.07327007 -0.1724121 -0.1653386 57         -9999      55.66911   1.068963   1.071533   1.079628025823412 -9999      3693.4767 
3693.7999  -9999      -9999      -9999      57.64249   0.1543871  -0.08943426 -0.2009251 -0.2285263 57         -9999      57.64249   1.038078   1.025239   1.034382195779457 -9999      3693.6767 
3693.9999  -9999      -9999      -9999      57.5511    0.1609004  -0.08070622 -0.1878244 -0.2076507 57         -9999      57.5511    1.021541   0.9896681  0.9846629669348151 -9999      3693.876666141732
3694.1999  -9999      -9999      -9999      59.58882   0.1617057  -0.08051494 -0.1882352 -0.2118472 57         -9999      59.58882   1.004607   0.9484627  0.9247578703373235 -9999      3694.0766 
3694.3999  -9999      -9999      -9999      61.29161   0.1664393  -0.07377578 -0.1768568 -0.1881618 57         -9999      61.29161   1.000978   0.9417638  0.9095036778168196 -9999      3694.2766 
3694.5999  -9999      -9999      -9999      61.93675   0.1622051  -0.08201139 -0.1919935 -0.2261176 57         -9999      61.93675   1.009716   0.9815193  0.9717254979790064 -9999      3694.476572440945
3694.7999  -9999      -9999      -9999      60.96019   0.165454   -0.07860606 -0.1881863 -0.2290866 57         -9999      60.96019   1.019527   1.017902   1.037997569893025 -9999      3694.6765 
3694.9999  -9999      -9999      -9999      55.56937   0.1650354  -0.08100807 -0.1943613 -0.2562444 57         -9999      55.56937   1.031588   1.039355   1.067293329975673 -9999      3694.8765 
3695.1999  -9999      -9999      -9999      53.92163   0.182104   -0.05383169 -0.147329  -0.1599706 57         -9999      53.92163   1.043279   1.031459   1.037220810883769 -9999      3695.076478740158
3695.3999  -9999      -9999      -9999      59.49305   0.1810513  -0.05350547 -0.1420302 -0.1374129 57         -9999      59.49305   1.051493   1.021887   1.003749226468929 -9999      3695.2764 
3695.5999  -9999      -9999      -9999      63.36187   0.1700139  -0.07177748 -0.1727418 -0.2069941 57         -9999      63.36187   1.061161   1.03433    1.02222401492246 -9999      3695.476400000001
3695.7999  -9999      -9999      -9999      63.62425   0.1794262  -0.05806683 -0.1505744 -0.1720589 57         -9999      63.62425   1.074653   1.068086   1.078215617135232 -9999      3695.67638503937
3695.9999  -9999      -9999      -9999      59.5507    0.1878385  -0.04327995 -0.1221917 -0.1076024 57         -9999      59.5507    1.093258   1.099311   1.110615588171482 -9999      3695.876299999999
3696.1999  -9999      -9999      -9999      56.6957    0.1838832  -0.04874956 -0.1286969 -0.1168026 57         -9999      56.6957    1.10803    1.118608   1.131725969152941 -9999      3696.0763 
3696.3999  -9999      -9999      -9999      56.64452   0.1679414  -0.07622276 -0.1779746 -0.2392396 57         -9999      56.64452   1.118861   1.127968   1.138921216273701 -9999      3696.276291338583
3696.5999  -9999      -9999      -9999      55.40562   0.1876235  -0.04733095 -0.132868  -0.1692095 57         -9999      55.40562   1.126076   1.131717   1.140559000880602 -9999      3696.4762 
3696.7999  -9999      -9999      -9999      56.59966   0.1930867  -0.0371968 -0.1131369 -0.1292319 57         -9999      56.59966   1.12992    1.135659   1.143659515292648 -9999      3696.6762 
3696.9999  -9999      -9999      -9999      56.89437   0.1809012  -0.05828648 -0.1512757 -0.2291907 57         -9999      56.89437   1.132286   1.14044    1.148527217662069 -9999      3696.876197637796
3697.1999  -9999      -9999      -9999      56.92148   0.2021092  -0.02637154 -0.1000964 -0.1426512 57         -9999      56.92148   1.130422   1.141159   1.155477387995439 -9999      3697.0761 
3697.3999  -9999      -9999      -9999      56.58597   0.2098894  -0.01172978 -0.0708771 -0.07377461 57         -9999      56.58597   1.125175   1.131181   1.147945860291485 -9999      3697.2761 
3697.5999  -9999      -9999      -9999      57.49077   0.2053552  -0.0190572 -0.08200874 -0.09877716 57         -9999      57.49077   1.121683   1.102197   1.091716773176707 -9999      3697.476003937008
3697.7999  -9999      -9999      -9999      57.65159   0.2316779  0.02484031 -0.002422374 0.08571554 57         -9999      57.65159   1.114801   1.090844   1.071967878449772 -9999      3697.676  
3697.9999  -9999      -9999      -9999      57.78545   0.217616   0.006046559 -0.02555899 0.06987185 57         -9999      57.78545   1.105888   1.106516   1.119225545420033 -9999      3697.876  
