~Version
 VERS              .         2.0                           : CWLS LOG ASCII STANDARD - VERSION 2.0
 WRAP              .         NO                            : ONE LINE PER DEPTH STEP
 DLM               .         SPACE                         : DELIMITING CHARACTER(SPACE TAB OR COMMA)
~Well Information
#_______________________________________________________________________________
#
#PARAMETER_NAME    .UNIT     VALUE                         : DESCRIPTION
#_______________________________________________________________________________
STRT               .m        2119.8892                     : First reference value
STOP               .m        5043.2892                     : Last reference value
STEP               .m        0.2                           : Step increment
NULL               .         -9999                         : Missing value
COMP               .         PETROLEO BRASILEIRO S/A       : Company
WELL               .         1ESS 0094  ES                 : Well name
FLD                .                                       : Field
LOC                .                                       : Location
CNTY               .                                       : County
STAT               .         ESPIRITO SANTO                : State
CTRY               .                                       : Country
SRVC               .                                       : Service Company
DATE               .                                       : Date
API                .         342710052700                  : API number
EDF                .M        25.00                         : Elevation Derrick Floor
GDAT               .         SIRGAS2000                    : Geodetic Datum
HZCS               .         UTM                           : Horizontal Coordinate System
LAT                .         -20.952076                    : Latitude
LONG               .         -39.451195                    : Longitude
MC                 .         39 W                          : Meridiano Central
ORIG               .         SIGEO EXPORTACAO PERFIL       : Origem dos dados
WDMS               .M        2081.00                       : Water Depth to Mean Sea Level
XCOORD             .         453092.70                     : Surface X
YCOORD             .         7683090.10                    : Surface Y
~Parameter Information Block
#_______________________________________________________________________________
#
#PARAMETER_NAME    .UNIT     VALUE                         : DESCRIPTION
#_______________________________________________________________________________
SET                .         ESS94_resample                : 
TLFamily_CALI      .         Caliper                       : 
TLFamily_DEPT      .         Measured Depth                : 
TLFamily_DT        .         Compressional Slowness        : 
TLFamily_DTS       .         Shear Slowness                : 
TLFamily_GR        .         Gamma Ray                     : 
TLFamily_INPEFA_1  .                                       : 
TLFamily_INPEFA_2  .                                       : 
TLFamily_INPEFA_3  .                                       : 
TLFamily_INPEFA_4  .                                       : 
TLFamily_LITO      .                                       : 
TLFamily_NPHI      .         Neutron Porosity              : 
TLFamily_OG        .                                       : 
TLFamily_RESD      .         Deep Resistivity              : 
TLFamily_RESM      .         Medium Resistivity            : 
TLFamily_RESS      .         Shallow Resistivity           : 
TLFamily_RHOB      .         Bulk Density                  : 
TLFamily_SP        .         Spontaneous Potential         : 
TLFamily_TVD       .         True Vertical Depth           : 
~Curve Information
#_______________________________________________________________________________
#
#LOGNAME           .UNIT     LOG_ID                        : DESCRIPTION
#_______________________________________________________________________________
DEPT               .m                                      :  
CALI               .in                                     :  
DT                 .us/ft                                  :  
DTS                .us/ft                                  :  
GR                 .Sem                                    : GAMMA RAY 
INPEFA_1           .                                       :  
INPEFA_2           .                                       :  
INPEFA_3           .                                       :  
INPEFA_4           .                                       :  
LITO               .Sem                                    : Não definido 
NPHI               .Sem                                    : THERMAL NEUTRON POROSITY (ORIGINAL RATIO METHOD) IN SELECTED LITHOLOGY 
OG                 .                                       :  
RESD               .ohm.m                                  :  
RESM               .ohm.m                                  :  
RESS               .ohm.m                                  :  
RHOB               .g/cm3                                  :  
SP                 .mV                                     : SPONTANEOUS POTENTIAL 
TVD                .m                                      : Vertical Depth 
~Ascii
# ...
4640.689200000001 8.521182   89.86346   332.6276   112.8181   0.5077379  0.2158143  0.4853749  0.271011   57         32.17506741101119 112.8181   1.024116   1.111885   0.8809057  2.429993   -38.66099028871456 4640.4155 
4640.8892  8.524533   90.54124   392.4097   112.9122   0.4794298  0.1819246  0.4362487  0.2160886  57         31.77092745924102 112.9122   0.9549544  1.065114   0.8983626  2.405397   -41.9836010498537 4640.615499999999
4641.0892  8.480396   86.54032   392.4097   112.9321   0.4671436  0.1682997  0.4196351  0.1936373  57         25.72472003125442 112.9321   0.9505037  1.166739   1.036611   2.402381   -45.52381338582728 4640.8155 
4641.2892  8.378768   80.36351   392.7114   106.6945   0.461742   0.1670063  0.431545   0.2390467  57         19.06589564125726 106.6945   0.975623   1.334222   1.218464   2.415567   -43.82940288713945 4641.0155 
4641.4892  8.322985   75.19423   395.0979   98.83035   0.4418552  0.1414444  0.3883068  0.1687608  57         15.01893154655108 98.83035   0.9418284  1.360654   1.223872   2.430704   -37.07546587926969 4641.2155 
4641.689200000001 8.332472   73.4871    397.2472   94.42694   0.4249445  0.1188702  0.3468324  0.08446244 57         15.5991097547909 94.42694   0.8264572  1.183381   1.049177   2.429495   -32.96620236220456 4641.415475590552
4641.8892  8.331508   72.37238   386.6597   93.18722   0.4267001  0.124365   0.3619328  0.1052766  57         16.23478049430913 93.18722   0.750208   1.043838   0.9429341  2.415158   -34.39338976377375 4641.6154 
4642.0892  8.345317   72.19072   378.9438   96.01823   0.4402459  0.1514276  0.4293497  0.2663399  57         15.45744813583357 96.01823   0.7344049  0.9980464  0.9164243  2.410292   -37.88215958006068 4641.8154 
4642.2892  8.345252   73.33764   378.9438   100.0033   0.4337383  0.1477168  0.4345773  0.3319868  57         16.21055535444829 100.0033   0.7858518  1.069568   0.9692384  2.421552   -39.21930314960758 4642.0154 
4642.4892  8.35723    76.26006   378.9438   104.768    0.4117533  0.1212408  0.394793   0.3290753  57         20.91388622795314 104.768    0.869992   1.188985   1.016331   2.442548   -40.93557611548981 4642.2154 
4642.689200000001 8.417586   80.31779   344.9341   115.1531   0.392985   0.09463929 0.3449714  0.2776395  57         27.16353666253852 115.1531   0.8915235  1.173847   0.9636035  2.458216   -44.96795380579765 4642.415400000001
4642.8892  8.457771   84.36224   164.5298   125.7396   0.3772409  0.07378998 0.3075554  0.2510696  57         30.86629298352812 125.7396   0.9051427  1.121311   0.8926239  2.459507   -46.31434488189002 4642.6154 
4643.0892  8.473308   89.06792   164.5298   130.9432   0.354169   0.03849938 0.232454   0.1278856  57         30.24582440333814 130.9432   0.9916776  1.177197   0.9090108  2.44565    -45.22606981627364 4642.8154 
4643.2892  8.532146   91.37862   201.0549   134.158    0.3576667  0.04208295 0.2333686  0.1322474  57         28.28167201965961 134.158    1.056839   1.223581   0.9215856  2.435238   -42.20682283464916 4643.0154 
4643.4892  8.5376     89.75978   414.3308   138.3118   0.363537   0.05450272 0.2627914  0.2312605  57         26.13658023443756 138.3118   1.11631    1.271636   0.9294115  2.438544   -41.30378976378135 4643.2154 
4643.689200000001 8.506178   90.07622   414.3308   135.4649   0.3495272  0.03496913 0.2238993  0.1959555  57         26.8756556022896 135.4649   1.233182   1.399561   0.9699925  2.438234   -39.41181076114584 4643.415400000001
4643.8892  8.502509   91.29342   414.3308   135.5502   0.3441626  0.03009047 0.2174638  0.2309147  57         32.03899505693483 135.5502   1.275404   1.437558   0.9720048  2.426883   -37.83639055118058 4643.6154 
4644.0892  8.499855   93.2996    416.0341   137.9806   0.3344635  0.01807396 0.1952957  0.2401594  57         36.66467819815169 137.9806   1.26708    1.422096   0.9612463  2.41109    -38.64270551181252 4643.8154 
4644.2892  8.499219   96.80395   423.0141   138.6616   0.30413    -0.02870153 0.09298597 0.06756613 57         36.38968943798398 138.6616   1.277424   1.455519   0.9943964  2.400974   -37.82672624671921 4644.015369553806
4644.4892  8.496504   99.70556   419.8871   140.4708   0.2897823  -0.05324111 0.03004897 -0.05212362 57         34.62432003271507 140.4708   1.305438   1.516322   1.03521    2.395004   -37.63313963254573 4644.2153 
4644.689200000001 8.489056   100.7528   396.4706   143.2502   0.2759044  -0.07795563 -0.03662407 -0.1959761 57         34.62794425544018 143.2502   1.323088   1.552482   1.044784   2.380564   -38.59654488189667 4644.415300000001
4644.8892  8.486259   97.21819   385.8261   142.0028   0.2736081  -0.08785434 -0.07996857 -0.3284803 57         33.29616540623714 142.0028   1.242735   1.468603   0.9838672  2.391341   -43.66839107611263 4644.6153 
4645.0892  8.493183   91.83743   404.4426   136.2633   0.2946292  -0.05590817 -0.02509448 -0.2358737 57         27.72691912410628 136.2633   1.198117   1.438617   0.9517537  2.43698    -46.84448241470312 4644.815300000001
4645.2892  8.491104   88.97124   390.488    133.2243   0.2827812  -0.07564984 -0.08010317 -0.3571021 57         24.5079474111218 133.2243   1.233792   1.4873     0.9801136  2.466132   -45.47064251967701 4645.015300000001
4645.4892  8.485464   88.45827   296.1358   137.3058   0.2828336  -0.07854142 -0.104174  -0.4327179 57         29.42489245055497 137.3058   1.2741     1.538006   1.024838   2.454495   -42.95793779528073 4645.2153 
4645.689200000001 8.502129   90.30664   211.1864   143.1756   0.2984481  -0.05457518 -0.06600673 -0.3575459 57         33.70701989602238 143.1756   1.37535    1.679233   1.10005    2.431513   -40.65818976377543 4645.415300000001
4645.8892  8.537118   93.63126   183.1074   146.8963   0.2892236  -0.06946822 -0.1092274 -0.4312089 57         33.96151054562795 146.8963   1.575433   1.975912   1.218812   2.409489   -39.55966377952861 4645.6153 
4646.0892  8.49604    96.50267   188.1747   149.4967   0.2551611  -0.1273866 -0.2540856 -0.7449192 57         33.49247981995195 149.4967   1.807406   2.30293    1.340811   2.388314   -42.36768267716755 4645.8153 
4646.2892  8.472954   98.21586   188.3043   146.5686   0.2878043  -0.08487832 -0.194408  -0.6806971 57         34.47226140380224 146.5686   1.980722   2.609579   1.460758   2.371892   -45.02532283464588 4646.0153 
4646.4892  8.458797   99.11301   188.3474   140.9079   0.3209774  -0.03315788 -0.09595527 -0.4659804 57         34.36964488592692 140.9079   2.095292   2.923528   1.522233   2.364239   -46.16974173228312 4646.2153 
4646.689200000001 8.481775   98.6626    185.5944   139.0236   0.3161096  -0.03893301 -0.1127923 -0.4484476 57         32.44060311104089 139.0236   2.053042   2.781436   1.420783   2.373613   -43.65923359579358 4646.415300000001
4646.8892  8.511087   97.13059   204.5056   139.6008   0.3019142  -0.05794927 -0.1545004 -0.4611815 57         30.8634597898489 139.6008   1.87923    2.395822   1.297218   2.405958   -41.6234010498722 4646.6153 
4647.0892  8.515176   95.34992   231.4849   140.6784   0.2916335  -0.07720679 -0.2077754 -0.5321314 57         30.22328690656549 140.6784   1.712438   2.162319   1.290524   2.440776   -39.4407102362153 4646.815232283465
4647.2892  8.504594   94.4821    238.6722   144.9547   0.2935321  -0.07443073 -0.2092229 -0.4881017 57         30.02819385178076 144.9547   1.614749   2.035442   1.292159   2.443638   -36.21946299211875 4647.015200000001
4647.4892  8.513086   93.6712    226.3956   148.424    0.2961648  -0.07223082 -0.2142101 -0.4558908 57         30.90301162739807 148.424    1.541971   1.933154   1.243098   2.42071    -35.50448635170752 4647.215200000001
4647.689200000001 8.527191   92.19842   199.2106   149.1315   0.308399   -0.05088368 -0.1695716 -0.2914568 57         29.72122253957014 149.1315   1.50257    1.883088   1.213657   2.416847   -37.45155196852043 4647.415200000001
4647.8892  8.523423   90.27255   227.3033   145.9321   0.29419    -0.07173178 -0.2145169 -0.3009078 57         27.13840712400547 145.9321   1.434527   1.790131   1.165392   2.429855   -38.93151154855322 4647.615199999999
