~Version
 VERS              .         2.0                           : CWLS LOG ASCII STANDARD - VERSION 2.0
 WRAP              .         NO                            : ONE LINE PER DEPTH STEP
 DLM               .         SPACE                         : DELIMITING CHARACTER(SPACE TAB OR COMMA)
~Well Information
#_______________________________________________________________________________
#
#PARAMETER_NAME    .UNIT     VALUE                         : DESCRIPTION
#_______________________________________________________________________________
STRT               .m        1880.5999                     : First reference value
STOP               .m        5405.7999                     : Last reference value
STEP               .m        0.2                           : Step increment
NULL               .         -9999                         : Missing value
COMP               .         PETROLEO BRASILEIRO S/A       : Company
WELL               .         1-ESS-86A_resample            : Well name
FLD                .                                       : Field
LOC                .                                       : Location
CNTY               .                                       : County
STAT               .         ESPIRITO SANTO                : State
CTRY               .                                       : Country
SRVC               .                                       : Service Company
DATE               .                                       : Date
API                .         342710051600                  : API number
EDF                .M        14.00                         : Elevation Derrick Floor
GDAT               .         SIRGAS2000                    : Geodetic Datum
HZCS               .         UTM                           : Horizontal Coordinate System
LMF                .         MR                            : Log Measure From
LATI               .         -20_24_56.411                 : Latitude
LONG               .         -39_29_19.989                 : Longitude
MC                 .         39 W                          : Meridiano Central
ORIG               .         SIGEO EXPORTACAO PERFIL       : Origem dos dados
ORIGINALWELLNAME   .         1ESS 0086A ES                 : 
WDMS               .M        1841.00                       : Water Depth to Mean Sea Level
X                  .         448953.89                     : Surface X
Y                  .         7742410.09                    : Surface Y
~Parameter Information Block
#_______________________________________________________________________________
#
#PARAMETER_NAME    .UNIT     VALUE                         : DESCRIPTION
#_______________________________________________________________________________
SET                .         ESS86A_resample               : 
TLFamily_CALI      .         Caliper                       : 
TLFamily_DEPT      .         Measured Depth                : 
TLFamily_DT        .         Compressional Slowness        : 
TLFamily_GR        .         Gamma Ray                     : 
TLFamily_HDRS      .         Deep Resistivity              : 
TLFamily_INPEFA_1  .                                       : 
TLFamily_INPEFA_2  .                                       : 
TLFamily_INPEFA_3  .                                       : 
TLFamily_INPEFA_4  .                                       : 
TLFamily_LITO      .                                       : 
TLFamily_NPHI      .         Neutron Porosity              : 
TLFamily_RHOB      .         Bulk Density                  : 
~Curve Information
#_______________________________________________________________________________
#
#LOGNAME           .UNIT     LOG_ID                        : DESCRIPTION
#_______________________________________________________________________________
DEPT               .m                                      :  
CALI               .in                                     : CALIPER 1 CYLINDERDIAMETER 
DT                 .us/ft                                  : DELTA-T (ALSO CALLED SLOWNESS OR INTERVAL TRANSIT TIME) 
GR                 .gAPI                                   : GAMMA RAY 
HDRS               .ohm.m                                  : INDUCTION DEEP RESISTIVITY 
INPEFA_1           .                                       :  
INPEFA_2           .                                       :  
INPEFA_3           .                                       :  
INPEFA_4           .                                       :  
LITO               .                                       :  
NPHI               .%                                      : THERMAL NEUTRON POROSITY (ORIGINAL RATIO METHOD) IN SELECTED LITHOLOGY 
RHOB               .g/cm3                                  : BULK DENSITY 
~Ascii
1880.5999  -9999      -9999      25.8155    -9999      0.04473972 0.06224246 0.07295302 0.1423412  57         -9999      -9999     
1880.7999  -9999      -9999      27.4728    -9999      0.04221012 0.05763555 0.06512436 0.1339582  57         -9999      -9999     
1880.9999  -9999      -9999      28.9582    -9999      0.03513438 0.04203031 0.0357858  0.07701485 57         -9999      -9999     
1881.1999  -9999      -9999      27.7512    -9999      0.03247137 0.03669862 0.02444031 0.04838088 57         -9999      -9999     
1881.3999  -9999      -9999      28.9367    -9999      0.04091525 0.05433812 0.05258569 0.09462424 57         -9999      -9999     
1881.5999  -9999      -9999      29.6026    -9999      0.0429051  0.05800581 0.05670917 0.1000408  57         -9999      -9999     
1881.7999  -9999      -9999      29.0983    -9999      0.04430742 0.06266891 0.06524189 0.1194636  57         -9999      -9999     
1881.9999  -9999      -9999      32.4094    -9999      0.04647912 0.06922325 0.07753984 0.1478485  57         -9999      -9999     
1882.1999  -9999      -9999      32.2368    -9999      0.04205123 0.05952343 0.05853639 0.109145   57         -9999      -9999     
1882.3999  -9999      -9999      31.9961    -9999      0.04573863 0.06750211 0.0706517  0.1295796  57         -9999      -9999     
1882.5999  -9999      -9999      29.6891    -9999      0.05264817 0.08439474 0.1012739  0.1943526  57         -9999      -9999     
1882.7999  -9999      -9999      27.2781    -9999      0.04939575 0.07905314 0.09259983 0.184645   57         -9999      -9999     
1882.9999  -9999      -9999      27.1915    -9999      0.05322238 0.08805767 0.1081116  0.2200166  57         -9999      -9999     
1883.1999  -9999      -9999      28.4058    -9999      0.05102321 0.0856257  0.1053635  0.2245635  57         -9999      -9999     
1883.3999  -9999      -9999      28.1677    -9999      0.04603999 0.07610473 0.08824287 0.1946288  57         -9999      -9999     
1883.5999  -9999      -9999      26.47      -9999      0.053479   0.09198841 0.1142478  0.2452524  57         -9999      -9999     
1883.7999  -9999      -9999      26.4652    -9999      0.05019715 0.08671033 0.1056598  0.2359318  57         -9999      -9999     
1883.9999  -9999      -9999      28.8538    -9999      0.05531812 0.09970994 0.1295154  0.2917296  57         -9999      -9999     
1884.1999  -9999      -9999      31.6705    -9999      0.0521629  0.0947028  0.1215317  0.2861572  57         -9999      -9999     
1884.3999  -9999      -9999      31.4437    -9999      0.04652166 0.08381898 0.1021481  0.254183   57         -9999      -9999     
1884.5999  -9999      -9999      29.8851    -9999      0.04189183 0.07423615 0.08346561 0.2170489  57         -9999      -9999     
1884.7999  -9999      -9999      28.1782    -9999      0.04590602 0.08236504 0.09474741 0.2343207  57         -9999      -9999     
1884.9999  -9999      -9999      27.8715    -9999      0.04642138 0.08396949 0.09604885 0.2366619  57         -9999      -9999     
1885.1999  -9999      -9999      29.3764    -9999      0.04759401 0.08789538 0.1027865  0.2537775  57         -9999      -9999     
1885.3999  -9999      -9999      29.5336    -9999      0.04947346 0.09271188 0.1104998  0.2723602  57         -9999      -9999     
1885.5999  -9999      -9999      28.7409    -9999      0.04456113 0.08352762 0.09437052 0.2467326  57         -9999      -9999     
1885.7999  -9999      -9999      28.7191    -9999      0.04477772 0.08432318 0.0942702  0.2473494  57         -9999      -9999     
1885.9999  -9999      -9999      28.0823    -9999      0.03908946 0.07229343 0.07114161 0.2003067  57         -9999      -9999     
1886.1999  -9999      -9999      29.3306    -9999      0.04401126 0.08283275 0.08741328 0.228612   57         -9999      -9999     
1886.3999  -9999      -9999      30.8443    -9999      0.03971878 0.07496844 0.07326741 0.2030803  57         -9999      -9999     
1886.5999  -9999      -9999      30.2716    -9999      0.03377108 0.06201914 0.04770368 0.1464018  57         -9999      -9999     
1886.7999  -9999      -9999      30.7545    -9999      0.03533672 0.06409542 0.04670398 0.1302969  57         -9999      -9999     
1886.9999  -9999      -9999      29.5937    -9999      0.03760227 0.06847296 0.05089348 0.1270151  57         -9999      -9999     
1887.1999  -9999      -9999      29.8844    -9999      0.0367687  0.06694993 0.04587566 0.1092282  57         -9999      -9999     
1887.3999  -9999      -9999      31.3433    -9999      0.04103339 0.07608168 0.05928818 0.1268208  57         -9999      -9999     
1887.5999  -9999      -9999      33.0041    -9999      0.04113322 0.07692315 0.05916778 0.1218001  57         -9999      -9999     
1887.7999  -9999      -9999      33.1854    -9999      0.02906043 0.05031597 0.008611471 0.01059458 57         -9999      -9999     
1887.9999  -9999      -9999      32.2073    -9999      0.04084162 0.0737239  0.04420139 0.06076023 57         -9999      -9999     
1888.1999  -9999      -9999      30.7787    -9999      0.03863388 0.06951598 0.03475895 0.03380292 57         -9999      -9999     
1888.3999  -9999      -9999      29.8216    -9999      0.04347787 0.07960818 0.04956065 0.05225684 57         -9999      -9999     
1888.5999  -9999      -9999      30.8943    -9999      0.05037229 0.09513277 0.07559891 0.09885351 57         -9999      -9999     
1888.7999  -9999      -9999      31.6707    -9999      0.04529963 0.08661109 0.06184119 0.07655898 57         -9999      -9999     
1888.9999  -9999      -9999      33.3836    -9999      0.03980694 0.07458571 0.03826308 0.02455298 57         -9999      -9999     
1889.1999  -9999      -9999      32.9874    -9999      0.03955741 0.07280399 0.03081819 -0.003550852 57         -9999      -9999     
1889.3999  -9999      -9999      33.0283    -9999      0.04074471 0.07526253 0.03231519 -0.0108425 57         -9999      -9999     
1889.5999  -9999      -9999      33.5578    -9999      0.04262008 0.07929666 0.03706903 -0.009073017 57         -9999      -9999     
1889.7999  -9999      -9999      33.5321    -9999      0.04346269 0.08076637 0.03696506 -0.01690636 57         -9999      -9999     
1889.9999  -9999      -9999      33.1854    -9999      0.03849628 0.07035654 0.01654327 -0.0635586 57         -9999      -9999     
1890.1999  -9999      -9999      32.2046    -9999      0.03471433 0.06088378 -0.004640795 -0.1197952 57         -9999      -9999     
1890.3999  -9999      -9999      30.8288    -9999      0.03520729 0.06008519 -0.01147266 -0.1520215 57         -9999      -9999     
1890.5999  -9999      -9999      30.6694    -9999      0.0434398  0.07654018 0.01304957 -0.1201471 57         -9999      -9999     
1890.7999  -9999      -9999      32.7854    -9999      0.04602769 0.08300879 0.02347184 -0.1036064 57         -9999      -9999     
1890.9999  -9999      -9999      32.1985    -9999      0.03555395 0.06039342 -0.01876076 -0.1939759 57         -9999      -9999     
1891.1999  -9999      -9999      32.5203    -9999      0.04498979 0.07868316 0.008212431 -0.1582904 57         -9999      -9999     
1891.3999  -9999      -9999      30.5676    -9999      0.04907854 0.08807307 0.02353224 -0.1321228 57         -9999      -9999     
1891.5999  -9999      -9999      28.6452    -9999      0.04477601 0.07971709 0.008416139 -0.1611605 57         -9999      -9999     
1891.7999  -9999      -9999      29.7704    -9999      0.04388038 0.07768762 0.002860536 -0.1765474 57         -9999      -9999     
1891.9999  -9999      -9999      31.599     -9999      0.04182491 0.07274313 -0.008688415 -0.2074282 57         -9999      -9999     
1892.1999  -9999      -9999      33.6359    -9999      0.03841364 0.06491797 -0.0253098 -0.2489032 57         -9999      -9999     
1892.3999  -9999      -9999      34.2289    -9999      0.03795346 0.06263459 -0.03337436 -0.2777633 57         -9999      -9999     
1892.5999  -9999      -9999      33.0612    -9999      0.03091674 0.0456914  -0.06850893 -0.3658925 57         -9999      -9999     
