~Version
 VERS              .         2.0                           : CWLS LOG ASCII STANDARD - VERSION 2.0
 WRAP              .         NO                            : ONE LINE PER DEPTH STEP
 DLM               .         SPACE                         : DELIMITING CHARACTER(SPACE TAB OR COMMA)
~Well Information
#_______________________________________________________________________________
#
#PARAMETER_NAME    .UNIT     VALUE                         : DESCRIPTION
#_______________________________________________________________________________
STRT               .m        2062.5046                     : First reference value
STOP               .m        6413.5046                     : Last reference value
STEP               .m        0.2                           : Step increment
NULL               .         -9999                         : Missing value
COMP               .         PETROLEO BRASILEIRO S/A       : Company
WELL               .         1-ESS-120_resample            : Well name
FLD                .                                       : Field
LOC                .                                       : Location
CNTY               .                                       : County
STAT               .         ESPIRITO SANTO                : State
CTRY               .                                       : Country
SRVC               .                                       : Service Company
DATE               .                                       : Date
API                .         342710278300                  : API number
EDF                .M        25.00                         : Elevation Derrick Floor
ELEV               .M        25.0000                       : Surface Elev
ELEV_TYPE          .         KB                            : Elev Type
GDAT               .         SIRGAS2000                    : Geodetic Datum
HZCS               .         UTM                           : Horizontal Coordinate System
LAT                .         -20.620145                    : Latitude
LMF                .         MR                            : Log Measure From
LON                .         -39.512655                    : Longitude
LATI               .         -20_37_15.239                 : Latitude
LONG               .         -39_30_38.085                 : Longitude
MC                 .         39 W                          : Meridiano Central
ORIG               .         SIGEO EXPORTACAO PERFIL       : Origem dos dados
ORIGINALWELLNAME   .         1ESS 0120  ES                 : 
WDMS               .M        2003.00                       : Water Depth to Mean Sea Level
X                  .         446729.00                     : Surface X
XCOORD             .         446584.000000                 : Surface X
Y                  .         7719623.00                    : Surface Y
YCOORD             .         7719778.000000                : Surface Y
~Parameter Information Block
#_______________________________________________________________________________
#
#PARAMETER_NAME    .UNIT     VALUE                         : DESCRIPTION
#_______________________________________________________________________________
SET                .         ESS120_resample               : 
TLFamily_CALI      .         Caliper                       : 
TLFamily_DEPT      .         Measured Depth                : 
TLFamily_DTCO      .         Compressional Slowness        : 
TLFamily_GR        .         Gamma Ray                     : 
TLFamily_INPEFA_1  .                                       : 
TLFamily_INPEFA_2  .                                       : 
TLFamily_INPEFA_3  .                                       : 
TLFamily_INPEFA_4  .                                       : 
TLFamily_LITO      .                                       : 
TLFamily_LLD       .         Deep Resistivity              : 
TLFamily_NPHI      .         Neutron Porosity              : 
TLFamily_OG        .                                       : 
TLFamily_RHOB_merge .         Bulk Density                  : 
~Curve Information
#_______________________________________________________________________________
#
#LOGNAME           .UNIT     LOG_ID                        : DESCRIPTION
#_______________________________________________________________________________
DEPT               .m                                      :  
CALI               .in                                     : CALIPER 
DTCO               .us/ft                                  : DELTA-T COMPRESSIONAL 
GR                 .gAPI                                   : GAMMA RAY 
INPEFA_1           .                                       :  
INPEFA_2           .                                       :  
INPEFA_3           .                                       :  
INPEFA_4           .                                       :  
LITO               .                                       :  
LLD                .ohm.m                                  : LATEROLOG DEEP RESISTIVITY 
NPHI               .%                                      : THERMAL NEUTRON POROSITY (ORIGINAL RATIO METHOD) IN SELECTED LITHOLOGY 
OG                 .                                       :  
RHOB_merge         .g/cm3                                  :  
~Ascii
# ...
4997.9046  9.060155   58.5097    60.54073   0.04354119 -0.1033723 0.168487   0.2322206  58         27.63101628363827 3.946763   60.54073   2.681121  
4998.104600000001 9.062993   57.56515   60.90285   0.04397605 -0.1058708 0.1667738  0.2255729  58         26.17206359763319 3.44404    60.90285   2.674685  
4998.3046  9.064556   57.30001   62.28025   0.051246   -0.0889404 0.1971376  0.2694335  58         33.0569353486737 3.760669   62.28025   2.666849  
4998.5046  9.064173   56.26791   68.92247   0.03408176 -0.1349705 0.1311707  0.1764409  58         40.70100778455245 3.122703   68.92247   2.657215  
4998.704600000001 9.064278   55.73524   73.4218    0.04121376 -0.124596  0.1416661  0.1696477  58         68.90628748583345 1.828687   73.4218    2.65314   
4998.9046  9.081552   57.57148   73.09337   0.03828495 -0.136126  0.1237315  0.1312065  58         109.1383092506107 1.083857   73.09337   2.658892  
4999.104600000001 9.120052   59.40566   73.45296   0.05665636 -0.09381586 0.1867216  0.2067385  58         66.45636351179692 1.273723   73.45296   2.65812   
4999.3046  9.13496    60.32552   71.98406   0.05082377 -0.1089189 0.1698244  0.1872679  58         22.89794429412284 4.072812   71.98406   2.653625  
4999.5046  9.13737    59.86397   73.10595   0.05802988 -0.09302124 0.1966867  0.2245782  58         15.40407372690719 7.43722    73.10595   2.65131   
4999.704600000001 9.139734   56.85744   73.43003   0.04276791 -0.1352268 0.1348992  0.1365661  58         16.85155706060382 5.627483   73.43003   2.645581  
4999.9046  9.137333   54.77417   68.57124   0.05651407 -0.1061075 0.1762995  0.1812607  58         35.70035368025087 2.01939    68.57124   2.63965   
5000.104600000001 9.158464   54.83515   62.77518   0.0501786  -0.1235129 0.1540493  0.1522142  58         85.30259932472107 1.00124    62.77518   2.643664  
5000.3046  9.169309   55.18229   63.56541   0.05030548 -0.1288709 0.1438279  0.1281746  58         91.11972721301568 0.8814276  63.56541   2.646894  
5000.5046  9.174301   55.33278   69.41116   0.0500646  -0.1340326 0.1352932  0.107952   58         86.40408903734884 0.9199854  69.41116   2.640731  
5000.704600000001 9.171992   55.55309   74.41568   0.05003953 -0.1390503 0.1261463  0.08489042 58         84.84285303306473 1.073166   74.41568   2.638075  
5000.9046  9.170182   55.952     75.05135   0.06056806 -0.1158234 0.1615543  0.1286497  58         85.66335389190324 1.09308    75.05135   2.643086  
5001.104600000001 9.175694   57.10047   73.08426   0.05165457 -0.1416798 0.1238363  0.07387099 58         89.15909367419623 1.137895   73.08426   2.647271  
5001.3046  9.174999   58.73329   69.2772    0.0685135  -0.1037391 0.1796513  0.1444268  58         97.2984854925279 1.493032   69.2772    2.656621  
5001.5046  9.171492   59.57963   73.00581   0.06420015 -0.115199  0.1678003  0.1382953  58         61.36285866207186 3.190308   73.00581   2.664686  
5001.704600000001 9.173948   60.71321   75.89257   0.063412   -0.1205286 0.1617221  0.1349184  58         27.14168590156157 6.430187   75.89257   2.662418  
5001.9046  9.172635   61.03794   74.8897    0.05858723 -0.138263  0.133648   0.09313009 58         23.53655210340092 7.365494   74.8897    2.648915  
5002.104600000001 9.174642   60.04049   66.49845   0.06651977 -0.1229109 0.1556167  0.1216015  58         30.82359780584714 4.691805   66.49845   2.637075  
5002.3046  9.181475   59.33429   62.4171    0.06450006 -0.1308763 0.1460432  0.1160051  58         55.40097508623911 2.302644   62.4171    2.629433  
5002.5046  9.210608   58.84919   62.84702   0.06208709 -0.1421767 0.12836    0.09352532 58         65.35797646822631 1.582172   62.84702   2.63116   
5002.704600000001 9.206451   58.03098   70.04099   0.0694764  -0.1277405 0.1504866  0.1288744  58         69.00232564153463 1.631427   70.04099   2.635594  
5002.9046  9.213932   57.3658    71.8349    0.06742188 -0.1356096 0.141988   0.1299107  58         66.1007834519835 1.801776   71.8349    2.635526  
5003.104600000001 9.20805    56.97481   71.49589   0.0669954  -0.1404689 0.1365031  0.133084   48         64.69626374308301 1.856613   71.49589   2.630304  
5003.3046  9.205017   56.626     71.74229   0.06448984 -0.1505293 0.1235194  0.1277451  48         64.26359412659959 1.731414   71.74229   2.626592  
5003.5046  9.214117   56.54588   72.17088   0.05556797 -0.1782917 0.08177737 0.07751475 48         63.97989114366317 1.705759   72.17088   2.627351  
5003.704600000001 9.211312   56.69875   71.40852   0.05627717 -0.1823654 0.0739513  0.06947443 48         63.29688933289452 1.785721   71.40852   2.631917  
5003.9046  9.209219   56.79374   67.44556   0.03716212 -0.2377743 -0.01312636 -0.05450071 48         62.15894582389772 1.828987   67.44556   2.631122  
5004.104600000001 9.209196   56.78297   67.43552   0.04744784 -0.2232991 -0.002917634 -0.06323081 48         59.36119880991842 1.852592   67.43552   2.631632  
5004.3046  9.206332   56.64445   64.76131   0.04949029 -0.2261481 -0.01393189 -0.0929654 48         56.39556702747386 1.790759   64.76131   2.632723  
5004.5046  9.210875   56.62108   62.80677   0.06460544 -0.1935697 0.0314501  -0.03660852 48         54.46560300610543 1.846528   62.80677   2.631396  
5004.704600000001 9.209815   56.94017   65.12761   0.07073312 -0.1828386 0.04719935 -0.01190033 48         55.44834316273651 1.934323   65.12761   2.624417  
5004.9046  9.207286   56.51697   70.42993   0.0738639  -0.1777134 0.05691376 0.01043973 48         56.0895515433471 1.971081   70.42993   2.622451  
5005.104600000001 9.212368   55.94702   70.73792   0.08226804 -0.1585634 0.0898491  0.07283808 48         57.13506346728332 1.951006   70.73792   2.622277  
5005.3046  9.210652   55.6104    69.08623   0.08331208 -0.1575619 0.09697841 0.106485   48         58.5319555970195 1.807922   69.08623   2.621702  
5005.5046  9.209913   55.4358    69.37495   0.07543668 -0.1789755 0.071096   0.09727868 48         58.85312160356303 1.660387   69.37495   2.622325  
5005.704600000001 9.20148    55.08083   68.30721   0.06876434 -0.2017112 0.03704904 0.06365867 48         60.52543652727162 1.508453   68.30721   2.623896  
5005.9046  9.188942   55.23899   67.58459   0.06225811 -0.2229121 0.00561275 0.03185426 48         63.14166126816019 1.298968   67.58459   2.624852  
5006.104600000001 9.179184   55.28202   69.18616   0.07155235 -0.2090311 0.02010972 0.04922421 48         66.20418777197099 1.155463   69.18616   2.621528  
5006.3046  9.171098   55.26734   71.86739   0.08171896 -0.1840722 0.06257055 0.1304171  48         68.23084763902205 1.158243   71.86739   2.619007  
5006.5046  9.174076   55.41465   75.98824   0.07113267 -0.2150176 0.01877191 0.09249078 48         68.45505233760258 1.173561   75.98824   2.623212  
5006.704600000001 9.172727   56.03518   77.94194   0.07738757 -0.2053678 0.03198878 0.1238362  48         69.86460191052701 1.110785   77.94194   2.631518  
5006.9046  9.174771   56.11404   83.02159   0.08364014 -0.1901901 0.06170931 0.1986967  48         72.05840986150166 1.130015   83.02159   2.636813  
5007.104600000001 9.165714   55.87253   82.28457   0.06087767 -0.251525  -0.02679967 0.1063194  48         63.87005795207066 1.347149   82.28457   2.638494  
5007.3046  9.136956   55.80522   74.71339   0.05877169 -0.2666508 -0.05574975 0.07170029 48         55.96681654545724 1.517234   74.71339   2.642362  
5007.5046  9.139022   55.36374   63.58771   0.06391208 -0.2588615 -0.0448627 0.1036026  48         58.97980838453284 1.219852   63.58771   2.640642  
5007.704600000001 9.132236   54.86301   55.65317   0.0442536  -0.3148972 -0.1309173 0.000231718 48         71.05067323979552 0.8112142  55.65317   2.633331  
5007.9046  9.137942   54.90555   55.01602   0.04125607 -0.3362528 -0.1767074 -0.07678328 48         93.96700071156336 0.7049469  55.01602   2.631748  
5008.104600000001 9.117917   55.03102   57.4694    0.05724343 -0.3058326 -0.1409906 -0.03625833 48         96.18487595932976 0.7266167  57.4694    2.635809  
5008.3046  9.104163   55.28973   60.02341   0.0585474  -0.3077288 -0.1466731 -0.03544538 48         96.85274369059599 0.6988004  60.02341   2.639537  
