~Version
 VERS              .         2.0                           : CWLS LOG ASCII STANDARD - VERSION 2.0
 WRAP              .         NO                            : ONE LINE PER DEPTH STEP
 DLM               .         SPACE                         : DELIMITING CHARACTER(SPACE TAB OR COMMA)
~Well Information
#_______________________________________________________________________________
#
#PARAMETER_NAME    .UNIT     VALUE                         : DESCRIPTION
#_______________________________________________________________________________
STRT               .m        2430.3999                     : First reference value
STOP               .m        5554.9999                     : Last reference value
STEP               .m        0.2                           : Step increment
NULL               .         -9999                         : Missing value
COMP               .         PETROLEO BRASILEIRO S/A       : Company
WELL               .         1-ESS-186_resample            : Well name
FLD                .                                       : Field
LOC                .                                       : Location
CNTY               .                                       : County
STAT               .         ESPIRITO SANTO                : State
CTRY               .                                       : Country
SRVC               .                                       : Service Company
DATE               .                                       : Date
API                .         342710339400                  : API number
EDF                .M        25.00                         : Elevation Derrick Floor
GDAT               .         SIRGAS2000                    : Geodetic Datum
HZCS               .         UTM                           : Horizontal Coordinate System
LAT                .         -20.356499                    : Latitude
LONG               .         -39.496292                    : Longitude
MC                 .         39 W                          : Meridiano Central
ORIG               .         SIGEO EXPORTACAO PERFIL       : Origem dos dados
WDMS               .M        1798.00                       : Water Depth to Mean Sea Level
XCOORD             .         448202.60                     : Surface X
YCOORD             .         7748989.80                    : Surface Y
~Parameter Information Block
#_______________________________________________________________________________
#
#PARAMETER_NAME    .UNIT     VALUE                         : DESCRIPTION
#_______________________________________________________________________________
SET                .         ESS186_resample               : 
TLFamily_CALI      .         Caliper                       : 
TLFamily_DEPT      .         Measured Depth                : 
TLFamily_DT        .         Compressional Slowness        : 
TLFamily_DTS       .         Shear Slowness                : 
TLFamily_GR        .         Gamma Ray                     : 
TLFamily_INPEFA_1  .                                       : 
TLFamily_INPEFA_2  .                                       : 
TLFamily_INPEFA_3  .                                       : 
TLFamily_INPEFA_4  .                                       : 
TLFamily_LITO      .                                       : 
TLFamily_NPHI      .         Neutron Porosity              : 
TLFamily_OG        .                                       : 
TLFamily_RESD      .         Deep Resistivity              : 
TLFamily_RESM      .         Medium Resistivity            : 
TLFamily_RESS      .         Shallow Resistivity           : 
TLFamily_RHOB      .         Bulk Density                  : 
TLFamily_TVD       .         True Vertical Depth           : 
~Curve Information
#_______________________________________________________________________________
#
#LOGNAME           .UNIT     LOG_ID                        : DESCRIPTION
#_______________________________________________________________________________
DEPT               .m                                      :  
CALI               .in                                     :  
DT                 .us/ft                                  :  
DTS                .us/ft                                  :  
GR                 .gAPI                                   : GAMMA RAY 
INPEFA_1           .                                       :  
INPEFA_2           .                                       :  
INPEFA_3           .                                       :  
INPEFA_4           .                                       :  
LITO               .Sem                                    : Não definido 
NPHI               .%                                      : THERMAL NEUTRON POROSITY (ORIGINAL RATIO METHOD) IN SELECTED LITHOLOGY 
OG                 .                                       :  
RESD               .ohm.m                                  :  
RESM               .ohm.m                                  :  
RESS               .ohm.m                                  :  
RHOB               .g/cm3                                  :  
TVD                .                                       : Vertical Depth 
~Ascii
# ...
4514.1999  18.00888   80.89971   151.7079   43.35758   0.761453   0.423395   0.484949   0.7246194  54         31.74114   43.35758   4.735603   4.662154   4.66349321825906 2.53613    4513.844954330708
4514.3999  17.93781   80.47824   150.9471   43.13781   0.7096511  0.3442113  0.3629708  0.5015063  54         34.53014   43.13781   4.946781   4.854712   4.84048449446321 2.543895   4514.044691863517
4514.5999  17.9754    79.86942   149.8203   41.79033   0.7047324  0.3342579  0.347995   0.466945   54         37.86024   41.79033   4.872118   4.766951   4.769379421811065 2.541323   4514.244514698163
4514.7999  18.00704   79.92023   150.2041   42.69674   0.6972609  0.3214432  0.3284902  0.4191016  54         36.87989   42.69674   4.922042   4.761505   4.685501298684355 2.536577   4514.444266929134
4514.9999  17.85105   80.77242   151.5594   43.88561   0.6913239  0.3120196  0.3150636  0.3855087  54         35.041     43.88561   4.989259   4.822126   4.664085076727718 2.523212   4514.644004461942
4515.1999  17.81938   81.91245   152.5489   43.81831   0.7037213  0.3324306  0.3536003  0.471283   54         33.9595    43.81831   5.032276   4.852947   4.674103356388908 2.510133   4514.84374199475
4515.3999  17.63858   83.44484   153.5119   45.38272   0.7030067  0.3332668  0.3612978  0.50457    54         33.58664   45.38272   5.102358   4.920539   4.739900545778809 2.506937   4515.04357952756
4515.5999  17.31939   83.9678    154.0663   45.78142   0.6918629  0.318263   0.3431408  0.4920049  54         36.93261   45.78142   5.158865   4.95627    4.736362770872776 2.494038   4515.243317060368
4515.7999  17.12855   83.45461   153.2398   44.5585    0.6910226  0.3175521  0.3463548  0.5207857  54         39.25292   44.5585    5.222785   4.984124   4.683527295158728 2.418894   4515.443054593176
4515.9999  16.92272   83.91806   152.2197   44.92079   0.6917695  0.3211879  0.3599233  0.5869019  54         34.70451   44.92079   5.288985   5.005624   4.675755749923219 2.349586   4515.642892125984
4516.1999  15.44181   86.06564   152.5029   42.47811   0.6908982  0.3238131  0.3750902  0.6786951  54         28.05862   42.47811   5.467117   5.103103   4.668498353302693 2.45283    4515.842629658792
4516.3999  14.13425   82.58291   152.6802   43.85733   0.6233645  0.2159242  0.194989   0.3301046  54         21.78012   43.85733   5.615657   5.204201   4.63037165335433 2.57242    4516.042367191601
4516.5999  13.52702   79.88142   148.7042   51.81744   0.6252887  0.2116947  0.177671   0.2753887  54         18.34489   51.81744   5.72871    5.296289   4.586817178049552 2.556933   4516.24210472441
4516.7999  13.45135   79.40923   141.0841   57.71233   0.6121596  0.1817618  0.112203   0.09283096 57         18.30214   57.71233   6.147784   5.606173   4.755074106682128 2.528618   4516.441942257217
4516.9999  13.42897   81.46706   142.0692   60.41501   0.6280428  0.2023197  0.1375085  0.1129208  57         22.22506   60.41501   6.691345   5.993679   4.963198405970912 2.520923   4516.641679790026
4517.1999  13.37268   85.06899   152.8123   68.27252   0.6380455  0.2156034  0.1548472  0.1326024  57         25.43052   68.27252   6.567603   5.895098   5.014841099217621 2.523096   4516.841417322834
4517.3999  13.42733   89.79208   164.7686   79.45889   0.6378604  0.21305    0.1461359  0.09807924 57         23.98773   79.45889   5.568151   5.037848   4.584597707788238 2.525609   4517.041177427822
4517.5999  13.31156   90.86401   171.1721   80.64174   0.6636199  0.2550416  0.2188446  0.2593136  57         20.07802   80.64174   4.995293   4.433326   4.140996436282608 2.528453   4517.240992388452
4517.7999  13.26607   88.07175   167.3724   75.46361   0.6626239  0.2591982  0.2368955  0.3485094  57         18.15622   75.46361   4.725283   4.211913   3.937717750018341 2.524083   4517.44072992126
4517.9999  13.18324   84.12994   156.8126   71.0613    0.6191743  0.1917578  0.1278153  0.1528897  57         19.0806    71.0613    5.127769   4.87922    4.468023349579303 2.5155     4517.640467454069
4518.1999  13.12043   80.97821   151.1833   66.1575    0.6128029  0.1775516  0.0988944  0.08930874 57         19.58927   66.1575    5.667763   6.011796   5.448676232478118 2.520689   4517.840252493437
4518.3999  13.07381   79.46278   147.6225   62.88183   0.6075503  0.1662277  0.07593725 0.03991015 57         19.46478   62.88183   5.787862   6.82315    6.438770423648192 2.542526   4518.040042519685
4518.5999  13.07429   78.94775   142.5615   63.81137   0.5793827  0.1165916  -0.01567896 -0.1734067 57         20.7758    63.81137   6.051721   7.558398   7.40513683328307 2.560551   4518.239780052493
4518.7999  13.02631   79.43439   141.5663   64.86541   0.5888284  0.122076   -0.02234372 -0.2450134 57         21.69269   64.86541   5.973574   7.677304   7.334745409356227 2.550937   4518.439517585302
4518.9999  13.19536   81.29373   143.1769   64.65195   0.6103185  0.1532315  0.02461463 -0.1691521 57         23.07563   64.65195   5.308397   6.548183   6.392208338159612 2.526049   4518.639327559055
4519.1999  13.26522   85.4043    149.9433   64.6953    0.6071919  0.1467182  0.01156616 -0.2040058 57         27.4733    64.6953    4.941011   5.778592   5.647385795784744 2.499887   4518.839092650918
4519.3999  13.17683   89.67585   160.6447   76.23194   0.6119028  0.1514285  0.01617181 -0.2046502 57         28.30404   76.23194   4.712792   5.339147   5.346041334456776 2.516336   4519.038830183727
4519.5999  13.22795   91.80653   168.9285   80.34575   0.6271651  0.1753831  0.05839658 -0.1036891 57         25.47595   80.34575   4.546249   5.097082   5.142551725721249 2.548014   4519.238567716536
4519.7999  13.06901   90.71679   169.1446   77.70922   0.6219657  0.1692509  0.05500266 -0.0734099 57         22.53695   77.70922   4.376138   4.905955   4.912074962141648 2.550734   4519.438305249344
4519.9999  13.01526   86.8247    167.2542   70.45367   0.6244751  0.1741994  0.07015536 0.0058483  57         20.55083   70.45367   4.133845   4.58634    4.521451119591339 2.537699   4519.638142782153
4520.1999  13.1492    83.22469   162.6324   64.64552   0.5910255  0.1183985  -0.02288459 -0.158417  57         19.71079   64.64552   4.066287   4.445971   4.327725325685645 2.541248   4519.837880314961
4520.3999  13.05056   81.41253   152.4649   62.42368   0.5999502  0.1277509  -0.009305291 -0.1109101 57         20.21761   62.42368   4.468085   4.924277   4.786932786847827 2.552679   4520.03761784777
4520.5999  13.24333   80.21485   150.5564   58.20771   0.6136405  0.1505183  0.03750368 0.050561   57         25.55568   58.20771   5.117039   5.694939   5.867471227589668 2.55663    4520.237355380578
4520.7999  13.10881   78.64838   154.3246   57.64316   0.575697   0.08988872 -0.05763013 -0.08131784 57         31.52144   57.64316   5.89113    6.642395   6.945615508114307 2.546265   4520.437092913386
4520.9999  13.10737   78.5612    160.3013   67.06056   0.545494   0.03433846 -0.1562443 -0.2658219 57         32.3999    67.06056   6.200746   7.040836   7.400812839561092 2.522182   4520.637  
4521.1999  13.12169   81.73518   162.8038   73.23454   0.546029   0.02931524 -0.1678662 -0.2680742 57         31.61027   73.23454   6.151175   7.074896   7.416607453717666 2.470937   4520.837480052493
4521.3999  13.10402   86.62533   161.6863   73.43094   0.5289662  -0.006678253 -0.2371317 -0.4178466 57         30.09408   73.43094   5.792413   6.771293   6.877585627387246 2.453288   4521.038088976378
4521.5999  13.04626   89.90672   160.4146   75.08875   0.5333254  -0.008768132 -0.2511905 -0.4723733 57         26.19156   75.08875   5.012079   5.791617   6.210817802011424 2.51554    4521.238692388452
4521.7999  13.00314   88.27953   158.8847   72.30532   0.5564272  0.02159495 -0.2065234 -0.3981346 57         22.70648   72.30532   4.365928   5.118538   5.532688629145463 2.586711   4521.439338845144
4521.9999  12.99841   83.11      156.2631   65.44043   0.5900481  0.07371266 -0.116037  -0.1961461 57         20.66553   65.44043   3.91306    4.619876   4.84711419137797 2.584605   4521.639740944882
