~Version
 VERS              .         2.0                           : CWLS LOG ASCII STANDARD - VERSION 2.0
 WRAP              .         NO                            : ONE LINE PER DEPTH STEP
 DLM               .         SPACE                         : DELIMITING CHARACTER(SPACE TAB OR COMMA)
~Well Information
#_______________________________________________________________________________
#
#PARAMETER_NAME    .UNIT     VALUE                         : DESCRIPTION
#_______________________________________________________________________________
STRT               .m        2062.5046                     : First reference value
STOP               .m        6413.5046                     : Last reference value
STEP               .m        0.2                           : Step increment
NULL               .         -9999                         : Missing value
COMP               .         PETROLEO BRASILEIRO S/A       : Company
WELL               .         1-ESS-120_resample            : Well name
FLD                .                                       : Field
LOC                .                                       : Location
CNTY               .                                       : County
STAT               .         ESPIRITO SANTO                : State
CTRY               .                                       : Country
SRVC               .                                       : Service Company
DATE               .                                       : Date
API                .         342710278300                  : API number
EDF                .M        25.00                         : Elevation Derrick Floor
ELEV               .M        25.0000                       : Surface Elev
ELEV_TYPE          .         KB                            : Elev Type
GDAT               .         SIRGAS2000                    : Geodetic Datum
HZCS               .         UTM                           : Horizontal Coordinate System
LAT                .         -20.620145                    : Latitude
LMF                .         MR                            : Log Measure From
LON                .         -39.512655                    : Longitude
LATI               .         -20_37_15.239                 : Latitude
LONG               .         -39_30_38.085                 : Longitude
MC                 .         39 W                          : Meridiano Central
ORIG               .         SIGEO EXPORTACAO PERFIL       : Origem dos dados
ORIGINALWELLNAME   .         1ESS 0120  ES                 : 
WDMS               .M        2003.00                       : Water Depth to Mean Sea Level
X                  .         446729.00                     : Surface X
XCOORD             .         446584.000000                 : Surface X
Y                  .         7719623.00                    : Surface Y
YCOORD             .         7719778.000000                : Surface Y
~Parameter Information Block
#_______________________________________________________________________________
#
#PARAMETER_NAME    .UNIT     VALUE                         : DESCRIPTION
#_______________________________________________________________________________
SET                .         ESS120_resample               : 
TLFamily_CALI      .         Caliper                       : 
TLFamily_DEPT      .         Measured Depth                : 
TLFamily_DTCO      .         Compressional Slowness        : 
TLFamily_GR        .         Gamma Ray                     : 
TLFamily_INPEFA_1  .                                       : 
TLFamily_INPEFA_2  .                                       : 
TLFamily_INPEFA_3  .                                       : 
TLFamily_INPEFA_4  .                                       : 
TLFamily_LITO      .                                       : 
TLFamily_LLD       .         Deep Resistivity              : 
TLFamily_NPHI      .         Neutron Porosity              : 
TLFamily_OG        .                                       : 
TLFamily_RHOB_merge .         Bulk Density                  : 
~Curve Information
#_______________________________________________________________________________
#
#LOGNAME           .UNIT     LOG_ID                        : DESCRIPTION
#_______________________________________________________________________________
DEPT               .m                                      :  
CALI               .in                                     : CALIPER 
DTCO               .us/ft                                  : DELTA-T COMPRESSIONAL 
GR                 .gAPI                                   : GAMMA RAY 
INPEFA_1           .                                       :  
INPEFA_2           .                                       :  
INPEFA_3           .                                       :  
INPEFA_4           .                                       :  
LITO               .                                       :  
LLD                .ohm.m                                  : LATEROLOG DEEP RESISTIVITY 
NPHI               .%                                      : THERMAL NEUTRON POROSITY (ORIGINAL RATIO METHOD) IN SELECTED LITHOLOGY 
OG                 .                                       :  
RHOB_merge         .g/cm3                                  :  
~Ascii
# ...
5843.3046  9.115046   51.95972   7.649011   -0.4966701 -0.0169198 -0.006137811 0.02675207 82         1519.601815663992 -0.9439912 7.649011   2.865611  
5843.5046  9.118279   51.9205    9.085571   -0.4901574 -0.008387898 0.002654674 0.02743208 82         1519.739552937438 -0.9799323 9.085571   2.867107  
5843.704600000001 9.116696   51.77584   9.699933   -0.4870546 -0.006518324 0.004309944 0.02450048 82         1510.300885317871 -0.9656258 9.699933   2.875844  
5843.9046  9.11806    51.48084   8.446983   -0.4844982 -0.007012591 0.001360899 0.0134925  82         1544.798046319158 -0.9344963 8.446983   2.872094  
5844.104600000001 9.120489   51.32085   7.080047   -0.4830678 -0.01006585 -0.005170382 -0.002829075 82         1546.516412902028 -0.9171016 7.080047   2.863782  
5844.3046  9.115936   51.2317    7.945296   -0.4757401 0.001996937 0.01135333 0.01372463 82         1564.95688760532 -0.9260312 7.945296   2.874987  
5844.5046  9.115137   51.18612   7.92801    -0.4768847 -0.006552509 -0.001776782 -0.007632918 82         1549.263578427343 -0.9261634 7.92801    2.88659   
5844.704600000001 9.116253   51.3732    8.229636   -0.4714131 0.000274122 0.00635445 -0.003772794 82         1513.382338437298 -0.9154669 8.229636   2.880774  
5844.9046  9.116362   51.85833   10.20405   -0.4692243 0.00027765 0.006238334 -0.007123005 82         1446.10908435229 -0.780819  10.20405   2.878392  
5845.104600000001 9.1164     52.34377   14.14783   -0.4667562 0.000333082 0.005517905 -0.01258147 82         1420.096890324492 -0.6583198 14.14783   2.862955  
5845.3046  9.116417   52.65582   16.90008   -0.4652123 -0.00202191 0.000930021 -0.02453261 82         1346.549915297022 -0.5365606 16.90008   2.858529  
5845.5046  9.120907   52.6511    14.71142   -0.4575741 0.01156534 0.02091459 -0.000624684 82         1214.816079271685 -0.206589  14.71142   2.875038  
5845.704600000001 9.139117   52.5093    9.232878   -0.4588911 0.003152773 0.009162646 -0.01698592 82         1202.501710052938 -0.0888975 9.232878   2.886256  
5845.9046  9.139033   52.61715   7.273864   -0.4597217 -0.006164431 -0.007208783 -0.04739857 82         1223.446312637063 -0.4690508 7.273864   2.866537  
5846.104600000001 9.139174   52.62214   8.957463   -0.4558699 -0.003440614 -0.005647421 -0.05432293 82         1295.743029515784 -0.7538209 8.957463   2.863241  
5846.3046  9.137133   52.41123   12.0694    -0.4528152 -0.002164249 -0.005449468 -0.06131827 82         1324.386949035295 -0.7084666 12.0694    2.859578  
5846.5046  9.146724   51.96531   12.02318   -0.4489817 0.001514364 -0.000962689 -0.06050207 82         867.893849407089 -0.538691  12.02318   2.863101  
5846.704600000001 9.14531    51.28872   9.887613   -0.4470142 0.000412423 -0.003519199 -0.0686968 82         656.8030091632942 -0.3084453 9.887613   2.863254  
5846.9046  9.137749   50.38351   8.419855   -0.445587  -0.002353673 -0.009113703 -0.08247959 82         671.3441676723295 -0.3338681 8.419855   2.866838  
5847.104600000001 9.139133   50.29337   8.77736    -0.4431722 -0.002836689 -0.0116712 -0.0930739 82         893.7335086553394 -0.5683157 8.77736    2.868484  
5847.3046  9.182902   50.32594   7.777972   -0.4412014 -0.00434664 -0.01570024 -0.1055835 82         1248.058916267391 -0.7174395 7.777972   2.871587  
5847.5046  9.153045   50.86758   7.979154   -0.4369704 -0.0000412 -0.01079909 -0.1054945 82         1583.032043404149 -0.773321  7.979154   2.879176  
5847.704600000001 9.04138    51.05944   8.275643   -0.4318157 0.007614507 0.000617151 -0.09251557 82         1609.695650199251 -0.7902024 8.275643   2.890994  
5847.9046  9.07168    50.92511   8.268074   -0.4306775 0.004951471 -0.00332067 -0.09953678 82         1618.630315962686 -0.7948533 8.268074   2.914379  
5848.104600000001 9.083461   50.88527   8.224246   -0.427762  0.006367297 -0.001790107 -0.1003136 82         1638.469740499129 -0.7814071 8.224246   2.920126  
5848.3046  9.069862   50.65479   8.766306   -0.4261418 0.00445086 -0.005277849 -0.1080137 82         1663.852607742987 -0.8061393 8.766306   2.918296  
5848.5046  9.023351   50.4071    7.462821   -0.4220957 0.00876293 0.000594432 -0.1026674 82         1682.830140828786 -0.8252406 7.462821   2.918077  
5848.704600000001 8.993132   50.81062   7.382244   -0.4194399 0.009881372 0.002364316 -0.1009116 82         1708.325185014087 -0.792039  7.382244   2.909309  
5848.9046  8.991088   50.91988   9.679836   -0.4147113 0.01652296 0.01296251 -0.08492316 82         1722.101379734384 -0.7717354 9.679836   2.901574  
5849.104600000001 8.993117   50.65428   10.80831   -0.4146712 0.01146865 0.006707198 -0.09036589 82         1748.352032135212 -0.7644901 10.80831   2.898652  
5849.3046  8.972462   50.27415   9.661761   -0.4062271 0.02782549 0.03278967 -0.05039531 82         1748.224529686023 -0.7614352 9.661761   2.889012  
5849.5046  8.956774   49.92098   8.1221     -0.4115856 0.01043926 0.01009948 -0.0733521 82         1754.108788483521 -0.7805075 8.1221     2.894512  
5849.704600000001 8.952764   49.73001   7.756356   -0.4115494 0.002816022 -0.003682414 -0.09741842 82         1754.976467403871 -0.7933204 7.756356   2.887784  
5849.9046  8.954486   50.0772    8.471045   -0.4069151 0.00855969 0.004252344 -0.08956796 82         1754.196663107509 -0.7639391 8.471045   2.884855  
5850.104600000001 8.968407   50.81818   8.891324   -0.4047117 0.008459125 0.004257583 -0.09023625 82         1750.291255122821 -0.7535158 8.891324   2.911556  
5850.3046  8.990202   51.31295   8.790169   -0.4010925 0.01221756 0.01041367 -0.08204678 82         1756.213877444761 -0.7390616 8.790169   2.923503  
5850.5046  8.980033   51.22823   7.973355   -0.3980172 0.01473584 0.01498935 -0.07513534 82         1765.24412617308 -0.7372689 7.973355   2.928732  
5850.704600000001 8.97149    51.03539   6.519939   -0.3965937 0.01315803 0.01353074 -0.07643247 82         1738.526890263508 -0.7571043 6.519939   2.920812  
5850.9046  8.980422   50.86179   6.262003   -0.3908857 0.02246891 0.02852171 -0.05456376 82         1737.801413514143 -0.7681578 6.262003   2.903558  
5851.104600000001 9.019066   50.78683   6.915909   -0.3901955 0.01990814 0.02699673 -0.05218557 82         1734.758709178414 -0.7419181 6.915909   2.897406  
5851.3046  9.047422   50.81712   7.742621   -0.3891457 0.01672056 0.02236133 -0.05892559 82         1747.743283558865 -0.686228  7.742621   2.918827  
5851.5046  9.029007   50.66908   7.834437   -0.3845118 0.02337847 0.0333581  -0.04283315 82         1760.821730562983 -0.6531854 7.834437   2.93712   
5851.704600000001 8.996352   50.4148    7.511761   -0.3863583 0.01351303 0.01943943 -0.06135646 82         1778.884073763359 -0.7340336 7.511761   2.954282  
5851.9046  8.988176   50.57156   6.572512   -0.3794124 0.02500724 0.03616465 -0.04098303 82         1796.549337569915 -0.8217149 6.572512   2.945882  
5852.104600000001 8.995475   50.84067   6.827152   -0.3779757 0.02460696 0.03796678 -0.03484939 82         1799.82531882548 -0.8663008 6.827152   2.919533  
5852.3046  9.019366   50.95485   5.814771   -0.3726629 0.03296265 0.05171424 -0.01390735 82         1804.302695702121 -0.8671175 5.814771   2.889479  
5852.5046  9.025167   51.15298   7.559948   -0.371528  0.03166059 0.05218898 -0.008491771 82         1753.897983879204 -0.780011  7.559948   2.889599  
5852.704600000001 9.03084    51.3589    10.88657   -0.367453  0.03721222 0.06238487 0.009846344 82         1437.401875163347 -0.6086513 10.88657   2.901845  
5852.9046  8.997199   51.27802   11.31352   -0.3636432 0.0428755  0.07396348 0.03315422 82         1104.791145668308 -0.5151709 11.31352   2.90685   
5853.104600000001 8.971151   51.01456   9.253265   -0.362504  0.04209203 0.07651242 0.04607512 82         1048.104709480034 -0.5562177 9.253265   2.873383  
5853.3046  8.959778   50.89203   7.516373   -0.3665986 0.0261231  0.05346872 0.01694269 82         1204.833504060367 -0.6691779 7.516373   2.847828  
5853.5046  8.885786   50.81235   6.735228   -0.3587659 0.0404016  0.07525074 0.04732839 82         1494.386296565613 -0.7531803 6.735228   2.858065  
