~Version
 VERS              .         2.0                           : CWLS LOG ASCII STANDARD - VERSION 2.0
 WRAP              .         NO                            : ONE LINE PER DEPTH STEP
 DLM               .         SPACE                         : DELIMITING CHARACTER(SPACE TAB OR COMMA)
~Well Information
#_______________________________________________________________________________
#
#PARAMETER_NAME    .UNIT     VALUE                         : DESCRIPTION
#_______________________________________________________________________________
STRT               .m        1880.5999                     : First reference value
STOP               .m        5405.7999                     : Last reference value
STEP               .m        0.2                           : Step increment
NULL               .         -9999                         : Missing value
COMP               .         PETROLEO BRASILEIRO S/A       : Company
WELL               .         1-ESS-86A_resample            : Well name
FLD                .                                       : Field
LOC                .                                       : Location
CNTY               .                                       : County
STAT               .         ESPIRITO SANTO                : State
CTRY               .                                       : Country
SRVC               .                                       : Service Company
DATE               .                                       : Date
API                .         342710051600                  : API number
EDF                .M        14.00                         : Elevation Derrick Floor
GDAT               .         SIRGAS2000                    : Geodetic Datum
HZCS               .         UTM                           : Horizontal Coordinate System
LMF                .         MR                            : Log Measure From
LATI               .         -20_24_56.411                 : Latitude
LONG               .         -39_29_19.989                 : Longitude
MC                 .         39 W                          : Meridiano Central
ORIG               .         SIGEO EXPORTACAO PERFIL       : Origem dos dados
ORIGINALWELLNAME   .         1ESS 0086A ES                 : 
WDMS               .M        1841.00                       : Water Depth to Mean Sea Level
X                  .         448953.89                     : Surface X
Y                  .         7742410.09                    : Surface Y
~Parameter Information Block
#_______________________________________________________________________________
#
#PARAMETER_NAME    .UNIT     VALUE                         : DESCRIPTION
#_______________________________________________________________________________
SET                .         ESS86A_resample               : 
TLFamily_CALI      .         Caliper                       : 
TLFamily_DEPT      .         Measured Depth                : 
TLFamily_DT        .         Compressional Slowness        : 
TLFamily_GR        .         Gamma Ray                     : 
TLFamily_HDRS      .         Deep Resistivity              : 
TLFamily_INPEFA_1  .                                       : 
TLFamily_INPEFA_2  .                                       : 
TLFamily_INPEFA_3  .                                       : 
TLFamily_INPEFA_4  .                                       : 
TLFamily_LITO      .                                       : 
TLFamily_NPHI      .         Neutron Porosity              : 
TLFamily_RHOB      .         Bulk Density                  : 
~Curve Information
#_______________________________________________________________________________
#
#LOGNAME           .UNIT     LOG_ID                        : DESCRIPTION
#_______________________________________________________________________________
DEPT               .m                                      :  
CALI               .in                                     : CALIPER 1 CYLINDERDIAMETER 
DT                 .us/ft                                  : DELTA-T (ALSO CALLED SLOWNESS OR INTERVAL TRANSIT TIME) 
GR                 .gAPI                                   : GAMMA RAY 
HDRS               .ohm.m                                  : INDUCTION DEEP RESISTIVITY 
INPEFA_1           .                                       :  
INPEFA_2           .                                       :  
INPEFA_3           .                                       :  
INPEFA_4           .                                       :  
LITO               .                                       :  
NPHI               .%                                      : THERMAL NEUTRON POROSITY (ORIGINAL RATIO METHOD) IN SELECTED LITHOLOGY 
RHOB               .g/cm3                                  : BULK DENSITY 
~Ascii
# ...
4200.7999  12.6172    91.9337    78.8313    1.4459     0.203759   0.3546956  0.2725631  0.4728973  57         21.4585    2.4738    
4200.9999  12.5928    91.7194    81.5434    1.4513     0.1927569  0.3341072  0.2394945  0.4222234  57         20.795     2.4797    
4201.1999  12.5766    91.2296    79.9054    1.4549     0.19211    0.3348782  0.2425923  0.4360912  57         20.8385    2.4766    
4201.3999  12.5604    91.005     79.3305    1.453      0.2012608  0.3565649  0.282781   0.5246864  57         21.8791    2.4866    
4201.5999  12.5523    91         79.6171    1.4465     0.1981129  0.3536301  0.282299   0.5425878  57         21.9464    2.4963    
4201.7999  12.5847    91         78.9775    1.4462     0.1913957  0.3421794  0.265812   0.5270478  57         22.3478    2.4955    
4201.9999  12.6091    90.8725    76.3011    1.4611     0.1920307  0.3462296  0.2763783  0.5646305  57         21.5948    2.514     
4202.1999  12.5766    90.7551    73.8754    1.4823     0.1833985  0.3297516  0.2500603  0.5288606  57         22.4312    2.5158    
4202.3999  12.5767    91.2868    72.7287    1.5059     0.1635282  0.2873282  0.1748844  0.3852917  57         22.6472    2.5162    
4202.5999  12.6335    91.8112    81.9951    1.5086     0.1613442  0.2806602  0.1588635  0.3421954  57         22.0226    2.5181    
4202.7999  12.5766    91.3929    87.5167    1.5052     0.1684767  0.292676   0.1737977  0.3521873  57         21.8299    2.5158    
4202.9999  12.5197    90.5051    89.9036    1.4857     0.1578585  0.2691242  0.1293486  0.2527629  57         21.1149    2.5183    
4203.1999  12.5847    89.9082    86.2576    1.486      0.1835166  0.3226965  0.2200457  0.4164091  57         21.1769    2.5142    
4203.3999  12.5766    89.3973    80.6632    1.4938     0.1634193  0.2824596  0.1519509  0.2886203  57         20.9442    2.5029    
4203.5999  12.536     89.0663    82.5963    1.5061     0.1716015  0.2983161  0.1760503  0.3208146  57         21.164     2.4808    
4203.7999  12.5522    89.2041    85.1805    1.523      0.1549005  0.2621227  0.1096857  0.1757403  57         20.869     2.4803    
4203.9999  12.5604    89.1225    90.1811    1.524      0.1654849  0.2820788  0.138394   0.2025718  57         20.6144    2.4825    
4204.1999  12.601     88.4388    91.7893    1.5068     0.1616791  0.2721919  0.1159734  0.132041   57         20.8372    2.5       
4204.3999  12.5686    88.2146    89.197     1.4985     0.180263   0.3086044  0.1725334  0.2073552  57         20.3853    2.5011    
4204.5999  12.601     88.6636    87.6495    1.4944     0.183785   0.3164667  0.1842713  0.2109453  57         20.0454    2.4819    
4204.7999  12.6253    88.9694    87.4958    1.4899     0.210688   0.3746559  0.2859041  0.3985965  57         20.7127    2.4791    
4204.9999  12.5522    89         88.8146    1.4841     0.1987999  0.3543865  0.2569568  0.3572967  57         21.5403    2.482     
4205.1999  12.5441    89         91.7774    1.4903     0.194251   0.3486219  0.251982   0.3602674  57         21.541     2.4819    
4205.3999  12.5604    88.9231    96.0633    1.5026     0.1791698  0.317317   0.1978056  0.2549864  57         21.7072    2.4945    
4205.5999  12.5927    88.5353    98.131     1.5156     0.1634318  0.2824646  0.1337268  0.1167269  57         21.256     2.4899    
4205.7999  12.601     88.1071    96.3901    1.501      0.156666   0.2662134  0.1008487  0.03167578 57         20.5581    2.4785    
4205.9999  12.5522    88.0153    94.409     1.4675     0.1597667  0.2656699  0.08738402 -0.04273532 57         21.0297    2.4691    
4206.1999  12.5766    88.2806    87.2661    1.4528     0.1640179  0.2704017  0.08661553 -0.08563909 57         20.7368    2.4627    
4206.3999  12.6007    88.5867    88.7492    1.443      0.1826379  0.3087246  0.1500094  0.01566    57         21.1771    2.4675    
4206.5999  12.5686    88.408     88.1022    1.4718     0.16083    0.2615757  0.06527291 -0.1634924 57         21.3771    2.467     
4206.7999  12.601     88.5102    92.5084    1.5054     0.1666101  0.2665257  0.0613775  -0.2208471 57         20.2389    2.4715    
4206.9999  12.6091    89.1735    92.7679    1.5113     0.1830334  0.2982919  0.1100199  -0.1623856 57         21.7772    2.4914    
4207.1999  12.5441    89.801     91.9564    1.5045     0.2125776  0.36192    0.2217646  0.04726245 57         22.437     2.4869    
4207.3999  12.5442    90.3324    87.3469    1.4834     0.1909572  0.3180251  0.1482367  -0.08880513 57         21.348     2.4928    
4207.5999  12.5928    90.8166    84.0249    1.4728     0.1928427  0.3219974  0.155093   -0.07935607 57         22.4516    2.4694    
4207.7999  12.601     91         78.8581    1.4706     0.1866179  0.3085365  0.1315944  -0.1268237 57         22.4203    2.4504    
4207.9999  12.5847    90.8469    80.4037    1.4526     0.1710178  0.2732334  0.06718134 -0.2619188 57         22.9488    2.4396    
4208.1999  12.5847    90.6735    85.2282    1.4127     0.1800473  0.2858835  0.0795197  -0.2733064 57         22.1735    2.4569    
4208.3999  12.6333    90.8164    93.4146    1.4086     0.1823145  0.2897279  0.08400006 -0.280444  57         22.0266    2.473     
4208.5999  12.6172    90.6629    101.2025   1.4597     0.1833658  0.2909072  0.08480419 -0.2882404 57         21.7568    2.4949    
4208.7999  12.601     90.0306    104.0163   1.5092     0.1871021  0.2955753  0.08880236 -0.2972037 57         20.854     2.5065    
4208.9999  12.6416    89.6735    101.3788   1.52       0.1831285  0.2845104  0.06559097 -0.3612546 57         19.6046    2.5162    
4209.1999  12.5685    89.8469    95.7934    1.4267     0.1941067  0.3066256  0.1027421  -0.3011221 57         20.4304    2.5096    
4209.3999  12.5928    90         88.1983    1.3931     0.1838693  0.2824851  0.05784878 -0.4022382 57         22.2336    2.504     
4209.5999  12.5766    90         89.0606    1.4015     0.1919502  0.2965668  0.0779278  -0.3872369 57         21.5143    2.4784    
4209.7999  12.5441    89.9235    89.6232    1.4268     0.1881891  0.2870356  0.05872414 -0.4451827 57         21.1247    2.4788    
4209.9999  12.5685    89.551     88.8206    1.4449     0.1994423  0.3076223  0.08976881 -0.4138806 57         21.2996    2.474     
4210.1999  12.5522    89.3878    82.2983    1.4427     0.2048872  0.3164253  0.1007987  -0.4216051 57         22.1396    2.4736    
4210.3999  12.5604    89.7709    82.0225    1.4338     0.2204935  0.3482581  0.1541038  -0.3429936 57         22.5171    2.4814    
4210.5999  12.5928    89.9438    85.4355    1.4489     0.2388325  0.3880114  0.225302   -0.2144883 57         22.4182    2.4909    
4210.7999  12.6172    89.602     92.5531    1.5076     0.2487593  0.4107869  0.2688803  -0.1302922 57         21.7382    2.5028    
4210.9999  12.601     89.1429    98.8844    1.5606     0.2535299  0.4249497  0.3009573  -0.05697313 57         20.5112    2.5087    
4211.1999  12.5685    89         97.3986    1.589      0.264706   0.4550181  0.3650738  0.09535889 57         20.1441    2.5142    
4211.3999  12.5848    89         95.7648    1.6093     0.2512845  0.4301946  0.3302122  0.05057173 57         19.9545    2.5088    
4211.5999  12.6335    89.0052    92.5851    1.5981     0.256622   0.4439391  0.3604214  0.1232842  57         19.5882    2.5116    
4211.7999  12.6578    89.2296    90.2796    1.5731     0.2639204  0.4642787  0.4061512  0.2404568  57         21.1185    2.5082    
4211.9999  12.6659    89.7194    90.8942    1.5476     0.2609582  0.4628082  0.4150523  0.2963819  57         22.0412    2.5077    
4212.1999  12.6172    89.9337    89.6381    1.5248     0.2685219  0.4837136  0.4639297  0.4373552  57         21.0941    2.5049    
4212.3999  12.6094    89.6013    91.0548    1.5034     0.2467086  0.4440354  0.4097639  0.3893141  57         20.8071    2.4964    
4212.5999  12.6578    89.1426    90.2116    1.4824     0.2392885  0.4306788  0.3955886  0.4015818  57         21.8133    2.4984    
4212.7999  12.6172    89         90.9002    1.4653     0.2272918  0.4080117  0.3653553  0.3820165  57         22.0509    2.491     
