~Version
 VERS              .         2.0                           : CWLS LOG ASCII STANDARD - VERSION 2.0
 WRAP              .         NO                            : ONE LINE PER DEPTH STEP
 DLM               .         SPACE                         : DELIMITING CHARACTER(SPACE TAB OR COMMA)
~Well Information
#_______________________________________________________________________________
#
#PARAMETER_NAME    .UNIT     VALUE                         : DESCRIPTION
#_______________________________________________________________________________
STRT               .m        1880.5999                     : First reference value
STOP               .m        5405.7999                     : Last reference value
STEP               .m        0.2                           : Step increment
NULL               .         -9999                         : Missing value
COMP               .         PETROLEO BRASILEIRO S/A       : Company
WELL               .         1-ESS-86A_resample            : Well name
FLD                .                                       : Field
LOC                .                                       : Location
CNTY               .                                       : County
STAT               .         ESPIRITO SANTO                : State
CTRY               .                                       : Country
SRVC               .                                       : Service Company
DATE               .                                       : Date
API                .         342710051600                  : API number
EDF                .M        14.00                         : Elevation Derrick Floor
GDAT               .         SIRGAS2000                    : Geodetic Datum
HZCS               .         UTM                           : Horizontal Coordinate System
LMF                .         MR                            : Log Measure From
LATI               .         -20_24_56.411                 : Latitude
LONG               .         -39_29_19.989                 : Longitude
MC                 .         39 W                          : Meridiano Central
ORIG               .         SIGEO EXPORTACAO PERFIL       : Origem dos dados
ORIGINALWELLNAME   .         1ESS 0086A ES                 : 
WDMS               .M        1841.00                       : Water Depth to Mean Sea Level
X                  .         448953.89                     : Surface X
Y                  .         7742410.09                    : Surface Y
~Parameter Information Block
#_______________________________________________________________________________
#
#PARAMETER_NAME    .UNIT     VALUE                         : DESCRIPTION
#_______________________________________________________________________________
SET                .         ESS86A_resample               : 
TLFamily_CALI      .         Caliper                       : 
TLFamily_DEPT      .         Measured Depth                : 
TLFamily_DT        .         Compressional Slowness        : 
TLFamily_GR        .         Gamma Ray                     : 
TLFamily_HDRS      .         Deep Resistivity              : 
TLFamily_INPEFA_1  .                                       : 
TLFamily_INPEFA_2  .                                       : 
TLFamily_INPEFA_3  .                                       : 
TLFamily_INPEFA_4  .                                       : 
TLFamily_LITO      .                                       : 
TLFamily_NPHI      .         Neutron Porosity              : 
TLFamily_RHOB      .         Bulk Density                  : 
~Curve Information
#_______________________________________________________________________________
#
#LOGNAME           .UNIT     LOG_ID                        : DESCRIPTION
#_______________________________________________________________________________
DEPT               .m                                      :  
CALI               .in                                     : CALIPER 1 CYLINDERDIAMETER 
DT                 .us/ft                                  : DELTA-T (ALSO CALLED SLOWNESS OR INTERVAL TRANSIT TIME) 
GR                 .gAPI                                   : GAMMA RAY 
HDRS               .ohm.m                                  : INDUCTION DEEP RESISTIVITY 
INPEFA_1           .                                       :  
INPEFA_2           .                                       :  
INPEFA_3           .                                       :  
INPEFA_4           .                                       :  
LITO               .                                       :  
NPHI               .%                                      : THERMAL NEUTRON POROSITY (ORIGINAL RATIO METHOD) IN SELECTED LITHOLOGY 
RHOB               .g/cm3                                  : BULK DENSITY 
~Ascii
# ...
3044.1999  16.0028    134.1355   93.7442    0.800000011920929 -0.1700025 -0.1186922 0.1511487  0.3701212  57         43.3526    2.088     
3044.3999  15.9771    137.8524   88.5578    0.7483999729156494 -0.1742345 -0.1264604 0.1394793  0.3450909  57         41.9558    2.0794    
3044.5999  16.0028    139.0921   83.6572    0.7335000038146973 -0.1670359 -0.1096799 0.1707347  0.4023961  57         43.6753    2.0784    
3044.7999  16.097     136.5725   81.2442    0.7301999926567078 -0.1668896 -0.1052772 0.1844639  0.4400533  57         48.0757    2.0821    
3044.9999  16.1484    138.3694   83.0736    0.7572000026702881 -0.1740377 -0.1170644 0.1692973  0.4225691  57         49.5009    2.123     
3045.1999  16.1398    139.2474   87.1086    0.8526999950408936 -0.1713683 -0.1093547 0.185988   0.460272   57         45.8668    2.1571    
3045.3999  16.1827    130.0286   92.7189    0.878000020980835 -0.1791027 -0.1233657 0.164946   0.425048   57         43.8764    2.1275    
3045.5999  16.1655    135.8099   97.2191    0.7997000217437744 -0.1757309 -0.1142951 0.1838278  0.4680306  57         42.7534    2.1074    
3045.7999  16.0457    143.9662   97.6193    0.7404999732971191 -0.1791809 -0.1191064 0.179577   0.471816   57         41.8535    2.129     
3045.9999  16.0456    138.3002   96.3807    0.7430999875068665 -0.1883727 -0.1369952 0.1508423  0.4225337  57         40.9989    2.1635    
3046.1999  16.1655    133.2131   96.3485    0.7696999907493591 -0.1878024 -0.1345077 0.1569873  0.4382958  57         43.5037    2.2023    
3046.3999  16.1912    133.3799   98.1218    0.8036999702453613 -0.185278  -0.1266065 0.1747343  0.4853615  57         43.6806    2.1969    
3046.5999  16.1827    129.5743   101.7103   0.8148000240325928 -0.1972026 -0.1500569 0.1368762  0.4238735  57         44.8558    2.1996    
3046.7999  16.0799    128.6028   101.2237   0.7924000024795532 -0.1997524 -0.1545221 0.1304298  0.4170665  57         46.5833    2.1758    
3046.9999  15.9086    135.15     98.8984    0.7714999914169312 -0.2131397 -0.1827753 0.08087856 0.3209829  57         46.3855    2.1653    
3047.1999  16.0199    138.4184   96.2691    0.7784000039100647 -0.2114548 -0.180728  0.08152665 0.3130017  57         45.8214    2.1629    
3047.3999  16.2169    134.4246   95.2299    0.802299976348877 -0.2076482 -0.1721441 0.0966885  0.3436623  57         44.5511    2.1732    
3047.5999  16.2598    131.5254   94.2228    0.8163999915122986 -0.2223312 -0.2027978 0.04333496 0.242501   57         41.3892    2.1873    
3047.7999  16.2426    130.5361   93.8871    0.8180000185966492 -0.2238774 -0.2075538 0.03194199 0.2115523  57         41.7545    2.1782    
3047.9999  16.2255    131.1607   94.9175    0.8043000102043152 -0.2303588 -0.2229914 0.001092694 0.1386238  57         47.0781    2.1653    
3048.1999  16.1399    134.6037   95.5093    0.7742999792098999 -0.227484  -0.2183196 0.005433859 0.1330689  57         46.8238    2.1556    
3048.3999  16.0114    137.2669   97.7942    0.7752000093460083 -0.2279287 -0.219683  0.000923142 0.1171845  57         44.8395    2.1538    
3048.5999  16.0456    134.8802   97.6991    0.7998999953269959 -0.2515749 -0.2729495 -0.09863713 -0.09773944 57         43.009     2.1871    
3048.7999  16.0285    134.4048   98.0664    0.8051999807357788 -0.246893  -0.2694661 -0.1050124 -0.1548577 57         41.4079    2.2111    
3048.9999  15.9343    134.2453   99.4251    0.7998999953269959 -0.2239931 -0.2242338 -0.03359349 -0.04507004 57         43.9422    2.2049    
3049.1999  15.9257    132.7068   99.6249    0.7991999983787537 -0.2327484 -0.243505  -0.06998939 -0.1246369 57         46.8091    2.1881    
3049.3999  15.7801    132.3981   99.2978    0.7936999797821045 -0.2415822 -0.2653699 -0.1146831 -0.2318865 57         44.0816    2.1466    
3049.5999  15.5575    139.6793   100.0002   0.7547000050544739 -0.2425578 -0.2727229 -0.1379821 -0.3131711 57         45.6477    2.1079    
3049.7999  15.5146    144.3041   100.3761   0.732699990272522 -0.2293957 -0.2489471 -0.105309  -0.2819975 57         46.4265    2.1222    
3049.9999  15.6601    141.8182   103.1727   0.7560999989509583 -0.2256247 -0.2422319 -0.09760263 -0.2815866 57         42.612     2.1594    
3050.1999  15.7287    131.5899   103.2218   0.7764000296592712 -0.2306206 -0.2554412 -0.1266373 -0.3576588 57         43.0826    2.1551    
3050.3999  15.8143    129.887    101.3355   0.7757999897003174 -0.2315599 -0.2614037 -0.1455498 -0.4243633 57         39.3991    2.1319    
3050.5999  15.8914    137.7638   101.5913   0.7558000087738037 -0.224653  -0.2499426 -0.1329419 -0.4276717 57         39.2683    2.1252    
3050.7999  15.8229    139.9639   101.3197   0.7379000186920166 -0.2185116 -0.2398991 -0.1224369 -0.433919  57         42.1469    2.1436    
3050.9999  15.7202    139.6736   102.7732   0.7412999868392944 -0.2005177 -0.2031014 -0.06277673 -0.3369626 57         45.4873    2.1581    
3051.1999  15.8914    135.8822   101.7672   0.75       -0.1923153 -0.1850302 -0.03211101 -0.2814407 57         45.8931    2.1763    
3051.3999  16.0113    135.5356   100.1288   0.753000020980835 -0.1885115 -0.1743785 -0.01096412 -0.230078  57         43.0331    2.18      
3051.5999  16.0799    137.8295   102.8693   0.7480000257492065 -0.1986647 -0.1938937 -0.04309791 -0.2814262 57         44.3004    2.1736    
3051.7999  16.1313    135.0786   103.0455   0.7422999739646912 -0.2014291 -0.2017151 -0.06089399 -0.3240374 57         44.8719    2.1793    
3051.9999  16.0884    137.4166   98.9072    0.7444000244140625 -0.1919424 -0.1823187 -0.02947588 -0.2664503 57         43.0129    2.179     
3052.1999  16.0371    136.455    96.0294    0.7547000050544739 -0.1941489 -0.1857959 -0.03475354 -0.2677187 57         43.5624    2.1691    
3052.3999  15.9942    138.9882   95.4774    0.760699987411499 -0.1977178 -0.1940654 -0.05111947 -0.2978162 57         48.059     2.1518    
3052.5999  15.9685    137.1666   98.2979    0.7567999958992004 -0.1889253 -0.1760111 -0.02145613 -0.2385543 57         45.2861    2.1444    
3052.7999  15.9343    133.7286   97.8594    0.7519999742507935 -0.1930351 -0.1841689 -0.03561139 -0.2569069 57         42.5519    2.1223    
3052.9999  15.9171    137.2413   94.9588    0.753000020980835 -0.1925279 -0.1836347 -0.03614782 -0.2530881 57         44.1227    2.1145    
3053.1999  15.8058    136.5644   93.7991    0.7558000087738037 -0.1928244 -0.1851183 -0.04093565 -0.2607251 57         44.5062    2.1178    
3053.3999  15.703     137.0918   94.8616    0.7623000144958496 -0.1674974 -0.1303588 0.05575332 -0.05961803 57         46.521     2.1334    
3053.5999  15.8057    135.8601   95.3331    0.7699000239372253 -0.1824886 -0.1585446 0.01224243 -0.1113767 57         43.8964    2.1389    
3053.7999  16.0113    131.8742   93.6479    0.7702999711036682 -0.1757215 -0.1442348 0.03747056 -0.04626148 57         42.1146    2.1528    
3053.9999  16.0285    134.5959   88.9255    0.7702999711036682 -0.1652216 -0.1189295 0.08646993 0.07981437 57         42.1504    2.1472    
3054.1999  15.8315    139.5114   85.7282    0.767799973487854 -0.1701681 -0.1243836 0.08555805 0.1250819  57         41.6672    2.1282    
3054.3999  15.7373    137.5181   85.3035    0.7742000222206116 -0.1802721 -0.1437054 0.05627456 0.104522   57         40.2212    2.1401    
3054.5999  15.763     136.2765   89.7163    0.7926999926567078 -0.1847413 -0.1528357 0.04136682 0.09851292 57         40.6442    2.1571    
3054.7999  15.9514    133.6323   94.5411    0.8112000226974487 -0.1854999 -0.1523446 0.04564552 0.135673   57         38.4833    2.1846    
3054.9999  16.1569    127.1531   95.5814    0.819599986076355 -0.1892174 -0.1584644 0.03830044 0.1517309  57         39.0701    2.1714    
3055.1999  16.1227    126.6337   95.2295    0.8108000159263611 -0.194661  -0.16944   0.02030495 0.1393949  57         43.4914    2.1333    
3055.3999  16.0884    134.1015   94.415     0.8258000016212463 -0.2001192 -0.1803045 0.002177883 0.1232693  57         41.8478    2.1061    
3055.5999  15.9686    133.3897   93.1441    0.8460999727249146 -0.2111963 -0.2042847 -0.04080336 0.05106011 57         41.0101    2.0981    
