~Version
 VERS              .         2.0                           : CWLS LOG ASCII STANDARD - VERSION 2.0
 WRAP              .         NO                            : ONE LINE PER DEPTH STEP
 DLM               .         SPACE                         : DELIMITING CHARACTER(SPACE TAB OR COMMA)
~Well Information
#_______________________________________________________________________________
#
#PARAMETER_NAME    .UNIT     VALUE                         : DESCRIPTION
#_______________________________________________________________________________
STRT               .m        1880.5999                     : First reference value
STOP               .m        5405.7999                     : Last reference value
STEP               .m        0.2                           : Step increment
NULL               .         -9999                         : Missing value
COMP               .         PETROLEO BRASILEIRO S/A       : Company
WELL               .         1-ESS-86A_resample            : Well name
FLD                .                                       : Field
LOC                .                                       : Location
CNTY               .                                       : County
STAT               .         ESPIRITO SANTO                : State
CTRY               .                                       : Country
SRVC               .                                       : Service Company
DATE               .                                       : Date
API                .         342710051600                  : API number
EDF                .M        14.00                         : Elevation Derrick Floor
GDAT               .         SIRGAS2000                    : Geodetic Datum
HZCS               .         UTM                           : Horizontal Coordinate System
LMF                .         MR                            : Log Measure From
LATI               .         -20_24_56.411                 : Latitude
LONG               .         -39_29_19.989                 : Longitude
MC                 .         39 W                          : Meridiano Central
ORIG               .         SIGEO EXPORTACAO PERFIL       : Origem dos dados
ORIGINALWELLNAME   .         1ESS 0086A ES                 : 
WDMS               .M        1841.00                       : Water Depth to Mean Sea Level
X                  .         448953.89                     : Surface X
Y                  .         7742410.09                    : Surface Y
~Parameter Information Block
#_______________________________________________________________________________
#
#PARAMETER_NAME    .UNIT     VALUE                         : DESCRIPTION
#_______________________________________________________________________________
SET                .         ESS86A_resample               : 
TLFamily_CALI      .         Caliper                       : 
TLFamily_DEPT      .         Measured Depth                : 
TLFamily_DT        .         Compressional Slowness        : 
TLFamily_GR        .         Gamma Ray                     : 
TLFamily_HDRS      .         Deep Resistivity              : 
TLFamily_INPEFA_1  .                                       : 
TLFamily_INPEFA_2  .                                       : 
TLFamily_INPEFA_3  .                                       : 
TLFamily_INPEFA_4  .                                       : 
TLFamily_LITO      .                                       : 
TLFamily_NPHI      .         Neutron Porosity              : 
TLFamily_RHOB      .         Bulk Density                  : 
~Curve Information
#_______________________________________________________________________________
#
#LOGNAME           .UNIT     LOG_ID                        : DESCRIPTION
#_______________________________________________________________________________
DEPT               .m                                      :  
CALI               .in                                     : CALIPER 1 CYLINDERDIAMETER 
DT                 .us/ft                                  : DELTA-T (ALSO CALLED SLOWNESS OR INTERVAL TRANSIT TIME) 
GR                 .gAPI                                   : GAMMA RAY 
HDRS               .ohm.m                                  : INDUCTION DEEP RESISTIVITY 
INPEFA_1           .                                       :  
INPEFA_2           .                                       :  
INPEFA_3           .                                       :  
INPEFA_4           .                                       :  
LITO               .                                       :  
NPHI               .%                                      : THERMAL NEUTRON POROSITY (ORIGINAL RATIO METHOD) IN SELECTED LITHOLOGY 
RHOB               .g/cm3                                  : BULK DENSITY 
~Ascii
# ...
2122.7999  -9999      -9999      39.1199    -9999      -0.2677677 -0.1330937 -0.1168307 -0.2094154 57         -9999      -9999     
2122.9999  -9999      -9999      40.1609    -9999      -0.2655055 -0.1302313 -0.1145309 -0.2094353 57         -9999      -9999     
2123.1999  -9999      -9999      40.7373    -9999      -0.2609252 -0.1216797 -0.1009616 -0.1831172 57         -9999      -9999     
2123.3999  -9999      -9999      39.7581    -9999      -0.2613088 -0.1229419 -0.1034055 -0.1840914 57         -9999      -9999     
2123.5999  -9999      -9999      40.626     -9999      -0.2582046 -0.1169992 -0.09350816 -0.1618154 57         -9999      -9999     
2123.7999  -9999      -9999      38.5601    -9999      -0.2651053 -0.1329929 -0.1230503 -0.2202243 57         -9999      -9999     
2123.9999  -9999      -9999      40.4152    -9999      -0.2573749 -0.1178075 -0.09819099 -0.174983  57         -9999      -9999     
2124.1999  -9999      -9999      40.4459    -9999      -0.2559663 -0.1149929 -0.0933219 -0.1634877 57         -9999      -9999     
2124.3999  -9999      -9999      40.5353    -9999      -0.2583325 -0.1212212 -0.1057499 -0.1905466 57         -9999      -9999     
2124.5999  -9999      -9999      39.4001    -9999      -0.2447013 -0.09232762 -0.05516692 -0.09096801 57         -9999      -9999     
2124.7999  -9999      -9999      40.41      -9999      -0.2431824 -0.08760148 -0.04414731 -0.0581696 57         -9999      -9999     
2124.9999  -9999      -9999      40.2043    -9999      -0.2356699 -0.07066278 -0.01214145 0.01629369 57         -9999      -9999     
2125.1999  -9999      -9999      40.9917    -9999      -0.2421998 -0.08277015 -0.02977357 -0.001589845 57         -9999      -9999     
2125.3999  -9999      -9999      38.5981    -9999      -0.2334208 -0.06286649 0.007868258 0.08613031 57         -9999      -9999     
2125.5999  -9999      -9999      37.5548    -9999      -0.2254955 -0.04302148 0.04861087 0.1930004  57         -9999      -9999     
2125.7999  -9999      -9999      37.6137    -9999      -0.2388128 -0.06879955 0.009089513 0.1445165  57         -9999      -9999     
2125.9999  -9999      -9999      37.9077    -9999      -0.2392065 -0.0692095 0.01037666 0.1628507  57         -9999      -9999     
2126.1999  -9999      -9999      37.5753    -9999      -0.2320212 -0.0524705 0.04327996 0.2481922  57         -9999      -9999     
2126.3999  -9999      -9999      36.9563    -9999      -0.2404093 -0.0685126 0.01976512 0.2290079  57         -9999      -9999     
2126.5999  -9999      -9999      36.4411    -9999      -0.2410388 -0.0687928 0.02258514 0.2570584  57         -9999      -9999     
2126.7999  -9999      -9999      37.9065    -9999      -0.2460702 -0.07865484 0.008087615 0.2490815  57         -9999      -9999     
2126.9999  -9999      -9999      37.5087    -9999      -0.2468383 -0.08011477 0.007445484 0.2658022  57         -9999      -9999     
2127.1999  -9999      -9999      37.106     -9999      -0.2524154 -0.09117695 -0.009141818 0.2539663  57         -9999      -9999     
2127.3999  -9999      -9999      36.7874    -9999      -0.2558725 -0.09878929 -0.02154418 0.2433251  57         -9999      -9999     
2127.5999  -9999      -9999      34.4028    -9999      -0.2642989 -0.1176801 -0.05507038 0.1854372  57         -9999      -9999     
2127.7999  -9999      -9999      33.7557    -9999      -0.2590703 -0.1084124 -0.04074453 0.2148649  57         -9999      -9999     
2127.9999  -9999      -9999      31.9389    -9999      -0.2524658 -0.09347668 -0.01232515 0.284979   57         -9999      -9999     
2128.1999  -9999      -9999      33.5935    -9999      -0.2635759 -0.1164205 -0.05024488 0.2270024  57         -9999      -9999     
2128.3999  -9999      -9999      34.2429    -9999      -0.2574302 -0.104102  -0.02873804 0.2766861  57         -9999      -9999     
2128.5999  -9999      -9999      33.8852    -9999      -0.2691963 -0.1294084 -0.07266772 0.1989997  57         -9999      -9999     
2128.7999  -9999      -9999      35.9975    -9999      -0.2575555 -0.1052043 -0.0303749 0.2870451  57         -9999      -9999     
2128.9999  -9999      -9999      37.4449    -9999      -0.270801  -0.13322   -0.07833932 0.2032455  57         -9999      -9999     
2129.1999  -9999      -9999      38.2429    -9999      -0.2702343 -0.1335624 -0.08091787 0.1955092  57         -9999      -9999     
2129.3999  -9999      -9999      39.1429    -9999      -0.2662296 -0.1257244 -0.06807666 0.2198797  57         -9999      -9999     
2129.5999  -9999      -9999      38.7031    -9999      -0.2689338 -0.1317862 -0.07885969 0.2008063  57         -9999      -9999     
2129.7999  -9999      -9999      40.1647    -9999      -0.2714118 -0.1381142 -0.09133022 0.1738231  57         -9999      -9999     
2129.9999  -9999      -9999      40.7028    -9999      -0.2596382 -0.1130634 -0.0474325 0.2602877  57         -9999      -9999     
2130.1999  -9999      -9999      41.0943    -9999      -0.2687483 -0.1314519 -0.07777068 0.2094788  57         -9999      -9999     
2130.3999  -9999      -9999      41.3219    -9999      -0.2682348 -0.1311468 -0.07806017 0.2087746  57         -9999      -9999     
2130.5999  -9999      -9999      42.4445    -9999      -0.267899  -0.1308385 -0.07809798 0.2081261  57         -9999      -9999     
2130.7999  -9999      -9999      41.2907    -9999      -0.2709005 -0.1375622 -0.09036484 0.1836339  57         -9999      -9999     
2130.9999  -9999      -9999      38.8783    -9999      -0.2717549 -0.1401243 -0.09593859 0.1702929  57         -9999      -9999     
2131.1999  -9999      -9999      38.7566    -9999      -0.2715737 -0.140482  -0.09782253 0.1630235  57         -9999      -9999     
2131.3999  -9999      -9999      37.7111    -9999      -0.2744433 -0.1470747 -0.1103936 0.1349677  57         -9999      -9999     
2131.5999  -9999      -9999      40.5187    -9999      -0.2776962 -0.1552783 -0.1269888 0.09514122 57         -9999      -9999     
2131.7999  -9999      -9999      39.3245    -9999      -0.2761197 -0.1535716 -0.1269256 0.08512252 57         -9999      -9999     
2131.9999  -9999      -9999      40.6877    -9999      -0.2757599 -0.1537336 -0.1290595 0.07432278 57         -9999      -9999     
2132.1999  -9999      -9999      40.7156    -9999      -0.2787925 -0.1614264 -0.1446283 0.03755776 57         -9999      -9999     
2132.3999  -9999      -9999      39.974     -9999      -0.2764678 -0.1579183 -0.1408737 0.03795191 57         -9999      -9999     
2132.5999  -9999      -9999      39.8512    -9999      -0.2948734 -0.1992471 -0.2170676 -0.1230966 57         -9999      -9999     
2132.7999  -9999      -9999      39.1045    -9999      -0.287721  -0.1885523 -0.205989  -0.1281966 57         -9999      -9999     
2132.9999  -9999      -9999      37.4832    -9999      -0.2933111 -0.2037934 -0.2387547 -0.215119  57         -9999      -9999     
2133.1999  -9999      -9999      38.2773    -9999      -0.2841997 -0.1882595 -0.2184728 -0.202415  57         -9999      -9999     
2133.3999  -9999      -9999      38.3129    -9999      -0.2788177 -0.1783564 -0.2043835 -0.18945   57         -9999      -9999     
2133.5999  -9999      -9999      39.262     -9999      -0.2901782 -0.2049745 -0.255457  -0.3068627 57         -9999      -9999     
2133.7999  -9999      -9999      40.1722    -9999      -0.2689963 -0.162915  -0.1871759 -0.1953152 57         -9999      -9999     
2133.9999  -9999      -9999      39.9676    -9999      -0.2759519 -0.1777567 -0.2137889 -0.2521985 57         -9999      -9999     
2134.1999  -9999      -9999      39.9779    -9999      -0.2796109 -0.1875866 -0.2345486 -0.3067212 57         -9999      -9999     
2134.3999  -9999      -9999      40.1979    -9999      -0.2689154 -0.1669262 -0.2021729 -0.2594275 57         -9999      -9999     
2134.5999  -9999      -9999      40.4983    -9999      -0.2642397 -0.1567972 -0.1845202 -0.2278414 57         -9999      -9999     
2134.7999  -9999      -9999      40.3219    -9999      -0.2653638 -0.1584992 -0.1863622 -0.2281089 57         -9999      -9999     
