~Version
 VERS              .         2.0                           : CWLS LOG ASCII STANDARD - VERSION 2.0
 WRAP              .         NO                            : ONE LINE PER DEPTH STEP
 DLM               .         SPACE                         : DELIMITING CHARACTER(SPACE TAB OR COMMA)
~Well Information
#_______________________________________________________________________________
#
#PARAMETER_NAME    .UNIT     VALUE                         : DESCRIPTION
#_______________________________________________________________________________
STRT               .m        2062.5046                     : First reference value
STOP               .m        6413.5046                     : Last reference value
STEP               .m        0.2                           : Step increment
NULL               .         -9999                         : Missing value
COMP               .         PETROLEO BRASILEIRO S/A       : Company
WELL               .         1-ESS-120_resample            : Well name
FLD                .                                       : Field
LOC                .                                       : Location
CNTY               .                                       : County
STAT               .         ESPIRITO SANTO                : State
CTRY               .                                       : Country
SRVC               .                                       : Service Company
DATE               .                                       : Date
API                .         342710278300                  : API number
EDF                .M        25.00                         : Elevation Derrick Floor
ELEV               .M        25.0000                       : Surface Elev
ELEV_TYPE          .         KB                            : Elev Type
GDAT               .         SIRGAS2000                    : Geodetic Datum
HZCS               .         UTM                           : Horizontal Coordinate System
LAT                .         -20.620145                    : Latitude
LMF                .         MR                            : Log Measure From
LON                .         -39.512655                    : Longitude
LATI               .         -20_37_15.239                 : Latitude
LONG               .         -39_30_38.085                 : Longitude
MC                 .         39 W                          : Meridiano Central
ORIG               .         SIGEO EXPORTACAO PERFIL       : Origem dos dados
ORIGINALWELLNAME   .         1ESS 0120  ES                 : 
WDMS               .M        2003.00                       : Water Depth to Mean Sea Level
X                  .         446729.00                     : Surface X
XCOORD             .         446584.000000                 : Surface X
Y                  .         7719623.00                    : Surface Y
YCOORD             .         7719778.000000                : Surface Y
~Parameter Information Block
#_______________________________________________________________________________
#
#PARAMETER_NAME    .UNIT     VALUE                         : DESCRIPTION
#_______________________________________________________________________________
SET                .         ESS120_resample               : 
TLFamily_CALI      .         Caliper                       : 
TLFamily_DEPT      .         Measured Depth                : 
TLFamily_DTCO      .         Compressional Slowness        : 
TLFamily_GR        .         Gamma Ray                     : 
TLFamily_INPEFA_1  .                                       : 
TLFamily_INPEFA_2  .                                       : 
TLFamily_INPEFA_3  .                                       : 
TLFamily_INPEFA_4  .                                       : 
TLFamily_LITO      .                                       : 
TLFamily_LLD       .         Deep Resistivity              : 
TLFamily_NPHI      .         Neutron Porosity              : 
TLFamily_OG        .                                       : 
TLFamily_RHOB_merge .         Bulk Density                  : 
~Curve Information
#_______________________________________________________________________________
#
#LOGNAME           .UNIT     LOG_ID                        : DESCRIPTION
#_______________________________________________________________________________
DEPT               .m                                      :  
CALI               .in                                     : CALIPER 
DTCO               .us/ft                                  : DELTA-T COMPRESSIONAL 
GR                 .gAPI                                   : GAMMA RAY 
INPEFA_1           .                                       :  
INPEFA_2           .                                       :  
INPEFA_3           .                                       :  
INPEFA_4           .                                       :  
LITO               .                                       :  
LLD                .ohm.m                                  : LATEROLOG DEEP RESISTIVITY 
NPHI               .%                                      : THERMAL NEUTRON POROSITY (ORIGINAL RATIO METHOD) IN SELECTED LITHOLOGY 
OG                 .                                       :  
RHOB_merge         .g/cm3                                  :  
~Ascii
# ...
2957.7046  -9999      119.9254   71.76803   0.3086908  -0.1157132 -0.2537335 -0.2128539 58         -9999      45.42396   71.76803   2.229261  
2957.9046  -9999      112.3612   63.89038   0.3193536  -0.0897249 -0.2154261 -0.166471  58         -9999      43.86289   63.89038   2.216343  
2958.1046  -9999      103.8864   61.98462   0.3309328  -0.0612331 -0.1712175 -0.1053278 58         -9999      37.85257   61.98462   2.378891  
2958.3046  -9999      99.98738   64.74906   0.3386051  -0.04079931 -0.1366794 -0.05209669 58         -9999      29.80031   64.74906   2.466912  
2958.5046  -9999      102.3154   70.07822   0.3461043  -0.01751523 -0.09289186 0.02801728 58         -9999      31.01017   70.07822   2.449155  
2958.7046  -9999      108.128    77.37572   0.3436445  -0.02073514 -0.08879268 0.05853371 58         -9999      33.63595   77.37572   2.426805  
2958.9046  -9999      113.7955   85.52052   0.3287849  -0.05804373 -0.1401792 0.002267123 58         -9999      33.3313    85.52052   2.390441  
2959.1046  -9999      120.0333   88.34975   0.32867    -0.05955393 -0.140438  0.009973218 58         -9999      38.01921   88.34975   2.371931  
2959.3046  -9999      123.8904   87.469     0.3199523  -0.08221071 -0.1716047 -0.02423453 58         -9999      41.99187   87.469     2.255591  
2959.5046  -9999      122.2018   83.03512   0.3176572  -0.09252466 -0.1905759 -0.05726907 58         -9999      45.69505   83.03512   2.179882  
2959.7046  -9999      115.9513   75.70174   0.3136339  -0.1070792 -0.2168582 -0.1057382 58         -9999      44.97009   75.70174   2.203693  
2959.9046  -9999      107.0788   70.26897   0.3308228  -0.06857002 -0.1644138 -0.04869781 58         -9999      42.24393   70.26897   2.26717   
2960.1046  -9999      101.3553   75.68436   0.3444341  -0.03170406 -0.1036255 0.04484887 58         -9999      36.30428   75.68436   2.311099  
2960.3046  -9999      102.6887   83.15992   0.3436491  -0.03333209 -0.1018085 0.05806917 58         -9999      31.91892   83.15992   2.365066  
2960.5046  -9999      109.4884   84.00842   0.3527944  -0.006488523 -0.05278329 0.1476529  58         -9999      34.97512   84.00842   2.262312  
2960.7046  -9999      106.8041   77.57211   0.3485247  -0.01376911 -0.05312973 0.1780508  58         -9999      44.84024   77.57211   1.980631  
2960.9046  -9999      94.37411   68.98064   0.3360522  -0.04453093 -0.09276141 0.1447676  58         -9999      43.41103   68.98064   2.127628  
2961.1046  -9999      81.19054   61.03913   0.3384903  -0.03781272 -0.07712912 0.1851632  58         -9999      30.74203   61.03913   2.443828  
2961.3046  -9999      79.04078   57.42031   0.3162625  -0.09363369 -0.15552   0.09488543 58         -9999      24.83124   57.42031   2.478337  
2961.5046  -9999      82.44284   59.23013   0.3099863  -0.1142917 -0.1900906 0.0424239  58         -9999      24.01862   59.23013   2.492938  
2961.7046  -9999      87.74057   65.87745   0.3011582  -0.1418799 -0.2369165 -0.03417035 58         -9999      24.26977   65.87745   2.459607  
2961.9046  -9999      97.83693   77.7517    0.3035875  -0.1455807 -0.2555134 -0.09235758 58         -9999      24.95532   77.7517    2.446207  
2962.1046  -9999      106.0532   85.99219   0.3218126  -0.1025971 -0.1960175 -0.02789564 58         -9999      27.03464   85.99219   2.420274  
2962.3046  -9999      108.7457   89.09596   0.3272687  -0.09096687 -0.180331  -0.01283862 58         -9999      30.80997   89.09596   2.407594  
2962.5046  -9999      110.5377   88.1868    0.3192499  -0.1101596 -0.2068291 -0.04697314 58         -9999      32.06255   88.1868    2.289698  
2962.7046  -9999      115.2983   86.17979   0.313334   -0.132715  -0.2493164 -0.1271573 58         -9999      34.39738   86.17979   2.388304  
2962.9046  -9999      115.5171   76.88894   0.3201209  -0.1191655 -0.2345266 -0.1270902 58         -9999      40.17439   76.88894   2.294081  
2963.1046  -9999      108.0865   64.39894   0.3282345  -0.1043934 -0.2194913 -0.1299792 58         -9999      42.93104   64.39894   2.275082  
2963.3046  -9999      96.04308   60.35845   0.3440891  -0.0638743 -0.1581326 -0.05410366 58         -9999      37.21915   60.35845   2.352946  
2963.5046  -9999      90.59184   63.67693   0.3524873  -0.04309915 -0.1254908 -0.01289032 58         -9999      29.58851   63.67693   2.423861  
2963.7046  -9999      94.53242   70.03702   0.3605598  -0.02003882 -0.08575527 0.0461874  58         -9999      26.42318   70.03702   2.429822  
2963.9046  -9999      100.5191   79.7337    0.3600166  -0.0172667 -0.07294444 0.07979345 58         -9999      29.04525   79.7337    2.39932   
2964.1046  -9999      101.0005   85.45667   0.3568357  -0.0253728 -0.08148703 0.07434877 58         -9999      32.33657   85.45667   2.386655  
2964.3046  -9999      100.0964   92.59031   0.3519722  -0.03561003 -0.09149363 0.06858374 58         -9999      31.38227   92.59031   2.341248  
2964.5046  -9999      103.4391   99.06358   0.3388956  -0.06927335 -0.1398854 0.003049467 58         -9999      31.99992   99.06358   2.398693  
2964.7046  -9999      111.5317   101.2761   0.3438456  -0.06189821 -0.1342283 -0.007545278 58         -9999      35.48547   101.2761   2.38053   
2964.9046  -9999      121.6283   95.42155   0.3408411  -0.07058131 -0.1484446 -0.03942954 58         -9999      43.49491   95.42155   2.258442  
2965.1046  -9999      123.7652   81.52349   0.3497542  -0.05093735 -0.1222302 -0.01905431 57         -9999      49.42162   81.52349   2.087839  
2965.3046  -9999      115.4574   68.98586   0.3504035  -0.05074251 -0.1235983 -0.03385389 57         -9999      43.44186   68.98586   2.210662  
2965.5046  -9999      104.6948   70.77495   0.3667418  -0.01029694 -0.06328535 0.04144368 57         -9999      37.24402   70.77495   2.321974  
2965.7046  -9999      108.1037   79.82699   0.3587681  -0.02579433 -0.07841433 0.03425568 57         -9999      34.40729   79.82699   2.364674  
2965.9046  -9999      115.0183   82.54919   0.3461158  -0.06127545 -0.1337267 -0.04948414 57         -9999      38.01139   82.54919   2.381132  
2966.1046  -9999      119.74     75.53365   0.3453088  -0.06616753 -0.144344  -0.07897136 57         -9999      44.07371   75.53365   2.304294  
2966.3046  -9999      120.3332   65.0501    0.3408005  -0.08215324 -0.173841  -0.140543  57         -9999      47.74181   65.0501    2.216921  
2966.5046  -9999      109.4572   58.17439   0.3624501  -0.03072426 -0.1008408 -0.05963969 57         -9999      43.36041   58.17439   2.22659   
2966.7046  -9999      98.62724   57.80553   0.3575623  -0.04056883 -0.1110492 -0.07419926 57         -9999      35.25856   57.80553   2.335809  
2966.9046  -9999      95.86607   64.1197    0.3685678  -0.01578343 -0.07661662 -0.0416313 57         -9999      27.13803   64.1197    2.43299   
2967.1046  -9999      103.7531   72.62277   0.3796274  0.01610696 -0.02203754 0.03985965 57         -9999      24.93015   72.62277   2.417786  
2967.3046  -9999      114.4859   80.35618   0.3674887  -0.0119978 -0.0578834 0.00031267 57         -9999      31.29873   80.35618   2.428694  
2967.5046  -9999      122.8124   87.93112   0.3668108  -0.01714548 -0.06803069 -0.02379228 57         -9999      38.64869   87.93112   2.375023  
2967.7046  -9999      127.9511   87.66133   0.3715729  -0.004390727 -0.04624729 0.006286788 57         -9999      40.77822   87.66133   2.339202  
2967.9046  -9999      131.3721   83.15054   0.3628208  -0.02787553 -0.08070956 -0.04386699 57         -9999      40.42175   83.15054   2.29029   
2968.1046  -9999      131.4339   76.87209   0.3679015  -0.01758053 -0.06688163 -0.03479396 57         -9999      41.4519    76.87209   2.179651  
2968.3046  -9999      126.5492   72.8783    0.3660304  -0.02293998 -0.07365967 -0.0486576 57         -9999      40.40582   72.8783    2.185904  
2968.5046  -9999      116.7961   66.83888   0.3768129  0.003919183 -0.03143392 0.006989768 57         -9999      39.26431   66.83888   2.212874  
2968.7046  -9999      105.4075   68.09847   0.3696303  -0.01216803 -0.04970089 -0.01270406 57         -9999      38.50492   68.09847   2.28392   
