~Version
 VERS              .         2.0                           : CWLS LOG ASCII STANDARD - VERSION 2.0
 WRAP              .         NO                            : ONE LINE PER DEPTH STEP
 DLM               .         SPACE                         : DELIMITING CHARACTER(SPACE TAB OR COMMA)
~Well Information
#_______________________________________________________________________________
#
#PARAMETER_NAME    .UNIT     VALUE                         : DESCRIPTION
#_______________________________________________________________________________
STRT               .m        2119.8892                     : First reference value
STOP               .m        5043.2892                     : Last reference value
STEP               .m        0.2                           : Step increment
NULL               .         -9999                         : Missing value
COMP               .         PETROLEO BRASILEIRO S/A       : Company
WELL               .         1ESS 0094  ES                 : Well name
FLD                .                                       : Field
LOC                .                                       : Location
CNTY               .                                       : County
STAT               .         ESPIRITO SANTO                : State
CTRY               .                                       : Country
SRVC               .                                       : Service Company
DATE               .                                       : Date
API                .         342710052700                  : API number
EDF                .M        25.00                         : Elevation Derrick Floor
GDAT               .         SIRGAS2000                    : Geodetic Datum
HZCS               .         UTM                           : Horizontal Coordinate System
LAT                .         -20.952076                    : Latitude
LONG               .         -39.451195                    : Longitude
MC                 .         39 W                          : Meridiano Central
ORIG               .         SIGEO EXPORTACAO PERFIL       : Origem dos dados
WDMS               .M        2081.00                       : Water Depth to Mean Sea Level
XCOORD             .         453092.70                     : Surface X
YCOORD             .         7683090.10                    : Surface Y
~Parameter Information Block
#_______________________________________________________________________________
#
#PARAMETER_NAME    .UNIT     VALUE                         : DESCRIPTION
#_______________________________________________________________________________
SET                .         ESS94_resample                : 
TLFamily_CALI      .         Caliper                       : 
TLFamily_DEPT      .         Measured Depth                : 
TLFamily_DT        .         Compressional Slowness        : 
TLFamily_DTS       .         Shear Slowness                : 
TLFamily_GR        .         Gamma Ray                     : 
TLFamily_INPEFA_1  .                                       : 
TLFamily_INPEFA_2  .                                       : 
TLFamily_INPEFA_3  .                                       : 
TLFamily_INPEFA_4  .                                       : 
TLFamily_LITO      .                                       : 
TLFamily_NPHI      .         Neutron Porosity              : 
TLFamily_OG        .                                       : 
TLFamily_RESD      .         Deep Resistivity              : 
TLFamily_RESM      .         Medium Resistivity            : 
TLFamily_RESS      .         Shallow Resistivity           : 
TLFamily_RHOB      .         Bulk Density                  : 
TLFamily_SP        .         Spontaneous Potential         : 
TLFamily_TVD       .         True Vertical Depth           : 
~Curve Information
#_______________________________________________________________________________
#
#LOGNAME           .UNIT     LOG_ID                        : DESCRIPTION
#_______________________________________________________________________________
DEPT               .m                                      :  
CALI               .in                                     :  
DT                 .us/ft                                  :  
DTS                .us/ft                                  :  
GR                 .Sem                                    : GAMMA RAY 
INPEFA_1           .                                       :  
INPEFA_2           .                                       :  
INPEFA_3           .                                       :  
INPEFA_4           .                                       :  
LITO               .Sem                                    : Não definido 
NPHI               .Sem                                    : THERMAL NEUTRON POROSITY (ORIGINAL RATIO METHOD) IN SELECTED LITHOLOGY 
OG                 .                                       :  
RESD               .ohm.m                                  :  
RESM               .ohm.m                                  :  
RESS               .ohm.m                                  :  
RHOB               .g/cm3                                  :  
SP                 .mV                                     : SPONTANEOUS POTENTIAL 
TVD                .m                                      : Vertical Depth 
~Ascii
# ...
4825.8892  8.194983   75.63431   136.1966   97.46415   0.2842036  0.2351356  0.2138782  0.07491576 49         21.82288477739925 97.46415   0.4040047  0.4853967  0.572307   2.356663   3.8649346456697 4825.6084 
4826.0892  8.194292   78.53772   142.276    97.18058   0.3057874  0.2788357  0.3347256  0.344506   49         22.19410137366673 97.18058   0.3338798  0.4015757  0.4969579  2.301074   2.129832808390772 4825.808400000001
4826.2892  8.194798   81.16925   144.5284   94.46108   0.3046895  0.2955142  0.4172221  0.6223636  49         21.60096150496007 94.46108   0.3098718  0.3756075  0.4754024  2.289187   1.473081627293461 4826.0084 
4826.4892  8.193579   81.51446   147.8236   94.56445   0.2575905  0.237192   0.3371321  0.5855262  49         20.11373326159199 94.56445   0.3095732  0.3768673  0.4762312  2.300862   6.088749606289111 4826.2084 
4826.689200000001 8.195588   81.54467   150.1861   92.85818   0.2084157  0.1669896  0.2128968  0.4003741  49         19.63033449368158 92.85818   0.3203791  0.3874167  0.4830865  2.311529   9.983983727036463 4826.4084 
4826.8892  8.193053   80.99347   150.7307   91.81451   0.2035672  0.1610446  0.212603   0.4212435  49         19.36733001048254 91.81451   0.3349319  0.4000719  0.4875129  2.319917   10.22467874016089 4826.608399999999
4827.0892  8.175508   80.45239   148.9626   91.48367   0.2232155  0.2002131  0.3220067  0.7201539  49         18.61680484381122 91.48367   0.3501638  0.4116108  0.491237   2.329468   8.631141732281266 4826.8084 
4827.2892  8.172785   80.39617   148.7132   94.8396    0.16741    0.1212476  0.1809961  0.5344017  49         18.4038485479475 94.8396    0.3625983  0.4209015  0.4924265  2.335677   8.661410236221924 4827.0084 
4827.4892  8.178591   80.29207   148.4196   96.64977   0.1448763  0.08839203 0.1237365  0.4733152  49         17.84210695181618 96.64977   0.3783406  0.4346917  0.4971127  2.34033    11.20121968503971 4827.2084 
4827.689200000001 8.1921     79.92789   146.6577   99.34964   0.1082754  0.030344   0.004552693 0.2599605  49         18.4125002763448 99.34964   0.4243298  0.4872527  0.5468087  2.347432   13.24245118110684 4827.408400000001
4827.8892  8.228998   79.58215   147.8835   101.3884   0.0912858  -0.004257868 -0.08308481 0.0387031  49         20.03737231377186 101.3884   0.5358185  0.6214811  0.6965891  2.379807   12.67163307086883 4827.6084 
4828.0892  8.251216   79.32785   153.8576   105.0145   0.1341924  0.05711481 0.03575215 0.2328915  49         20.16063674666201 105.0145   0.6385208  0.7472127  0.8122029  2.429476   9.296218372687985 4827.808400000001
4828.2892  8.227892   79.25601   148.91     104.1341   0.1369049  0.06271423 0.05023141 0.271648   49         19.5229383453597 104.1341   0.6203185  0.7112398  0.7339485  2.436151   4.1875842519556 4828.00833464567
4828.4892  8.208054   79.80322   138.2971   101.395    0.1243958  0.04502583 0.0160697  0.2214426  49         19.54005862659083 101.395    0.5611661  0.6198944  0.6173225  2.392055   1.303373228342376 4828.2083 
4828.689200000001 8.215859   81.60416   154.9463   95.36861   0.1115395  0.01907416 -0.05261989 0.04642853 49         19.93823667711492 95.36861   0.5223591  0.5783776  0.5727054  2.355897   1.478228346461971 4828.4083 
4828.8892  8.249047   82.74249   183.0661   91.93898   0.1422946  0.06403605 0.03292602 0.1862688  49         18.66037679658317 91.93898   0.556863   0.6290195  0.621283   2.360444   6.570551181077482 4828.608299999999
4829.0892  8.254478   81.20625   184.8924   89.91322   0.1569291  0.08963088 0.0898922  0.3237208  58         15.74780637385548 89.91322   0.7007491  0.8369526  0.8074202  2.402683   13.45638215223345 4828.8083 
4829.2892  8.263543   76.67993   175.9791   93.64653   0.1595628  0.09549487 0.1044944  0.3904636  58         18.92577198859522 93.64653   0.8813437  1.092589   1.020588   2.459105   18.78807585301786 4829.0083 
4829.4892  8.231978   74.97901   176.4725   108.8845   0.1492592  0.08279001 0.08280242 0.4065709  58         21.53900792279505 108.8845   1.041558   1.323188   1.161703   2.483374   20.39607637795298 4829.2083 
4829.689200000001 8.219984   74.5131    177.1397   127.9031   0.1230009  0.03941885 -0.01555438 0.2325958  58         21.67471843128627 127.9031   1.289272   1.649389   1.311162   2.486928   18.131441207338 4829.408300000001
4829.8892  8.27595    75.51969   218.7445   134.8497   0.1303552  0.04744439 -0.009466006 0.2485808  58         20.97032491929372 134.8497   1.634387   2.099654   1.519311   2.501317   13.32180708662042 4829.6083 
4830.0892  8.293722   76.47945   363.9366   128.2999   0.1536817  0.08263066 0.05953959 0.4137631  58         21.15053200909834 128.2999   1.675818   2.140522   1.503235   2.529402   10.23042440944356 4829.808300000001
4830.2892  8.288309   76.25639   415.0752   130.9383   0.1483031  0.07586887 0.04568841 0.4418459  58         22.35331689028755 130.9383   1.525749   1.93157    1.353299   2.545726   8.200896850390679 4830.0083 
4830.4892  8.199682   75.81892   409.4562   138.151    0.1440951  0.07117789 0.03687561 0.4892701  58         20.55718878998671 138.151    1.381156   1.715144   1.217919   2.533839   8.717760104989933 4830.2083 
4830.689200000001 8.207251   76.16317   393.5613   144.4079   0.1229034  0.03555489 -0.04684458 0.361232   58         19.49509323300311 144.4079   1.261124   1.601744   1.235513   2.504447   11.60677086615922 4830.408300000001
4830.8892  8.213264   76.74744   372.9243   144.4168   0.1216321  0.03084008 -0.06719371 0.3498742  58         19.42763640936904 144.4168   1.217172   1.593996   1.276322   2.486789   14.60536614173248 4830.608228608924
4831.0892  8.211413   76.54443   244.6872   130.1202   0.1093798  0.007864194 -0.1290245 0.2478208  58         17.70855672340762 130.1202   1.226021   1.636133   1.269667   2.487115   15.44625538057752 4830.8082 
4831.2892  8.219789   76.15044   130.653    117.4753   0.1118933  0.005875506 -0.1513611 0.202277   58         16.59888845729082 117.4753   1.352841   1.850954   1.379513   2.503608   15.50002677165275 4831.0082 
4831.4892  8.241969   75.90129   130.8427   116.1345   0.1094572  -0.002337583 -0.1851024 0.1364251  58         17.24873449170161 116.1345   1.519616   2.152338   1.512909   2.524001   16.45252230970957 4831.2082 
4831.689200000001 8.211983   75.77169   129.8974   119.817    0.1245954  0.01707915 -0.1593699 0.1908022  58         19.0823899617082 119.817    1.536519   2.155036   1.498405   2.533368   17.67201994750967 4831.408200000001
4831.8892  8.209997   76.16689   128.0381   115.4666   0.1369317  0.03530046 -0.1289303 0.2829963  58         19.49669726815204 115.4666   1.45409    1.940381   1.382592   2.52446    14.8007133858404 4831.6082 
4832.0892  8.211683   77.059     137.1194   108.7807   0.1283592  0.02284114 -0.1586193 0.2750746  58         18.52810798604928 108.7807   1.42397    1.858164   1.322438   2.500888   10.55092020996948 4831.8082 
4832.2892  8.217844   77.08208   130.2523   106.3581   0.09483907 -0.03332926 -0.2915007 0.0209369  58         20.88130463828246 106.3581   1.421509   1.850317   1.31613    2.482207   8.970509448818122 4832.0082 
4832.4892  8.301376   78.23073   140.035    110.6703   0.09781098 -0.03544008 -0.3180566 -0.05907182 58         25.29544917429642 110.6703   1.428355   1.788291   1.303622   2.499083   11.22058425196957 4832.2082 
4832.689200000001 8.330564   79.741     141.1622   118.839    0.09750494 -0.04380275 -0.3609786 -0.1909258 58         26.85169647496481 118.839    1.453546   1.804113   1.361527   2.531734   13.92932440945667 4832.408200000001
4832.8892  8.313418   79.13307   142.5776   120.9941   0.1202431  -0.01293617 -0.3149706 -0.1296173 58         24.95377482517031 120.9941   1.503084   1.895365   1.43158    2.540477   14.47526640419961 4832.6082 
4833.0892  8.236575   79.29404   135.6355   114.3007   0.09112005 -0.06530892 -0.4501461 -0.4482117 58         23.10042366267662 114.3007   1.542309   1.92087    1.404169   2.517222   15.98889527559424 4832.8082 
4833.2892  8.205894   78.84541   131.3609   110.8466   0.1107625  -0.04496401 -0.4393642 -0.5132542 58         21.76245550220401 110.8466   1.466222   1.761105   1.317069   2.475448   17.20940236220849 4833.0082 
