~Version
 VERS              .         2.0                           : CWLS LOG ASCII STANDARD - VERSION 2.0
 WRAP              .         NO                            : ONE LINE PER DEPTH STEP
 DLM               .         SPACE                         : DELIMITING CHARACTER(SPACE TAB OR COMMA)
~Well Information
#_______________________________________________________________________________
#
#PARAMETER_NAME    .UNIT     VALUE                         : DESCRIPTION
#_______________________________________________________________________________
STRT               .m        1880.5999                     : First reference value
STOP               .m        5405.7999                     : Last reference value
STEP               .m        0.2                           : Step increment
NULL               .         -9999                         : Missing value
COMP               .         PETROLEO BRASILEIRO S/A       : Company
WELL               .         1-ESS-86A_resample            : Well name
FLD                .                                       : Field
LOC                .                                       : Location
CNTY               .                                       : County
STAT               .         ESPIRITO SANTO                : State
CTRY               .                                       : Country
SRVC               .                                       : Service Company
DATE               .                                       : Date
API                .         342710051600                  : API number
EDF                .M        14.00                         : Elevation Derrick Floor
GDAT               .         SIRGAS2000                    : Geodetic Datum
HZCS               .         UTM                           : Horizontal Coordinate System
LMF                .         MR                            : Log Measure From
LATI               .         -20_24_56.411                 : Latitude
LONG               .         -39_29_19.989                 : Longitude
MC                 .         39 W                          : Meridiano Central
ORIG               .         SIGEO EXPORTACAO PERFIL       : Origem dos dados
ORIGINALWELLNAME   .         1ESS 0086A ES                 : 
WDMS               .M        1841.00                       : Water Depth to Mean Sea Level
X                  .         448953.89                     : Surface X
Y                  .         7742410.09                    : Surface Y
~Parameter Information Block
#_______________________________________________________________________________
#
#PARAMETER_NAME    .UNIT     VALUE                         : DESCRIPTION
#_______________________________________________________________________________
SET                .         ESS86A_resample               : 
TLFamily_CALI      .         Caliper                       : 
TLFamily_DEPT      .         Measured Depth                : 
TLFamily_DT        .         Compressional Slowness        : 
TLFamily_GR        .         Gamma Ray                     : 
TLFamily_HDRS      .         Deep Resistivity              : 
TLFamily_INPEFA_1  .                                       : 
TLFamily_INPEFA_2  .                                       : 
TLFamily_INPEFA_3  .                                       : 
TLFamily_INPEFA_4  .                                       : 
TLFamily_LITO      .                                       : 
TLFamily_NPHI      .         Neutron Porosity              : 
TLFamily_RHOB      .         Bulk Density                  : 
~Curve Information
#_______________________________________________________________________________
#
#LOGNAME           .UNIT     LOG_ID                        : DESCRIPTION
#_______________________________________________________________________________
DEPT               .m                                      :  
CALI               .in                                     : CALIPER 1 CYLINDERDIAMETER 
DT                 .us/ft                                  : DELTA-T (ALSO CALLED SLOWNESS OR INTERVAL TRANSIT TIME) 
GR                 .gAPI                                   : GAMMA RAY 
HDRS               .ohm.m                                  : INDUCTION DEEP RESISTIVITY 
INPEFA_1           .                                       :  
INPEFA_2           .                                       :  
INPEFA_3           .                                       :  
INPEFA_4           .                                       :  
LITO               .                                       :  
NPHI               .%                                      : THERMAL NEUTRON POROSITY (ORIGINAL RATIO METHOD) IN SELECTED LITHOLOGY 
RHOB               .g/cm3                                  : BULK DENSITY 
~Ascii
# ...
3972.1999  13.5431    88.4796    97.5985    1.529299999999887 0.1553907  -0.09787331 -0.1879019 -0.2658203 49         17.6412    2.4045    
3972.3999  13.4862    89.9133    93.0603    1.549099999999951 0.1677243  -0.07285885 -0.150105  -0.2254356 49         17.5162    2.4183    
3972.5999  13.478     90.9135    98.9226    1.4945     0.172394   -0.0614692 -0.1320635 -0.210041  49         18.5741    2.4174    
3972.7999  13.4538    90.5153    105.6066   1.4614     0.1649499  -0.0745009 -0.1548232 -0.2682067 49         18.6092    2.4232    
3972.9999  13.47      90.0561    105.6096   1.4952     0.15629    -0.09447074 -0.1965993 -0.3868645 49         17.1725    2.4166    
3973.1999  13.4781    90.4643    106.7583   1.538499999999953 0.1595567  -0.0899343 -0.1976241 -0.4372335 49         17.5183    2.4168    
3973.3999  13.4781    90.3367    108.6798   1.517999999999807 0.1849577  -0.03999721 -0.121617  -0.3465674 49         19.5745    2.431     
3973.5999  13.4294    90.383     110.9435   1.4391     0.1998696  -0.005071837 -0.06117452 -0.2536373 49         19.7181    2.4348    
3973.7999  13.4456    91.0459    109.1333   1.4092     0.2177262  0.03623348 0.01168632 -0.1276626 49         19.0449    2.4447    
3973.9999  13.4781    91.1684    102.259    1.4253     0.1877136  -0.0192562 -0.07734779 -0.2911598 49         19.3403    2.4461    
3974.1999  13.4294    91.0051    101.334    1.451399999999958 0.1871383  -0.02324245 -0.09247087 -0.3606714 57         20.6816    2.4537    
3974.3999  13.4294    90.9949    109.2795   1.466500000000014 0.1923248  -0.0120608 -0.07788651 -0.3674749 57         20.151     2.4746    
3974.5999  13.4538    90.8009    114.7423   1.466      0.2025877  0.008804033 -0.04760985 -0.3468848 57         19.1022    2.4614    
3974.7999  13.4538    90.6939    114.0743   1.4514     0.218172   0.04602662 0.01904396 -0.229733  57         19.9215    2.4625    
3974.9999  13.405     91.2806    106.5495   1.4266     0.2194707  0.05243464 0.03224451 -0.2093225 57         20.6136    2.4589    
3975.1999  13.4375    91.5357    98.9262    1.433799999999949 0.193424   -0.001160203 -0.06265448 -0.4096706 49         20.3854    2.4577    
3975.3999  13.47      90.4745    94.221     1.471200000000064 0.217058   0.0466038  0.01297062 -0.3025762 49         20.1782    2.4432    
3975.5999  13.4863    88.7697    92.8082    1.4876     0.2179652  0.05124808 0.02091568 -0.3029469 49         18.8476    2.4387    
3975.7999  13.4781    88.5       95.6382    1.5287     0.2437863  0.1089988  0.1229036  -0.1132453 49         16.3622    2.4399    
3975.9999  13.4538    89.8163    100.4479   1.5728     0.2400918  0.107661   0.1274108  -0.0914206 49         16.469     2.4503    
3976.1999  13.4944    90.2602    103.5598   1.514500000000217 0.2461698  0.1261942  0.1658067  -0.003188174 57         19.6136    2.4631    
3976.3999  13.4781    90.1582    98.7711    1.422999999999797 0.2283438  0.09452698 0.1177847  -0.07518116 57         21.0604    2.4427    
3976.5999  13.4537    90.3214    91.7073    1.3731     0.2214128  0.08104252 0.09426586 -0.1217075 57         19.3544    2.4311    
3976.7999  13.4213    90.2908    84.5688    1.3893     0.213951   0.06790006 0.07268783 -0.1637599 57         17.5465    2.4268    
3976.9999  13.4213    90.7704    91.1896    1.4343     0.211481   0.06356598 0.06380054 -0.1904155 57         17.0764    2.4409    
3977.1999  13.4375    91.6429    98.4488    1.467299999999978 0.2081638  0.05541419 0.04507218 -0.2475334 57         17.5651    2.459     
3977.3999  13.4294    91.7857    103.7329   1.464999999999978 0.2109593  0.0621243  0.05439712 -0.2478638 57         19.3819    2.4559    
3977.5999  13.4378    91.0555    101.2364   1.4523     0.2174992  0.07842579 0.0829535  -0.2043603 57         19.928     2.454     
3977.7999  13.4781    90.1173    94.045     1.4458     0.2172838  0.07889549 0.08181971 -0.2247581 57         19.1557    2.4568    
3977.9999  13.4456    89.4541    91.3985    1.4611     0.232308   0.1125948  0.1397436  -0.1292177 57         17.9385    2.4681    
3978.1999  13.47      89.5561    96.584     1.483299999999956 0.2226741  0.0978873  0.1191281  -0.1668676 57         16.4819    2.4745    
3978.3999  13.4862    90.5765    97.2733    1.509900000000113 0.2224477  0.09901252 0.1204204  -0.1792091 57         16.8267    2.4759    
3978.5999  13.4376    91.5105    98.0902    1.5365     0.2305343  0.1183272  0.1536635  -0.132267  57         18.9385    2.4831    
3978.7999  13.47      91.3673    90.8703    1.5253     0.2327447  0.1277398  0.1730389  -0.1038949 57         18.1875    2.4789    
3978.9999  13.5106    90.7347    88.3014    1.505      0.2505564  0.1715484  0.2550898  0.05661701 57         17.7483    2.475     
3979.1999  13.5187    90.7704    89.0235    1.473000000000076 0.2371744  0.1495065  0.2229419  0.000498053 57         18.7272    2.4658    
3979.3999  13.535     91.2296    95.8829    1.442199999999958 0.2497395  0.1808538  0.281243   0.1101014  57         19.6183    2.4554    
3979.5999  13.5594    92.3377    102.4244   1.4323     0.2399072  0.1656258  0.2597156  0.07041162 57         19.5033    2.47      
3979.7999  13.5999    93.7704    106.6897   1.4404     0.2518741  0.1954719  0.31539    0.1769233  57         17.907     2.4794    
3979.9999  13.5593    94.3316    107.1522   1.451      0.2520339  0.2023547  0.3343318  0.2246046  57         18.9269    2.4811    
3980.1999  13.5431    94.0816    104.6966   1.44650000000004 0.2394447  0.1809763  0.3017312  0.1644163  57         19.1589    2.4761    
3980.3999  13.5269    94.0612    101.7846   1.409999999999891 0.2524291  0.2117899  0.3568984  0.2625256  57         19.1503    2.4668    
3980.5999  13.4944    93.5044    98.2816    1.4003     0.2576527  0.2288525  0.3921255  0.3355597  57         19.7179    2.4667    
3980.7999  13.4944    92.3673    96.3066    1.4238     0.2670282  0.2556713  0.4466561  0.4574365  57         19.6426    2.4611    
3980.9999  13.4862    91.6429    92.9559    1.4499     0.279433   0.2892355  0.5144288  0.6154295  57         20.4538    2.4569    
3981.1999  13.4944    90.6275    94.5641    1.50839999999988 0.2678784  0.2763123  0.5078933  0.6550038  57         19.6912    2.454     
3981.3999  13.4456    89.7398    95.8978    1.563600000000105 0.2609569  0.2729831  0.5185772  0.7350449  57         18.7026    2.4624    
3981.5999  13.4131    89.7706    96.2402    1.5816     0.2267324  0.2076661  0.4150598  0.5782474  57         19.7673    2.4744    
3981.7999  13.4213    90.1684    96.1634    1.5771     0.2118469  0.1800408  0.3713286  0.5157725  57         19.2066    2.4931    
3981.9999  13.4131    90.6633    92.2816    1.5605     0.218314   0.1960273  0.4014509  0.5909182  57         17.8157    2.4827    
3982.1999  13.4538    90.9541    94.0032    1.513200000000116 0.1939484  0.1479435  0.3215976  0.4599202  57         18.7892    2.4745    
3982.3999  13.4862    90.7194    93.7615    1.488099999999978 0.1853677  0.1312127  0.2926413  0.4137107  57         18.816     2.4579    
3982.5999  13.4457    90.3724    96.7709    1.4851     0.1731421  0.1045277  0.242326   0.3113394  57         17.8065    2.4584    
3982.7999  13.5106    90.6071    96.4229    1.4816     0.1803998  0.1176329  0.2588775  0.3288713  57         18.9718    2.4576    
3982.9999  13.5187    90.8418    96.3603    1.4789     0.1970599  0.1547413  0.3237822  0.4628176  57         18.904     2.4696    
3983.1999  13.4944    90.4949    98.792     1.466200000000031 0.1885409  0.1398615  0.3008182  0.4406513  57         18.2394    2.474     
3983.3999  13.5106    90.3367    97.3896    1.446199999999976 0.1764711  0.1147705  0.2560058  0.364741   57         19.1146    2.4689    
3983.5999  13.4944    90.3519    96.3209    1.4342     0.1969124  0.1592009  0.3334776  0.5298074  57         19.0763    2.4638    
3983.7999  13.5187    90.2092    92.7441    1.4095     0.1888326  0.1476546  0.3206921  0.5483365  57         18.9879    2.4506    
3983.9999  13.4944    90.9031    89.7067    1.3881     0.1829702  0.1396472  0.3129488  0.5778695  57         19.9059    2.4483    
