~Version
 VERS              .         2.0                           : CWLS LOG ASCII STANDARD - VERSION 2.0
 WRAP              .         NO                            : ONE LINE PER DEPTH STEP
 DLM               .         SPACE                         : DELIMITING CHARACTER(SPACE TAB OR COMMA)
~Well Information
#_______________________________________________________________________________
#
#PARAMETER_NAME    .UNIT     VALUE                         : DESCRIPTION
#_______________________________________________________________________________
STRT               .m        2119.8892                     : First reference value
STOP               .m        5043.2892                     : Last reference value
STEP               .m        0.2                           : Step increment
NULL               .         -9999                         : Missing value
COMP               .         PETROLEO BRASILEIRO S/A       : Company
WELL               .         1ESS 0094  ES                 : Well name
FLD                .                                       : Field
LOC                .                                       : Location
CNTY               .                                       : County
STAT               .         ESPIRITO SANTO                : State
CTRY               .                                       : Country
SRVC               .                                       : Service Company
DATE               .                                       : Date
API                .         342710052700                  : API number
EDF                .M        25.00                         : Elevation Derrick Floor
GDAT               .         SIRGAS2000                    : Geodetic Datum
HZCS               .         UTM                           : Horizontal Coordinate System
LAT                .         -20.952076                    : Latitude
LONG               .         -39.451195                    : Longitude
MC                 .         39 W                          : Meridiano Central
ORIG               .         SIGEO EXPORTACAO PERFIL       : Origem dos dados
WDMS               .M        2081.00                       : Water Depth to Mean Sea Level
XCOORD             .         453092.70                     : Surface X
YCOORD             .         7683090.10                    : Surface Y
~Parameter Information Block
#_______________________________________________________________________________
#
#PARAMETER_NAME    .UNIT     VALUE                         : DESCRIPTION
#_______________________________________________________________________________
SET                .         ESS94_resample                : 
TLFamily_CALI      .         Caliper                       : 
TLFamily_DEPT      .         Measured Depth                : 
TLFamily_DT        .         Compressional Slowness        : 
TLFamily_DTS       .         Shear Slowness                : 
TLFamily_GR        .         Gamma Ray                     : 
TLFamily_INPEFA_1  .                                       : 
TLFamily_INPEFA_2  .                                       : 
TLFamily_INPEFA_3  .                                       : 
TLFamily_INPEFA_4  .                                       : 
TLFamily_LITO      .                                       : 
TLFamily_NPHI      .         Neutron Porosity              : 
TLFamily_OG        .                                       : 
TLFamily_RESD      .         Deep Resistivity              : 
TLFamily_RESM      .         Medium Resistivity            : 
TLFamily_RESS      .         Shallow Resistivity           : 
TLFamily_RHOB      .         Bulk Density                  : 
TLFamily_SP        .         Spontaneous Potential         : 
TLFamily_TVD       .         True Vertical Depth           : 
~Curve Information
#_______________________________________________________________________________
#
#LOGNAME           .UNIT     LOG_ID                        : DESCRIPTION
#_______________________________________________________________________________
DEPT               .m                                      :  
CALI               .in                                     :  
DT                 .us/ft                                  :  
DTS                .us/ft                                  :  
GR                 .Sem                                    : GAMMA RAY 
INPEFA_1           .                                       :  
INPEFA_2           .                                       :  
INPEFA_3           .                                       :  
INPEFA_4           .                                       :  
LITO               .Sem                                    : Não definido 
NPHI               .Sem                                    : THERMAL NEUTRON POROSITY (ORIGINAL RATIO METHOD) IN SELECTED LITHOLOGY 
OG                 .                                       :  
RESD               .ohm.m                                  :  
RESM               .ohm.m                                  :  
RESS               .ohm.m                                  :  
RHOB               .g/cm3                                  :  
SP                 .mV                                     : SPONTANEOUS POTENTIAL 
TVD                .m                                      : Vertical Depth 
~Ascii
# ...
2944.6892  -9999      131.2365   -9999      14.0594    0.04272063 0.07333474 -0.05520106 0.2107021  49         -9999      14.0594    0.5494087  0.838822   0.577135   -9999      -9999      2944.5051 
2944.8892  -9999      129.0439   -9999      21.35898   0.08473167 0.1370296  0.07329674 0.485443   49         -9999      21.35898   0.5625353  0.9080693  0.6249617  -9999      -9999      2944.7051 
2945.0892  -9999      131.2502   -9999      29.39014   0.05462163 0.09514847 -0.007726776 0.3909525  49         -9999      29.39014   0.531707   0.7738744  0.5471676  -9999      -9999      2944.905030183727
2945.2892  -9999      132.4668   -9999      31.73353   0.05717135 0.1006078  0.004926405 0.4615127  49         -9999      31.73353   0.4899868  0.6430205  0.4475319  -9999      -9999      2945.105  
2945.4892  -9999      132.0842   -9999      28.7662    0.02398639 0.04726554 -0.1141253 0.2399537  49         -9999      28.7662    0.4671464  0.5887427  0.3845157  -9999      -9999      2945.305  
2945.6892  -9999      132.8579   -9999      23.92805   0.04021139 0.07056748 -0.07338247 0.3190946  49         -9999      23.92805   0.4584375  0.5489866  0.3542978  -9999      -9999      2945.505  
2945.8892  -9999      132.9087   -9999      19.93445   0.02954818 0.05494735 -0.1084641 0.2678987  49         -9999      19.93445   0.4637353  0.5184121  0.3847618  -9999      -9999      2945.705  
2946.0892  -9999      132.8208   -9999      21.35634   0.002248161 0.008765536 -0.218956  0.01906979 49         -9999      21.35634   0.4888932  0.5217209  0.4231982  -9999      -9999      2945.904466141733
2946.2892  -9999      133.5988   -9999      25.30618   0.01042888 0.01495965 -0.2267128 -0.06874751 49         -9999      25.30618   0.5484148  0.5942127  0.4667074  -9999      -9999      2946.10328503937
2946.4892  -9999      133.7934   -9999      28.39467   0.02811713 0.03957477 -0.1890039 -0.05357936 49         -9999      28.39467   0.603339   0.6482748  0.5228923  -9999      -9999      2946.302103937007
2946.6892  -9999      133.7592   -9999      28.92984   0.03621463 0.05158452 -0.1724264 -0.06602876 49         -9999      28.92984   0.6330056  0.6959555  0.6077237  -9999      -9999      2946.501022834646
2946.8892  -9999      132.5345   -9999      28.70998   0.02325579 0.02879383 -0.2341668 -0.2562195 49         -9999      28.70998   0.6506984  0.7645382  0.6637602  -9999      -9999      2946.699841732283
2947.0892  -9999      130.7981   -9999      31.64221   0.03255137 0.03820317 -0.2336938 -0.3557858 49         -9999      31.64221   0.6733699  0.8179744  0.6387923  -9999      -9999      2946.899235695538
2947.2892  -9999      132.1129   -9999      39.40324   0.05005037 0.06256741 -0.1973998 -0.3815806 49         -9999      39.40324   0.687966   0.8503944  0.5848871  -9999      -9999      2947.0992 
2947.4892  -9999      135.6257   -9999      44.65953   0.08941216 0.1254082  -0.06916683 -0.188444  49         -9999      44.65953   0.6835189  0.7616126  0.5951756  -9999      -9999      2947.2992 
2947.6892  -9999      136.689    -9999      49.10415   0.06489217 0.08863518 -0.1506767 -0.411097  49         -9999      49.10415   0.6739357  0.652516   0.6133112  -9999      -9999      2947.499124146982
2947.8892  -9999      135.9169   -9999      41.07154   0.09252798 0.130868   -0.06976046 -0.3351102 49         -9999      41.07154   0.6766358  0.5194349  0.640622   -9999      -9999      2947.6991 
2948.0892  -9999      135.9039   -9999      38.34562   0.1081591  0.1594419  -0.005967236 -0.2523203 49         -9999      38.34562   0.6836234  0.4763561  0.6191248  -9999      -9999      2947.899100000001
2948.2892  -9999      134.2      -9999      39.08946   0.107025   0.1608977  -0.000143745 -0.2836557 49         -9999      39.08946   0.6782049  0.5685816  0.598132   -9999      -9999      2948.0991 
2948.4892  -9999      132.3909   -9999      44.07785   0.1068522  0.1616956  0.00023592 -0.3406285 49         -9999      44.07785   0.6622384  0.6775833  0.8018321  -9999      -9999      2948.2991 
2948.6892  -9999      133.1699   -9999      43.35536   0.1123025  0.1713624  0.02003291 -0.3617611 49         -9999      43.35536   0.6819254  0.8526638  1.168089   -9999      -9999      2948.4991 
2948.8892  -9999      135.8263   -9999      41.83922   0.1219601  0.1891488  0.06143335 -0.328587  49         -9999      41.83922   0.7472748  1.206068   1.593627   -9999      -9999      2948.6991 
2949.0892  -9999      133.57     -9999      45.25289   0.1255215  0.1979435  0.08619801 -0.323689  6          -9999      45.25289   0.8062494  1.701003   1.77376    -9999      -9999      2948.899005511812
2949.2892  -9999      129.3336   -9999      44.44456   0.135011   0.2171968  0.1366884  -0.2587366 6          -9999      44.44456   0.9107522  2.048989   2.274477   -9999      -9999      2949.099  
2949.4892  -9999      129.8817   -9999      37.61996   0.1447172  0.2378862  0.1940386  -0.1650968 6          -9999      37.61996   1.008056   2.378516   3.866289   -9999      -9999      2949.299  
2949.6892  -9999      132.9081   -9999      31.03406   0.1402286  0.2359395  0.2034875  -0.1649916 6          -9999      31.03406   1.066303   2.812853   9.419936   -9999      -9999      2949.499  
2949.8892  -9999      129.7713   -9999      31.12068   0.1469978  0.2511987  0.2494167  -0.09096288 6          -9999      31.12068   1.059861   3.733514   11.50635   -9999      -9999      2949.699000000001
2950.0892  -9999      120.8839   -9999      31.09552   0.1587011  0.2767459  0.3244016  0.0721209  6          -9999      31.09552   1.053348   4.2823     7.142201   -9999      -9999      2949.899  
2950.2892  -9999      111.9426   -9999      27.4949    0.153336   0.275332   0.343816   0.1374079  6          -9999      27.4949    1.047792   4.071827   1.30428    -9999      -9999      2950.099  
2950.4892  -9999      107.4765   -9999      18.67206   0.1566831  0.2890663  0.3998924  0.2967536  6          -9999      18.67206   1.027878   3.229199   1.500991   -9999      -9999      2950.2989 
2950.6892  -9999      105.1828   -9999      19.61722   0.136386   0.2645748  0.3736724  0.2985869  6          -9999      19.61722   0.9942762  3.070538   1.896196   -9999      -9999      2950.498900000001
2950.8892  -9999      103.7005   -9999      20.05474   0.1182278  0.2400863  0.3410025  0.2646036  6          -9999      20.05474   0.8947815  3.203601   1.66399    -9999      -9999      2950.6989 
2951.0892  -9999      102.1756   -9999      18.22936   0.106155   0.2241391  0.324105   0.2555656  6          -9999      18.22936   0.7024209  2.244596   0.8701313  -9999      -9999      2950.898900000001
2951.2892  -9999      99.89046   -9999      19.05783   0.1044825  0.2242776  0.3422632  0.3148555  6          -9999      19.05783   0.5740714  1.351312   0.5106065  -9999      -9999      2951.0989 
2951.4892  -9999      98.36864   -9999      21.67454   0.08580609 0.1987553  0.3075822  0.270011   6          -9999      21.67454   0.5850055  1.436966   0.5403074  -9999      -9999      2951.2989 
2951.6892  -9999      101.2839   -9999      23.21681   0.08413704 0.1989315  0.3259367  0.3219467  6          -9999      23.21681   0.6534645  1.388595   0.6099407  -9999      -9999      2951.498899475066
2951.8892  -9999      104.7112   -9999      22.57689   0.07010025 0.1792272  0.3009014  0.2830436  6          -9999      22.57689   0.6813731  1.062955   0.5998769  -9999      -9999      2951.6988 
2952.0892  -9999      106.5716   -9999      22.54592   0.05733136 0.1603293  0.2746555  0.2271564  57         -9999      22.54592   0.6573889  0.7604106  0.542281   -9999      -9999      2951.8988 
2952.2892  -9999      107.4977   -9999      22.22406   0.04367974 0.1393806  0.2423991  0.1438206  57         -9999      22.22406   0.6312425  0.6140562  0.5014179  -9999      -9999      2952.0988 
2952.4892  -9999      104.1814   -9999      21.6834    0.05087342 0.1511376  0.2795116  0.194626   57         -9999      21.6834    0.6140207  0.554258   0.4313047  -9999      -9999      2952.2988 
