~Version
 VERS              .         2.0                           : CWLS LOG ASCII STANDARD - VERSION 2.0
 WRAP              .         NO                            : ONE LINE PER DEPTH STEP
 DLM               .         SPACE                         : DELIMITING CHARACTER(SPACE TAB OR COMMA)
~Well Information
#_______________________________________________________________________________
#
#PARAMETER_NAME    .UNIT     VALUE                         : DESCRIPTION
#_______________________________________________________________________________
STRT               .m        1880.5999                     : First reference value
STOP               .m        5405.7999                     : Last reference value
STEP               .m        0.2                           : Step increment
NULL               .         -9999                         : Missing value
COMP               .         PETROLEO BRASILEIRO S/A       : Company
WELL               .         1-ESS-86A_resample            : Well name
FLD                .                                       : Field
LOC                .                                       : Location
CNTY               .                                       : County
STAT               .         ESPIRITO SANTO                : State
CTRY               .                                       : Country
SRVC               .                                       : Service Company
DATE               .                                       : Date
API                .         342710051600                  : API number
EDF                .M        14.00                         : Elevation Derrick Floor
GDAT               .         SIRGAS2000                    : Geodetic Datum
HZCS               .         UTM                           : Horizontal Coordinate System
LMF                .         MR                            : Log Measure From
LATI               .         -20_24_56.411                 : Latitude
LONG               .         -39_29_19.989                 : Longitude
MC                 .         39 W                          : Meridiano Central
ORIG               .         SIGEO EXPORTACAO PERFIL       : Origem dos dados
ORIGINALWELLNAME   .         1ESS 0086A ES                 : 
WDMS               .M        1841.00                       : Water Depth to Mean Sea Level
X                  .         448953.89                     : Surface X
Y                  .         7742410.09                    : Surface Y
~Parameter Information Block
#_______________________________________________________________________________
#
#PARAMETER_NAME    .UNIT     VALUE                         : DESCRIPTION
#_______________________________________________________________________________
SET                .         ESS86A_resample               : 
TLFamily_CALI      .         Caliper                       : 
TLFamily_DEPT      .         Measured Depth                : 
TLFamily_DT        .         Compressional Slowness        : 
TLFamily_GR        .         Gamma Ray                     : 
TLFamily_HDRS      .         Deep Resistivity              : 
TLFamily_INPEFA_1  .                                       : 
TLFamily_INPEFA_2  .                                       : 
TLFamily_INPEFA_3  .                                       : 
TLFamily_INPEFA_4  .                                       : 
TLFamily_LITO      .                                       : 
TLFamily_NPHI      .         Neutron Porosity              : 
TLFamily_RHOB      .         Bulk Density                  : 
~Curve Information
#_______________________________________________________________________________
#
#LOGNAME           .UNIT     LOG_ID                        : DESCRIPTION
#_______________________________________________________________________________
DEPT               .m                                      :  
CALI               .in                                     : CALIPER 1 CYLINDERDIAMETER 
DT                 .us/ft                                  : DELTA-T (ALSO CALLED SLOWNESS OR INTERVAL TRANSIT TIME) 
GR                 .gAPI                                   : GAMMA RAY 
HDRS               .ohm.m                                  : INDUCTION DEEP RESISTIVITY 
INPEFA_1           .                                       :  
INPEFA_2           .                                       :  
INPEFA_3           .                                       :  
INPEFA_4           .                                       :  
LITO               .                                       :  
NPHI               .%                                      : THERMAL NEUTRON POROSITY (ORIGINAL RATIO METHOD) IN SELECTED LITHOLOGY 
RHOB               .g/cm3                                  : BULK DENSITY 
~Ascii
# ...
4441.9999  13.7543    91.7908    107.1969   1.694      -0.1018244 0.01539984 -0.002303277 -0.1391398 57         21.0102    2.5435    
4442.199900000001 13.7543    91.2551    112.7465   1.7476     -0.131414  -0.04717442 -0.1093342 -0.3215499 57         21.7379    2.5275    
4442.3999  13.7218    88.7574    110.9423   1.7367     -0.1220634 -0.04162675 -0.1194955 -0.389468  57         23.139     2.5263    
4442.5999  13.7136    85.4774    99.8447    1.8408     -0.09769633 0.00329878 -0.05142337 -0.2854951 57         20.6394    2.5343    
4442.7999  13.7299    83.5612    90.4577    1.9804     -0.09770225 0.002863852 -0.05205411 -0.2801566 57         19.424     2.5648    
4442.9999  13.7786    83.051     86.3053    2.0086     -0.07894318 0.03632441 -0.001438238 -0.198391  57         19.5858    2.587     
4443.199900000001 13.7137    83         88.0746    1.947199999999716 -0.08149773 0.02716758 -0.02265688 -0.2547297 57         18.7521    2.5887    
4443.3999  13.6565    83.2873    89.0977    1.9025     -0.05640166 0.08038294 0.0705003  -0.07625396 57         20.0138    2.5834    
4443.5999  13.608     84.1281    89.3503    1.8845     -0.03999957 0.117213   0.1390271  0.06916137 57         21.2091    2.5871    
4443.7999  13.6324    84.5765    88.4868    1.8647     -0.05006612 0.09805591 0.1094224  0.02033039 57         20.9925    2.5861    
4443.9999  13.6893    84.7092    85.8488    1.8394     -0.03009497 0.1443467  0.1964847  0.2023553  57         20.9805    2.5691    
4444.199900000001 13.6406    84.9643    84.1034    1.79329999999969 -0.01984961 0.1722828  0.2562048  0.3508466  57         20.546     2.5668    
4444.3999  13.6815    85.436     85.8833    1.7415     -0.01085899 0.1977262  0.3127981  0.5022306  57         20.075     2.5538    
4444.5999  13.6811    86.9457    93.3226    1.7411     -0.0218865 0.1841687  0.3067455  0.551905   57         20.5405    2.5636    
4444.7999  13.6649    89.0408    101.6689   1.7447     -0.03412087 0.1696672  0.3024578  0.6209809  57         20.0887    2.5668    
4444.9999  13.6243    89.7398    108.462    1.6952     -0.07313719 0.0919494  0.1789367  0.4359516  57         21.2549    2.5631    
4445.199900000001 13.6243    88.2194    114.4651   1.605199999999883 -0.09818859 0.04085364 0.09608909 0.3068721  57         22.7374    2.5683    
4445.3999  13.6969    86.1489    110.8099   1.6412     -0.1074305 0.02105387 0.06416319 0.2625068  57         21.8565    2.5628    
4445.5999  13.6649    84.6061    100.8749   1.8258     -0.1029351 0.02184625 0.05536453 0.2211577  57         20.5709    2.5752    
4445.7999  13.6162    83.5969    91.339     2.0227     -0.08796712 0.05306435 0.110564   0.3314641  57         20.0985    2.5801    
4445.9999  13.673     83.1071    82.4236    2.0573     -0.0866411 0.05897077 0.1277765  0.3897484  57         19.1836    2.581     
4446.199900000001 13.6649    83.1837    82.7399    2.038199999999891 -0.08286791 0.06615694 0.1418139  0.4262581  57         18.7987    2.5762    
4446.3999  13.6081    83.5566    80.5295    2.0295     -0.08325997 0.06876707 0.1533276  0.4716186  57         19.2076    2.5773    
4446.5999  13.6405    83.6173    78.114     2.0229     -0.08520026 0.06983298 0.1651283  0.5283332  57         19.5514    2.5753    
4446.7999  13.6649    83.7398    80.5547    2.0005     -0.07952306 0.08459378 0.1981021  0.6222745  57         19.833     2.5724    
4446.9999  13.6568    83.9388    81.1376    1.9718     -0.09350532 0.05850586 0.1609381  0.5853692  57         18.6925    2.567     
4447.199900000001 13.673     83.7704    83.262     1.966000000000182 -0.113196  0.01965559 0.10012    0.4971563  57         18.1876    2.553     
4447.3999  13.6644    83.7199    82.972     1.995      -0.1062422 0.03617564 0.1346129  0.5919877  57         18.7941    2.5545    
4447.5999  13.5757    84.2458    86.7533    2.0062     -0.1483257 -0.05285448 -0.0175806 0.3183405  57         18.9508    2.5461    
4447.7999  13.6081    85.6378    94.9813    2.0236     -0.1537611 -0.06782518 -0.04705927 0.256805   57         20.6147    2.549     
4447.9999  13.6406    87.1173    108.0204   1.9962     -0.158814  -0.08433869 -0.08325934 0.1670355  57         20.6099    2.5513    
4448.199900000001 13.6324    88.2755    118.5229   1.862999999999294 -0.1511912 -0.07704534 -0.08305497 0.1286068  57         21.4351    2.5529    
4448.3999  13.6326    89.3223    121.5647   1.7635     -0.1352228 -0.04606564 -0.03289619 0.2115959  57         23.5533    2.555     
4448.5999  13.6567    88.9223    114.3065   1.7725     -0.1261948 -0.0287909 -0.004242744 0.2638628  57         22.8685    2.5616    
4448.7999  13.6649    86.8061    101.584    1.951      -0.1286857 -0.0346591 -0.01395168 0.2496426  57         21.8309    2.5682    
4448.9999  13.6812    84.1378    92.6814    2.1363     -0.1334467 -0.0465836 -0.03613026 0.2051593  57         20.3277    2.5783    
4449.199900000001 13.6812    82.2959    88.1522    2.236700000000316 -0.1298684 -0.04095568 -0.0284274 0.2133383  57         18.7339    2.5887    
4449.3999  13.6242    81.6425    89.409     2.292      -0.1291141 -0.03910722 -0.02448818 0.221456   57         17.9585    2.5807    
4449.5999  13.7136    81.9137    92.5171    2.307      -0.1153913 -0.009670402 0.02831637 0.3293829  57         17.4099    2.5754    
4449.7999  13.8192    82.5867    94.0745    2.2612     -0.1131666 -0.002729261 0.04515547 0.3814564  57         18.557     2.5623    
4449.9999  13.7299    82.9643    98.2937    2.1643     -0.1262301 -0.02742755 0.007973159 0.3348355  57         19.5637    2.563     
4450.199900000001 13.6324    83.3571    103.6673   2.083899999999723 -0.1429727 -0.06511724 -0.05968113 0.2057605  57         20.5961    2.5707    
4450.3999  13.6976    84.2526    105.7994   2.0446     -0.1216655 -0.02239928 0.01231012 0.3443089  57         19.804     2.5771    
4450.5999  13.8028    85.3224    113.3539   2.0147     -0.1384238 -0.05627736 -0.04274362 0.2610707  57         19.7797    2.5767    
4450.7999  13.7055    86.7449    115.0325   1.9219     -0.1426906 -0.06647035 -0.06010151 0.2431328  57         22.0352    2.5709    
4450.9999  13.6487    88.6225    114.9037   1.8282     -0.1457096 -0.07545663 -0.07739424 0.2208715  57         22.9504    2.5664    
4451.199900000001 13.6649    89.8214    108.4083   1.844300000000076 -0.1464892 -0.0786517 -0.08286132 0.2286396  57         21.8666    2.5802    
4451.3999  13.6652    88.1502    98.0252    1.922      -0.1659971 -0.1213319 -0.1565049 0.1099403  57         19.9853    2.5792    
4451.5999  13.7381    84.6504    90.8451    2.1242     -0.1756599 -0.1467543 -0.2053611 0.02399092 57         19.7126    2.5904    
4451.7999  13.7867    82.3214    89.4057    2.2125     -0.1939906 -0.1921472 -0.2919432 -0.1459867 57         18.8185    2.5899    
4451.9999  13.7461    81.7806    92.7441    2.1981     -0.2009913 -0.2147213 -0.3409865 -0.2533906 57         18.1972    2.6003    
4452.199900000001 13.7624    82.2653    95.7098    2.125299999999566 -0.189077  -0.1985832 -0.3247731 -0.2435584 57         18.3425    2.6003    
4452.3999  13.7786    83.0787    97.2625    2.0352     -0.1976328 -0.2218583 -0.3723397 -0.3458913 57         19.1438    2.595     
4452.5999  13.673     84.2819    94.5656    1.9975     -0.2113705 -0.2581911 -0.4464645 -0.5156767 57         19.8109    2.5854    
4452.7999  13.6812    86.3622    93.1279    1.955      -0.1994108 -0.2431506 -0.4363271 -0.5439478 57         19.1428    2.5761    
4452.9999  13.6974    88.6122    96.1365    1.8732     -0.1798268 -0.2116669 -0.397511  -0.5201516 57         19.848     2.5666    
4453.199900000001 13.6812    89.2959    102.0412   1.792899999999829 -0.1525229 -0.1582813 -0.3119159 -0.3790694 57         21.7798    2.5657    
4453.3999  13.7215    87.9897    102.1548   1.8086     -0.1383773 -0.1315835 -0.2700813 -0.3098796 57         19.9181    2.5727    
4453.5999  13.6486    85.3494    103.4256   1.9723     -0.144152  -0.1407522 -0.2811798 -0.3111522 57         17.682     2.575     
