~Version
 VERS              .         2.0                           : CWLS LOG ASCII STANDARD - VERSION 2.0
 WRAP              .         NO                            : ONE LINE PER DEPTH STEP
 DLM               .         SPACE                         : DELIMITING CHARACTER(SPACE TAB OR COMMA)
~Well Information
#_______________________________________________________________________________
#
#PARAMETER_NAME    .UNIT     VALUE                         : DESCRIPTION
#_______________________________________________________________________________
STRT               .m        2119.8892                     : First reference value
STOP               .m        5043.2892                     : Last reference value
STEP               .m        0.2                           : Step increment
NULL               .         -9999                         : Missing value
COMP               .         PETROLEO BRASILEIRO S/A       : Company
WELL               .         1ESS 0094  ES                 : Well name
FLD                .                                       : Field
LOC                .                                       : Location
CNTY               .                                       : County
STAT               .         ESPIRITO SANTO                : State
CTRY               .                                       : Country
SRVC               .                                       : Service Company
DATE               .                                       : Date
API                .         342710052700                  : API number
EDF                .M        25.00                         : Elevation Derrick Floor
GDAT               .         SIRGAS2000                    : Geodetic Datum
HZCS               .         UTM                           : Horizontal Coordinate System
LAT                .         -20.952076                    : Latitude
LONG               .         -39.451195                    : Longitude
MC                 .         39 W                          : Meridiano Central
ORIG               .         SIGEO EXPORTACAO PERFIL       : Origem dos dados
WDMS               .M        2081.00                       : Water Depth to Mean Sea Level
XCOORD             .         453092.70                     : Surface X
YCOORD             .         7683090.10                    : Surface Y
~Parameter Information Block
#_______________________________________________________________________________
#
#PARAMETER_NAME    .UNIT     VALUE                         : DESCRIPTION
#_______________________________________________________________________________
SET                .         ESS94_resample                : 
TLFamily_CALI      .         Caliper                       : 
TLFamily_DEPT      .         Measured Depth                : 
TLFamily_DT        .         Compressional Slowness        : 
TLFamily_DTS       .         Shear Slowness                : 
TLFamily_GR        .         Gamma Ray                     : 
TLFamily_INPEFA_1  .                                       : 
TLFamily_INPEFA_2  .                                       : 
TLFamily_INPEFA_3  .                                       : 
TLFamily_INPEFA_4  .                                       : 
TLFamily_LITO      .                                       : 
TLFamily_NPHI      .         Neutron Porosity              : 
TLFamily_OG        .                                       : 
TLFamily_RESD      .         Deep Resistivity              : 
TLFamily_RESM      .         Medium Resistivity            : 
TLFamily_RESS      .         Shallow Resistivity           : 
TLFamily_RHOB      .         Bulk Density                  : 
TLFamily_SP        .         Spontaneous Potential         : 
TLFamily_TVD       .         True Vertical Depth           : 
~Curve Information
#_______________________________________________________________________________
#
#LOGNAME           .UNIT     LOG_ID                        : DESCRIPTION
#_______________________________________________________________________________
DEPT               .m                                      :  
CALI               .in                                     :  
DT                 .us/ft                                  :  
DTS                .us/ft                                  :  
GR                 .Sem                                    : GAMMA RAY 
INPEFA_1           .                                       :  
INPEFA_2           .                                       :  
INPEFA_3           .                                       :  
INPEFA_4           .                                       :  
LITO               .Sem                                    : Não definido 
NPHI               .Sem                                    : THERMAL NEUTRON POROSITY (ORIGINAL RATIO METHOD) IN SELECTED LITHOLOGY 
OG                 .                                       :  
RESD               .ohm.m                                  :  
RESM               .ohm.m                                  :  
RESS               .ohm.m                                  :  
RHOB               .g/cm3                                  :  
SP                 .mV                                     : SPONTANEOUS POTENTIAL 
TVD                .m                                      : Vertical Depth 
~Ascii
# ...
3712.2892  12.29752   113.6397   250.2352   100.2847   -0.1637397 -0.02545173 0.0796895  0.2639239  57         33.45638491412821 100.2847   0.5146635  0.5599177  0.4997659  2.354854   -20.12377003046399 3712.0552 
3712.4892  12.29704   113.4951   251.3839   102.8104   -0.156073  -0.01413548 0.1001893  0.2990841  57         34.11864997082803 102.8104   0.5099424  0.5552161  0.4956239  2.359655   -17.9810265768858 3712.25518687664
3712.6892  12.28769   112.0945   247.2939   105.3034   -0.1487316 -0.00097279 0.1296984  0.3721664  57         35.24428038710031 105.3034   0.5086781  0.5538225  0.4933562  2.369917   -16.48912174495001 3712.4551 
3712.8892  12.27399   111.6948   244.8864   104.8179   -0.1661175 -0.02721234 0.07409862 0.2701292  57         35.40672737782285 104.8179   0.5090802  0.5542802  0.4923464  2.374561   -15.36629810483306 3712.6551 
3713.0892  12.26562   112.3029   247.8867   105.9447   -0.1740057 -0.04173497 0.03569632 0.1704717  57         33.98556782879837 105.9447   0.5115818  0.5560477  0.4911477  2.366863   -16.95341234883384 3712.855100000001
3713.2892  12.28672   113.0557   253.8997   107.8151   -0.1693452 -0.0359333 0.04061761 0.1536626  57         32.88246436131589 107.8151   0.5133843  0.5578019  0.4939993  2.354022   -16.4239004165165 3713.0551 
3713.4892  12.28948   113.0155   253.5494   110.5593   -0.1651796 -0.0315784 0.04114214 0.1231413  57         32.29421729741151 110.5593   0.5171993  0.5630598  0.5003683  2.353034   -14.75156642132779 3713.2551 
3713.6892  12.25574   112.3612   253.6032   106.578    -0.1597559 -0.0235077 0.05246909 0.124283   57         32.30325485590081 106.578    0.530196   0.5769093  0.5053816  2.357381   -15.38668538141093 3713.455099475066
3713.8892  12.23814   110.7298   245.6961   104.5803   -0.141094  0.00598133 0.1119364  0.2424684  57         33.63145335640635 104.5803   0.5528582  0.6032227  0.5253188  2.353387   -17.11607688243578 3713.655  
3714.0892  12.26981   109.1906   239.1185   98.18045   -0.1492845 -0.004762325 0.09096049 0.2216231  57         35.23425698468377 98.18045   0.5656093  0.6200034  0.537707   2.355524   -19.30898519199606 3713.855000000001
3714.2892  12.27161   108.026    234.607    93.87377   -0.1447241 0.00365476 0.109595   0.2828818  57         35.82712131410197 93.87377   0.5732635  0.6296054  0.5428973  2.36399    -16.88352261440301 3714.055  
3714.4892  12.27791   107.8405   231.0548   96.48178   -0.1618746 -0.02406937 0.04721989 0.1702027  57         34.09912854292588 96.48178   0.5807917  0.636616   0.5457798  2.367731   -20.95934317180931 3714.255  
3714.6892  12.2839    108.4938   231.8259   100.9711   -0.1464559 0.000146929 0.09687204 0.2879606  57         31.58224631482142 100.9711   0.5850764  0.6403933  0.5469967  2.378979   -17.78258587994445 3714.455  
3714.8892  12.28438   109.1154   237.5058   99.34225   -0.1620404 -0.02379842 0.04564016 0.2120833  57         30.77148727857511 99.34225   0.5867792  0.6414396  0.5475638  2.387569   -15.15320132348128 3714.655  
3715.0892  12.26276   110.7501   244.1477   98.53607   -0.1679834 -0.03506098 0.01558029 0.1565701  57         29.62954913662405 98.53607   0.5885048  0.6412739  0.5485547  2.380914   -28.08514163001829 3714.854980839895
3715.2892  12.25707   112.0679   248.8757   102.2445   -0.1743256 -0.04764855 -0.01944424 0.07919842 57         29.1216989502183 102.2445   0.582614   0.6331978  0.5429523  2.372137   -32.90964721318693 3715.054900000001
3715.4892  12.25233   112.05     253.9365   103.5002   -0.1598437 -0.02661134 0.01893181 0.1532393  57         31.11466320668975 103.5002   0.5689123  0.6151987  0.5230112  2.372949   -26.56895730125461 3715.2549 
3715.6892  12.23998   111.8012   254.1936   101.9051   -0.1596201 -0.02565451 0.01972605 0.1733213  57         36.28570445503885 101.9051   0.5631955  0.6065008  0.5122613  2.373187   -17.88501446891394 3715.4549 
3715.8892  12.22646   110.7042   251.6201   103.7229   -0.1822768 -0.06321581 -0.06730449 -0.004718149 57         36.44105502751908 103.7229   0.5727263  0.6194827  0.5243242  2.361885   -14.84295276581754 3715.6549 
3716.0892  12.26265   109.1315   245.8123   107.0816   -0.1656288 -0.04062832 -0.03019804 0.05117786 57         33.16227825294551 107.0816   0.5817642  0.6303398  0.5333621  2.347641   -17.45308587182419 3715.8549 
3716.2892  12.27384   109.221    242.0633   107.1567   -0.1748859 -0.05625716 -0.06931488 -0.02998579 57         31.6219645522718 107.1567   0.5887138  0.6367269  0.538429   2.34683    -17.44570046272424 3716.054893438321
3716.4892  12.29002   108.1454   234.9927   104.6284   -0.1719332 -0.05458291 -0.07549997 -0.05987851 57         32.55523985014281 104.6284   0.5946711  0.6427959  0.5425681  2.352557   -18.66493668143134 3716.2548 
3716.6892  12.2919    108.3829   231.5806   101.6077   -0.1705814 -0.05440479 -0.08292348 -0.08963609 57         34.20803921116689 101.6077   0.5973761  0.6453761  0.543862   2.35591    -15.81182680354289 3716.4548 
3716.8892  12.29949   109.4441   240.6559   97.33742   -0.1535752 -0.02840935 -0.03228805 0.01267718 57         34.3862222686541 97.33742   0.5960944  0.6444974  0.5453024  2.357414   -14.19321523751256 3716.6548 
3717.0892  12.29163   109.5169   241.3131   97.43327   -0.1497246 -0.02126023 -0.01635505 0.06678914 57         32.25728297796751 97.43327   0.591691   0.6409695  0.5447153  2.366076   -17.51033831018068 3716.8548 
3717.2892  12.26537   110.4214   242.3909   99.23148   -0.167715  -0.04920179 -0.07740069 -0.04162748 57         33.56301836830004 99.23148   0.5800281  0.6282616  0.5365939  2.37734    -15.99154730418685 3717.0548 
3717.4892  12.23799   110.3866   246.0156   103.3709   -0.1496998 -0.02221313 -0.02411697 0.06981067 57         36.33383904604818 103.3709   0.5746904  0.6235301  0.5334181  2.378015   -13.59718482200203 3717.2548 
3717.6892  12.30653   109.979    243.3969   103.2779   -0.1565394 -0.03121665 -0.04138354 0.06010117 57         35.79830737376271 103.2779   0.5796293  0.6308055  0.5383794  2.370734   -14.1924421806103 3717.4547 
3717.8892  12.31631   110.2903   241.8941   104.4556   -0.1527693 -0.02505756 -0.02916521 0.1021833  57         32.84345163259777 104.4556   0.5821949  0.6339693  0.5417714  2.362851   -16.5193869122692 3717.654700000001
3718.0892  12.31959   111.505    244.107    106.6379   -0.1678984 -0.04995451 -0.08683773 -0.007359962 57         31.75714448743609 106.6379   0.5823247  0.6333987  0.5432135  2.357818   -16.48083818490694 3717.8547 
3718.2892  12.30997   111.9416   246.0003   108.3069   -0.1662543 -0.04980384 -0.09449886 -0.0311622 57         31.31215499517486 108.3069   0.5807298  0.6319487  0.5452378  2.358168   -16.10363774036679 3718.0547 
3718.4892  12.27791   112.1487   248.2787   105.6412   -0.132459  0.004095707 0.02046981 0.2244716  57         31.80790109709459 105.6412   0.58       0.6306981  0.5424342  2.357249   -12.5664308853356 3718.2547 
3718.6892  12.26971   111.4771   246.4559   103.0717   -0.1760221 -0.06170876 -0.1160884 -0.008698486 57         33.18019097996719 103.0717   0.5808135  0.6296118  0.5344499  2.358609   -14.78997697105069 3718.4547 
3718.8892  12.24256   110.3595   243.3035   106.1292   -0.168211  -0.05433778 -0.1126163 -0.0156298 57         32.86165678970362 106.1292   0.5827771  0.6316151  0.5356138  2.362893   -25.14614752521627 3718.654687401575
3719.0892  12.26162   109.7412   239.6067   105.7685   -0.1771506 -0.06988116 -0.1520657 -0.09441694 57         33.01458309704899 105.7685   0.5872372  0.6372558  0.5450168  2.369366   -23.58995368535967 3718.854600000001
3719.2892  12.30158   108.7905   237.9362   105.192    -0.1766473 -0.07309677 -0.170505  -0.1523115 57         33.93705963775545 105.192    0.5912507  0.6417758  0.5476997  2.375178   -18.92791641915957 3719.0546 
3719.4892  12.30089   107.8315   235.7588   104.2335   -0.1778011 -0.07808031 -0.1920153 -0.2182507 57         33.02253098375272 104.2335   0.5969198  0.6474574  0.5513448  2.383433   -15.485430326985 3719.2546 
3719.6892  12.30176   107.5877   236.5205   102.9157   -0.1651593 -0.06014842 -0.1617885 -0.1703731 57         32.46932235477498 102.9157   0.6039873  0.6553495  0.5572498  2.387125   -19.69660765981393 3719.4546 
