~Version
 VERS              .         2.0                           : CWLS LOG ASCII STANDARD - VERSION 2.0
 WRAP              .         NO                            : ONE LINE PER DEPTH STEP
 DLM               .         SPACE                         : DELIMITING CHARACTER(SPACE TAB OR COMMA)
~Well Information
#_______________________________________________________________________________
#
#PARAMETER_NAME    .UNIT     VALUE                         : DESCRIPTION
#_______________________________________________________________________________
STRT               .m        2430.3999                     : First reference value
STOP               .m        5554.9999                     : Last reference value
STEP               .m        0.2                           : Step increment
NULL               .         -9999                         : Missing value
COMP               .         PETROLEO BRASILEIRO S/A       : Company
WELL               .         1-ESS-186_resample            : Well name
FLD                .                                       : Field
LOC                .                                       : Location
CNTY               .                                       : County
STAT               .         ESPIRITO SANTO                : State
CTRY               .                                       : Country
SRVC               .                                       : Service Company
DATE               .                                       : Date
API                .         342710339400                  : API number
EDF                .M        25.00                         : Elevation Derrick Floor
GDAT               .         SIRGAS2000                    : Geodetic Datum
HZCS               .         UTM                           : Horizontal Coordinate System
LAT                .         -20.356499                    : Latitude
LONG               .         -39.496292                    : Longitude
MC                 .         39 W                          : Meridiano Central
ORIG               .         SIGEO EXPORTACAO PERFIL       : Origem dos dados
WDMS               .M        1798.00                       : Water Depth to Mean Sea Level
XCOORD             .         448202.60                     : Surface X
YCOORD             .         7748989.80                    : Surface Y
~Parameter Information Block
#_______________________________________________________________________________
#
#PARAMETER_NAME    .UNIT     VALUE                         : DESCRIPTION
#_______________________________________________________________________________
SET                .         ESS186_resample               : 
TLFamily_CALI      .         Caliper                       : 
TLFamily_DEPT      .         Measured Depth                : 
TLFamily_DT        .         Compressional Slowness        : 
TLFamily_DTS       .         Shear Slowness                : 
TLFamily_GR        .         Gamma Ray                     : 
TLFamily_INPEFA_1  .                                       : 
TLFamily_INPEFA_2  .                                       : 
TLFamily_INPEFA_3  .                                       : 
TLFamily_INPEFA_4  .                                       : 
TLFamily_LITO      .                                       : 
TLFamily_NPHI      .         Neutron Porosity              : 
TLFamily_OG        .                                       : 
TLFamily_RESD      .         Deep Resistivity              : 
TLFamily_RESM      .         Medium Resistivity            : 
TLFamily_RESS      .         Shallow Resistivity           : 
TLFamily_RHOB      .         Bulk Density                  : 
TLFamily_TVD       .         True Vertical Depth           : 
~Curve Information
#_______________________________________________________________________________
#
#LOGNAME           .UNIT     LOG_ID                        : DESCRIPTION
#_______________________________________________________________________________
DEPT               .m                                      :  
CALI               .in                                     :  
DT                 .us/ft                                  :  
DTS                .us/ft                                  :  
GR                 .gAPI                                   : GAMMA RAY 
INPEFA_1           .                                       :  
INPEFA_2           .                                       :  
INPEFA_3           .                                       :  
INPEFA_4           .                                       :  
LITO               .Sem                                    : Não definido 
NPHI               .%                                      : THERMAL NEUTRON POROSITY (ORIGINAL RATIO METHOD) IN SELECTED LITHOLOGY 
OG                 .                                       :  
RESD               .ohm.m                                  :  
RESM               .ohm.m                                  :  
RESS               .ohm.m                                  :  
RHOB               .g/cm3                                  :  
TVD                .                                       : Vertical Depth 
~Ascii
# ...
3066.7999  -9999      -9999      -9999      63.17996   -0.2127608 0.1052598  0.1670185  0.2950605  57         -9999      63.17996   0.7325763  0.726508   0.7205683597382558 -9999      3066.7575 
3066.9999  -9999      -9999      -9999      67.20647   -0.2207477 0.100252   0.1739236  0.3691109  57         -9999      67.20647   0.7349849  0.7201215  0.7084438461857431 -9999      3066.957483464566
3067.1999  -9999      -9999      -9999      71.06666   -0.256318  0.04723154 0.09259024 0.2309655  57         -9999      71.06666   0.7339     0.727208   0.7187555992548315 -9999      3067.1574 
3067.3999  -9999      -9999      -9999      71.15479   -0.2442721 0.0672654  0.129957   0.3237204  57         -9999      71.15479   0.7357954  0.7228933  0.7067212984398172 -9999      3067.3574 
3067.5999  -9999      -9999      -9999      72.43577   -0.2495029 0.06418048 0.1350576  0.3704645  57         -9999      72.43577   0.7372351  0.7115676  0.6934382332238456 -9999      3067.5574 
3067.7999  -9999      -9999      -9999      69.25376   -0.2767084 0.02175838 0.065952   0.2308569  57         -9999      69.25376   0.7410802  0.71967    0.711195337492198 -9999      3067.7574 
3067.9999  -9999      -9999      -9999      69.85172   -0.2524421 0.06212513 0.138053   0.3902801  57         -9999      69.85172   0.7481025  0.7350878  0.7304704597352301 -9999      3067.9574 
3068.1999  -9999      -9999      -9999      68.15347   -0.2656085 0.04636206 0.1209745  0.3816802  57         -9999      68.15347   0.7542983  0.749625   0.7481463021840855 -9999      3068.1574 
3068.3999  -9999      -9999      -9999      65.50808   -0.2632988 0.05380736 0.1411431  0.4455948  57         -9999      65.50808   0.757859   0.758057   0.7633197882225207 -9999      3068.3574 
3068.5999  -9999      -9999      -9999      66.35775   -0.2728263 0.04175578 0.127239   0.4329141  57         -9999      66.35775   0.7609957  0.7565075  0.7599116522743067 -9999      3068.5574 
3068.7999  -9999      -9999      -9999      71.20374   -0.2609164 0.0668458  0.1811188  0.5799965  57         -9999      71.20374   0.7629645  0.7531519  0.7496669234233762 -9999      3068.7574 
3068.9999  -9999      -9999      -9999      68.22511   -0.2776079 0.04593541 0.1567948  0.5652071  57         -9999      68.22511   0.7677073  0.7544709  0.7463995221573871 -9999      3068.9573 
3069.1999  -9999      -9999      -9999      65.43286   -0.3011346 0.00977706 0.09867106 0.4465359  57         -9999      65.43286   0.7698202  0.7687364  0.7701733131973079 -9999      3069.1573 
3069.3999  -9999      -9999      -9999      66.9379    -0.2793608 0.04731676 0.1673409  0.6007897  57         -9999      66.9379    0.769626   0.7892541  0.8111850298041885 -9999      3069.3573 
3069.5999  -9999      -9999      -9999      71.2009    -0.3036983 0.01302792 0.1169408  0.5143109  57         -9999      71.2009    0.7690805  0.7969593  0.8215266040937825 -9999      3069.5573 
3069.7999  -9999      -9999      -9999      70.29765   -0.3091632 0.005709406 0.1067768  0.4900424  57         -9999      70.29765   0.7695924  0.7883824  0.7959853148927036 -9999      3069.7573 
3069.9999  -9999      -9999      -9999      69.9693    -0.3081263 0.009954106 0.117625   0.5158718  57         -9999      69.9693    0.7696701  0.7807822  0.7849436805170985 -9999      3069.9573 
3070.1999  -9999      -9999      -9999      76.13512   -0.3326237 -0.02892822 0.05098142 0.3576179  57         -9999      76.13512   0.7709601  0.7825036  0.7878926144695193 -9999      3070.1573 
3070.3999  -9999      -9999      -9999      76.72269   -0.3059469 0.01510384 0.1268194  0.5072091  57         -9999      76.72269   0.7741977  0.7860969  0.7866869603540048 -9999      3070.3573 
3070.5999  -9999      -9999      -9999      74.85571   -0.3167615 0.002341333 0.1120909  0.4914716  57         -9999      74.85571   0.7796838  0.7903479  0.7830699890125169 -9999      3070.557221259842
3070.7999  -9999      -9999      -9999      77.44834   -0.3383013 -0.03040919 0.05888664 0.377933   57         -9999      77.44834   0.7854484  0.7987775  0.7953666597308292 -9999      3070.7572 
3070.9999  -9999      -9999      -9999      74.55392   -0.3192132 0.001788877 0.1165319  0.5053223  57         -9999      74.55392   0.7894647  0.8031824  0.7990971857278003 -9999      3070.9572 
3071.1999  -9999      -9999      -9999      73.57719   -0.3601193 -0.06135237 0.01270089 0.2892782  57         -9999      73.57719   0.7914243  0.8017057  0.795505694532119 -9999      3071.1572 
3071.3999  -9999      -9999      -9999      73.05606   -0.3712681 -0.08243925 -0.02978868 0.1615019  57         -9999      73.05606   0.7908154  0.7979046  0.7896414661030747 -9999      3071.3572 
3071.5999  -9999      -9999      -9999      74.28788   -0.3279215 -0.01395727 0.08453935 0.383558   57         -9999      74.28788   0.7888443  0.7901387  0.7752780628344808 -9999      3071.5572 
3071.7999  -9999      -9999      -9999      72.9198    -0.338318  -0.02374862 0.07890922 0.4017015  57         -9999      72.9198    0.7892339  0.7810937  0.7607656110274995 -9999      3071.7572 
3071.9999  -9999      -9999      -9999      74.14399   -0.3589531 -0.05360254 0.03393299 0.3223926  57         -9999      74.14399   0.7860838  0.7752995  0.756736691492549 -9999      3071.9572 
3072.1999  -9999      -9999      -9999      78.35582   -0.3494084 -0.03765208 0.0633342  0.3954447  57         -9999      78.35582   0.7816126  0.7736428  0.7588145164243048 -9999      3072.1572 
3072.3999  -9999      -9999      -9999      76.07186   -0.3719575 -0.07147808 0.01041688 0.3034191  57         -9999      76.07186   0.777024   0.7730212  0.7602580623604083 -9999      3072.35714015748
3072.5999  -9999      -9999      -9999      76.98479   -0.3639494 -0.05762167 0.0371441  0.3801883  57         -9999      76.98479   0.7710916  0.770605   0.7612464612687271 -9999      3072.5571 
3072.7999  -9999      -9999      -9999      78.11465   -0.3936206 -0.1050579 -0.04244823 0.223605   57         -9999      78.11465   0.7667626  0.764963   0.7591278677544897 -9999      3072.7571 
3072.9999  -9999      -9999      -9999      77.6364    -0.3694924 -0.06697317 0.02268717 0.3774635  57         -9999      77.6364    0.7628604  0.7520971  0.7414701428287784 -9999      3072.9571 
3073.1999  -9999      -9999      -9999      79.62917   -0.4011215 -0.1160314 -0.0568138 0.2408573  57         -9999      79.62917   0.7592408  0.7409859  0.7179323721327493 -9999      3073.1571 
3073.3999  -9999      -9999      -9999      75.82493   -0.4114856 -0.1361996 -0.09590557 0.1575424  57         -9999      75.82493   0.7582     0.7427369  0.7187602726455526 -9999      3073.3571 
3073.5999  -9999      -9999      -9999      74.26359   -0.413978  -0.1432313 -0.112663  0.1214773  57         -9999      74.26359   0.7575855  0.7513109  0.7369213371939378 -9999      3073.5571 
3073.7999  -9999      -9999      -9999      77.52013   -0.4302292 -0.1733504 -0.1706759 -0.01038462 57         -9999      77.52013   0.7579985  0.7586427  0.752179971799867 -9999      3073.7571 
3073.9999  -9999      -9999      -9999      76.24907   -0.4308283 -0.1793983 -0.1899975 -0.07362124 57         -9999      76.24907   0.7604194  0.7617582  0.754754183290398 -9999      3073.957090288714
3074.1999  -9999      -9999      -9999      80.58012   -0.4187192 -0.1625541 -0.1662194 -0.02954521 57         -9999      80.58012   0.7612138  0.7625865  0.7525804734339394 -9999      3074.157  
3074.3999  -9999      -9999      -9999      83.76483   -0.4337144 -0.1887369 -0.2147743 -0.1370578 57         -9999      83.76483   0.7630381  0.7617726  0.7472814707581945 -9999      3074.357  
3074.5999  -9999      -9999      -9999      75.22306   -0.4199277 -0.1693037 -0.1863261 -0.08327959 57         -9999      75.22306   0.7648579  0.7605463  0.7422120719893167 -9999      3074.557  
3074.7999  -9999      -9999      -9999      71.43173   -0.4224756 -0.1734085 -0.1933838 -0.08821371 57         -9999      71.43173   0.7667771  0.7673934  0.7562633037254215 -9999      3074.757  
