~Version
 VERS              .         2.0                           : CWLS LOG ASCII STANDARD - VERSION 2.0
 WRAP              .         NO                            : ONE LINE PER DEPTH STEP
 DLM               .         SPACE                         : DELIMITING CHARACTER(SPACE TAB OR COMMA)
~Well Information
#_______________________________________________________________________________
#
#PARAMETER_NAME    .UNIT     VALUE                         : DESCRIPTION
#_______________________________________________________________________________
STRT               .m        2119.8892                     : First reference value
STOP               .m        5043.2892                     : Last reference value
STEP               .m        0.2                           : Step increment
NULL               .         -9999                         : Missing value
COMP               .         PETROLEO BRASILEIRO S/A       : Company
WELL               .         1ESS 0094  ES                 : Well name
FLD                .                                       : Field
LOC                .                                       : Location
CNTY               .                                       : County
STAT               .         ESPIRITO SANTO                : State
CTRY               .                                       : Country
SRVC               .                                       : Service Company
DATE               .                                       : Date
API                .         342710052700                  : API number
EDF                .M        25.00                         : Elevation Derrick Floor
GDAT               .         SIRGAS2000                    : Geodetic Datum
HZCS               .         UTM                           : Horizontal Coordinate System
LAT                .         -20.952076                    : Latitude
LONG               .         -39.451195                    : Longitude
MC                 .         39 W                          : Meridiano Central
ORIG               .         SIGEO EXPORTACAO PERFIL       : Origem dos dados
WDMS               .M        2081.00                       : Water Depth to Mean Sea Level
XCOORD             .         453092.70                     : Surface X
YCOORD             .         7683090.10                    : Surface Y
~Parameter Information Block
#_______________________________________________________________________________
#
#PARAMETER_NAME    .UNIT     VALUE                         : DESCRIPTION
#_______________________________________________________________________________
SET                .         ESS94_resample                : 
TLFamily_CALI      .         Caliper                       : 
TLFamily_DEPT      .         Measured Depth                : 
TLFamily_DT        .         Compressional Slowness        : 
TLFamily_DTS       .         Shear Slowness                : 
TLFamily_GR        .         Gamma Ray                     : 
TLFamily_INPEFA_1  .                                       : 
TLFamily_INPEFA_2  .                                       : 
TLFamily_INPEFA_3  .                                       : 
TLFamily_INPEFA_4  .                                       : 
TLFamily_LITO      .                                       : 
TLFamily_NPHI      .         Neutron Porosity              : 
TLFamily_OG        .                                       : 
TLFamily_RESD      .         Deep Resistivity              : 
TLFamily_RESM      .         Medium Resistivity            : 
TLFamily_RESS      .         Shallow Resistivity           : 
TLFamily_RHOB      .         Bulk Density                  : 
TLFamily_SP        .         Spontaneous Potential         : 
TLFamily_TVD       .         True Vertical Depth           : 
~Curve Information
#_______________________________________________________________________________
#
#LOGNAME           .UNIT     LOG_ID                        : DESCRIPTION
#_______________________________________________________________________________
DEPT               .m                                      :  
CALI               .in                                     :  
DT                 .us/ft                                  :  
DTS                .us/ft                                  :  
GR                 .Sem                                    : GAMMA RAY 
INPEFA_1           .                                       :  
INPEFA_2           .                                       :  
INPEFA_3           .                                       :  
INPEFA_4           .                                       :  
LITO               .Sem                                    : Não definido 
NPHI               .Sem                                    : THERMAL NEUTRON POROSITY (ORIGINAL RATIO METHOD) IN SELECTED LITHOLOGY 
OG                 .                                       :  
RESD               .ohm.m                                  :  
RESM               .ohm.m                                  :  
RESS               .ohm.m                                  :  
RHOB               .g/cm3                                  :  
SP                 .mV                                     : SPONTANEOUS POTENTIAL 
TVD                .m                                      : Vertical Depth 
~Ascii
# ...
3523.2892  12.17878   109.9197   254.6461   114.1482   -0.1869979 0.0328145  -0.1823695 -0.4539613 57         34.89762196578499 114.1482   0.6313543  0.6929809  0.5830645  2.346366   -32.45349475528617 3523.0735 
3523.4892  12.19016   110.16     254.532    105.0996   -0.1631684 0.06885627 -0.1020046 -0.2522835 57         33.67170810449058 105.0996   0.6390126  0.705685   0.5956605  2.367367   -19.93730671198757 3523.2735 
3523.6892  12.1863    110.6711   256.5685   99.16074   -0.1562297 0.08058289 -0.06677434 -0.1084274 57         31.16106053850087 99.16074   0.6430256  0.7127488  0.6062615  2.37134    -19.59595963087276 3523.473500000001
3523.8892  12.18435   111.8114   254.1443   99.08813   -0.1726508 0.0583149  -0.09808993 -0.07129398 57         30.92976206681907 99.08813   0.6300353  0.697012   0.5939403  2.360536   -35.72935861302892 3523.6735 
3524.0892  12.12545   112.0549   258.5666   99.70257   -0.1986825 0.01303234 -0.1940192 -0.2152129 57         33.93459458238907 99.70257   0.6227938  0.688256   0.5910821  2.344651   -48.64766382733967 3523.873408923885
3524.2892  12.09689   111.8686   261.6608   91.27821   -0.1922254 0.01905967 -0.1821478 -0.1563941 57         36.50883809287529 91.27821   0.6153413  0.6762787  0.577076   2.343939   -38.8077735900856 3524.0734 
3524.4892  12.1982    112.2316   259.4863   92.73181   -0.1784395 0.03842607 -0.1369586 -0.01252612 57         37.9869279936543 92.73181   0.6123788  0.6713259  0.5760164  2.348176   -36.78909923523433 3524.2734 
3524.6892  12.23449   112.1263   254.9388   101.8431   -0.201818  0.001052677 -0.2101149 -0.09904759 57         37.84175449281131 101.8431   0.6263949  0.6858882  0.5907869  2.341096   -35.02617382940103 3524.4734 
3524.8892  12.2637    110.7832   257.125    109.211    -0.2177604 -0.03006389 -0.281884  -0.2334691 57         33.63647367822343 109.211    0.6451954  0.7062545  0.6088212  2.350627   -28.2592943697058 3524.673383989501
3525.0892  12.26172   107.8746   248.3126   107.5469   -0.1994618 -0.008600648 -0.2458513 -0.170356  57         31.48867776825886 107.5469   0.661755   0.7240787  0.6234233  2.381918   -22.0354099273603 3524.873300000001
3525.2892  12.23728   107.5425   239.6753   99.64393   -0.188081  0.007358766 -0.2100495 -0.07079226 57         33.30021680496537 99.64393   0.6745616  0.7371274  0.6331822  2.395004   -21.38930004850803 3525.0733 
3525.4892  12.22435   109.1114   242.92     94.52216   -0.1838208 0.0120916  -0.1969025 -0.01056967 57         33.73847878323486 94.52216   0.6780856  0.7386095  0.6350225  2.397001   -29.8614626406342 3525.2733 
3525.6892  12.2103    110.109    246.2536   95.69939   -0.179241  0.02007678 -0.1708752 0.09500105 57         33.07340303556178 95.69939   0.6673363  0.7253278  0.6264448  2.385546   -37.23048475972099 3525.4733 
3525.8892  12.20244   110.7541   252.2281   99.68875   -0.2014518 -0.01789613 -0.2509078 -0.03721424 57         33.67901451130962 99.68875   0.6496745  0.7038347  0.6097818  2.363964   -36.20409966015233 3525.6733 
3526.0892  12.19102   110.5462   256.0182   104.889    -0.1845778 0.004609956 -0.2045731 0.07321513 57         34.97605634674589 104.889    0.6348287  0.6852734  0.5941659  2.344605   -25.69514547433339 3525.873200000001
3526.2892  12.19767   109.6142   253.9483   104.4039   -0.187132  -0.002241008 -0.2176789 0.07215849 57         35.50974547018095 104.4039   0.630277   0.6834971  0.5956159  2.340416   -25.89269460843111 3526.0732 
3526.4892  12.23456   109.5716   252.3965   97.85747   -0.1592767 0.04112282 -0.1179679 0.31754    57         33.91755060511482 97.85747   0.6323801  0.6915036  0.6052617  2.34962    -27.10042887910155 3526.2732 
3526.6892  12.2349    110.543    252.8238   93.1039    -0.1562301 0.04817184 -0.08843505 0.4535091  57         32.49235497622242 93.1039    0.6356277  0.7005998  0.6138231  2.372911   -23.16034747045474 3526.4732 
3526.8892  12.23518   112.0725   257.0668   97.10555   -0.1720043 0.02830578 -0.1105434 0.5066066  57         32.1735402204859 97.10555   0.6395766  0.7069914  0.621288   2.383843   -20.87086052781929 3526.673171653543
3527.0892  12.22856   113.1394   262.3672   105.9129   -0.1878469 0.001739236 -0.1597778 0.4607118  57         32.07993271594869 105.9129   0.6286403  0.6943409  0.6114587  2.373869   -21.5659534374295 3526.8731 
3527.2892  12.23167   113.721    263.8098   108.7093   -0.1953747 -0.01004957 -0.1765761 0.4736866  57         31.87915597750413 108.7093   0.6051477  0.6663893  0.5913982  2.352942   -20.3809626071115 3527.073100000001
3527.4892  12.25059   113.0726   268.943    104.2873   -0.2191813 -0.05056614 -0.2622448 0.321843   57         32.50508988748439 104.2873   0.5910384  0.6504499  0.5842379  2.347877   -25.86577409459133 3527.2731 
3527.6892  12.24722   112.5884   264.6022   105.2364   -0.2211132 -0.06159339 -0.2965738 0.2179064  57         33.0437938459902 105.2364   0.5848446  0.6434102  0.5774062  2.353313   -29.05800600627721 3527.4731 
3527.8892  12.23666   112.0218   265.8123   109.7068   -0.1918297 -0.01877663 -0.207881  0.3802391  57         32.18503226132528 109.7068   0.5853189  0.6444322  0.575114   2.344373   -31.71143579357883 3527.673015485565
3528.0892  12.2446    111.9382   266.6079   107.3053   -0.1964493 -0.0269954 -0.2230396 0.3544271  57         31.44319154333924 107.3053   0.5933002  0.6539787  0.5799929  2.336283   -32.88801658809661 3527.873000000001
3528.2892  12.22331   112.3357   265.2216   101.2262   -0.1809062 -0.004992353 -0.176198  0.4488356  57         32.00366019702157 101.2262   0.5988201  0.6602483  0.5827104  2.342545   -26.31044653643636 3528.073  
3528.4892  12.22619   111.993    263.1509   97.88644   -0.1637855 0.02263976 -0.1097805 0.6150657  57         33.14689164649862 97.88644   0.6007474  0.6624692  0.5825394  2.351185   -22.21655299970112 3528.273  
3528.6892  12.22701   111.7686   259.4931   97.75719   -0.1880648 -0.01131052 -0.1669067 0.5629154  57         34.59425645363108 97.75719   0.6031644  0.6654331  0.581911   2.354357   -25.04776676809194 3528.473  
3528.8892  12.2163    110.8221   252.6726   102.3348   -0.2031507 -0.0384351 -0.2248352 0.4548511  57         36.05826587626927 102.3348   0.6121245  0.6763487  0.5874144  2.355958   -25.72647755540351 3528.672959317585
3529.0892  12.2061    110.315    252.6551   102.2035   -0.2077679 -0.04793278 -0.2452823 0.4147355  57         35.60600023444722 102.2035   0.6232578  0.688747   0.5968424  2.357572   -24.51136242123051 3528.8729 
3529.2892  12.21737   110.5669   252.406    99.97105   -0.2097012 -0.05570997 -0.2673799 0.350878   57         34.37567961685122 99.97105   0.6340694  0.7014788  0.6074193  2.362182   -26.93793583667286 3529.0729 
3529.4892  12.23675   110.9856   252.6656   94.23275   -0.220781  -0.07741164 -0.3202662 0.214277   57         32.55205591957694 94.23275   0.6390936  0.7061394  0.6093071  2.369342   -27.57919116783613 3529.2729 
3529.6892  12.23386   111.7029   258.3217   91.45342   -0.2222656 -0.08660251 -0.3526086 0.09111018 57         32.34634511552206 91.45342   0.6348883  0.6981859  0.5983953  2.382268   -26.32571268456846 3529.4729 
3529.8892  12.22759   112.5721   259.2284   96.71471   -0.2077994 -0.07117947 -0.3339463 0.0543439  57         34.21578093401447 96.71471   0.6280569  0.6860848  0.5856845  2.381495   -25.01020374448092 3529.672803149606
3530.0892  12.22612   113.2942   265.2439   104.3514   -0.1702962 -0.01326984 -0.2115286 0.2689132  57         37.18959059427572 104.3514   0.6211677  0.6752003  0.5796762  2.364958   -22.38562156897767 3529.8728 
3530.2892  12.20208   113.6084   265.827    108.8858   -0.1737469 -0.01785142 -0.2167127 0.2525294  57         38.10237349863127 108.8858   0.6135292  0.6660939  0.5736265  2.352782   -24.56820495485383 3530.0728 
3530.4892  12.16038   113.2095   264.8009   112.9979   -0.1754847 -0.01953941 -0.2158318 0.2531462  57         37.69303155133113 112.9979   0.6151209  0.6670495  0.5746063  2.341698   -20.74484419635051 3530.2728 
3530.6892  12.15701   112.5768   265.785    113.1345   -0.1692905 -0.01083778 -0.1955387 0.2936539  57         36.71075033953615 113.1345   0.629608   0.6868252  0.5866843  2.332052   -27.96287857017138 3530.472778215224
