~Version
 VERS              .         2.0                           : CWLS LOG ASCII STANDARD - VERSION 2.0
 WRAP              .         NO                            : ONE LINE PER DEPTH STEP
 DLM               .         SPACE                         : DELIMITING CHARACTER(SPACE TAB OR COMMA)
~Well Information
#_______________________________________________________________________________
#
#PARAMETER_NAME    .UNIT     VALUE                         : DESCRIPTION
#_______________________________________________________________________________
STRT               .m        2430.3999                     : First reference value
STOP               .m        5554.9999                     : Last reference value
STEP               .m        0.2                           : Step increment
NULL               .         -9999                         : Missing value
COMP               .         PETROLEO BRASILEIRO S/A       : Company
WELL               .         1-ESS-186_resample            : Well name
FLD                .                                       : Field
LOC                .                                       : Location
CNTY               .                                       : County
STAT               .         ESPIRITO SANTO                : State
CTRY               .                                       : Country
SRVC               .                                       : Service Company
DATE               .                                       : Date
API                .         342710339400                  : API number
EDF                .M        25.00                         : Elevation Derrick Floor
GDAT               .         SIRGAS2000                    : Geodetic Datum
HZCS               .         UTM                           : Horizontal Coordinate System
LAT                .         -20.356499                    : Latitude
LONG               .         -39.496292                    : Longitude
MC                 .         39 W                          : Meridiano Central
ORIG               .         SIGEO EXPORTACAO PERFIL       : Origem dos dados
WDMS               .M        1798.00                       : Water Depth to Mean Sea Level
XCOORD             .         448202.60                     : Surface X
YCOORD             .         7748989.80                    : Surface Y
~Parameter Information Block
#_______________________________________________________________________________
#
#PARAMETER_NAME    .UNIT     VALUE                         : DESCRIPTION
#_______________________________________________________________________________
SET                .         ESS186_resample               : 
TLFamily_CALI      .         Caliper                       : 
TLFamily_DEPT      .         Measured Depth                : 
TLFamily_DT        .         Compressional Slowness        : 
TLFamily_DTS       .         Shear Slowness                : 
TLFamily_GR        .         Gamma Ray                     : 
TLFamily_INPEFA_1  .                                       : 
TLFamily_INPEFA_2  .                                       : 
TLFamily_INPEFA_3  .                                       : 
TLFamily_INPEFA_4  .                                       : 
TLFamily_LITO      .                                       : 
TLFamily_NPHI      .         Neutron Porosity              : 
TLFamily_OG        .                                       : 
TLFamily_RESD      .         Deep Resistivity              : 
TLFamily_RESM      .         Medium Resistivity            : 
TLFamily_RESS      .         Shallow Resistivity           : 
TLFamily_RHOB      .         Bulk Density                  : 
TLFamily_TVD       .         True Vertical Depth           : 
~Curve Information
#_______________________________________________________________________________
#
#LOGNAME           .UNIT     LOG_ID                        : DESCRIPTION
#_______________________________________________________________________________
DEPT               .m                                      :  
CALI               .in                                     :  
DT                 .us/ft                                  :  
DTS                .us/ft                                  :  
GR                 .gAPI                                   : GAMMA RAY 
INPEFA_1           .                                       :  
INPEFA_2           .                                       :  
INPEFA_3           .                                       :  
INPEFA_4           .                                       :  
LITO               .Sem                                    : Não definido 
NPHI               .%                                      : THERMAL NEUTRON POROSITY (ORIGINAL RATIO METHOD) IN SELECTED LITHOLOGY 
OG                 .                                       :  
RESD               .ohm.m                                  :  
RESM               .ohm.m                                  :  
RESS               .ohm.m                                  :  
RHOB               .g/cm3                                  :  
TVD                .                                       : Vertical Depth 
~Ascii
# ...
2438.9999  -9999      -9999      -9999      10.13476   0.03864223 -0.01804047 0.09397543 0.2292128  6          -9999      10.13476   -9999      -9999      -9999      -9999      2438.9895 
2439.1999  -9999      -9999      -9999      9.54727    0.02975321 -0.03306903 0.06944121 0.1814764  6          -9999      9.54727    -9999      -9999      -9999      -9999      2439.1895 
2439.3999  -9999      -9999      -9999      9.547658   0.02083146 -0.05089917 0.03506263 0.09159349 6          -9999      9.547658   -9999      -9999      -9999      -9999      2439.3895 
2439.5999  -9999      -9999      -9999      9.251695   0.05382115 0.00147064 0.1254063  0.287955   6          -9999      9.251695   -9999      -9999      -9999      -9999      2439.5895 
2439.7999  -9999      -9999      -9999      6.570138   0.02232815 -0.04865364 0.04281072 0.1249854  6          -9999      6.570138   -9999      -9999      -9999      -9999      2439.7895 
2439.9999  -9999      -9999      -9999      6.939994   0.04327099 -0.01799976 0.09288511 0.2279427  6          -9999      6.939994   -9999      -9999      -9999      -9999      2439.9895 
2440.1999  -9999      -9999      -9999      8.911164   0.04239533 -0.01794857 0.09800994 0.2626692  6          -9999      8.911164   -9999      -9999      -9999      -9999      2440.1895 
2440.3999  -9999      -9999      -9999      13.7506    0.03852202 -0.02441577 0.08997341 0.2678184  6          -9999      13.7506    -9999      -9999      -9999      -9999      2440.3895 
2440.5999  -9999      -9999      -9999      12.7945    0.0250463  -0.04775756 0.05048252 0.1942089  6          -9999      12.7945    -9999      -9999      -9999      -9999      2440.5895 
2440.7999  -9999      -9999      -9999      12.66951   0.03197174 -0.03917127 0.06369638 0.2264963  6          -9999      12.66951   -9999      -9999      -9999      -9999      2440.7895 
2440.9999  -9999      -9999      -9999      12.8038    0.02767602 -0.04731885 0.05035514 0.2087204  6          -9999      12.8038    -9999      -9999      -9999      -9999      2440.9895 
2441.1999  -9999      -9999      -9999      13.54765   0.03261063 -0.04031996 0.06350481 0.2510744  6          -9999      13.54765   -9999      -9999      -9999      -9999      2441.1895 
2441.3999  -9999      -9999      -9999      10.58418   0.03358233 -0.03922425 0.06774737 0.2820674  6          -9999      10.58418   -9999      -9999      -9999      -9999      2441.389482152231
2441.5999  -9999      -9999      -9999      10.69875   0.004345509 -0.08889424 -0.01911633 0.09874983 6          -9999      10.69875   -9999      -9999      -9999      -9999      2441.5894 
2441.7999  -9999      -9999      -9999      9.947815   0.04002648 -0.03523078 0.06898595 0.285779   6          -9999      9.947815   -9999      -9999      -9999      -9999      2441.7894 
2441.9999  -9999      -9999      -9999      9.40011    0.01635198 -0.07263286 0.008475845 0.1796066  6          -9999      9.40011    -9999      -9999      -9999      -9999      2441.9894 
2442.1999  -9999      -9999      -9999      10.90157   0.02416059 -0.06316996 0.02223041 0.2131691  6          -9999      10.90157   -9999      -9999      -9999      -9999      2442.1894 
2442.3999  -9999      -9999      -9999      13.14594   0.02878589 -0.05599585 0.0367388  0.2674122  6          -9999      13.14594   -9999      -9999      -9999      -9999      2442.3894 
2442.5999  -9999      -9999      -9999      8.532064   0.01056081 -0.08737107 -0.01752175 0.1641658  6          -9999      8.532064   -9999      -9999      -9999      -9999      2442.5894 
2442.7999  -9999      -9999      -9999      10.94024   0.02090139 -0.07392384 0.002561114 0.2109641  6          -9999      10.94024   -9999      -9999      -9999      -9999      2442.7894 
2442.9999  -9999      -9999      -9999      10.28665   0.01322143 -0.08803816 -0.02231443 0.1692022  6          -9999      10.28665   -9999      -9999      -9999      -9999      2442.9894 
2443.1999  -9999      -9999      -9999      9.776729   0.02219361 -0.07557287 -0.00185712 0.2252234  6          -9999      9.776729   -9999      -9999      -9999      -9999      2443.1894 
2443.3999  -9999      -9999      -9999      10.33      0.02946786 -0.06363164 0.0217903  0.3072002  6          -9999      10.33      -9999      -9999      -9999      -9999      2443.3894 
2443.5999  -9999      -9999      -9999      13.05654   0.0123605  -0.0919293 -0.02485051 0.2350647  6          -9999      13.05654   -9999      -9999      -9999      -9999      2443.5894 
2443.7999  -9999      -9999      -9999      12.87866   0.02075443 -0.08095865 -0.007192239 0.2943624  6          -9999      12.87866   -9999      -9999      -9999      -9999      2443.7894 
2443.9999  -9999      -9999      -9999      12.47521   0.001080801 -0.115313  -0.06753936 0.1835096  6          -9999      12.47521   -9999      -9999      -9999      -9999      2443.9894 
2444.1999  -9999      -9999      -9999      11.53743   0.0142098  -0.09791715 -0.04128394 0.2509838  6          -9999      11.53743   -9999      -9999      -9999      -9999      2444.1894 
2444.3999  -9999      -9999      -9999      11.01159   0.01845533 -0.09123302 -0.02716253 0.3170961  6          -9999      11.01159   -9999      -9999      -9999      -9999      2444.3894 
2444.5999  -9999      -9999      -9999      15.55569   0.006875047 -0.1104602 -0.05758223 0.2913849  6          -9999      15.55569   -9999      -9999      -9999      -9999      2444.5893 
2444.7999  -9999      -9999      -9999      11.80111   -0.01068738 -0.142424  -0.1152802 0.1849715  6          -9999      11.80111   -9999      -9999      -9999      -9999      2444.7893 
2444.9999  -9999      -9999      -9999      12.49219   -0.01753511 -0.1586195 -0.149716  0.1100593  6          -9999      12.49219   -9999      -9999      -9999      -9999      2444.9893 
2445.1999  -9999      -9999      -9999      12.29997   -0.01829325 -0.1659348 -0.1711869 0.05044428 6          -9999      12.29997   -9999      -9999      -9999      -9999      2445.1893 
2445.3999  -9999      -9999      -9999      11.29187   -0.003011118 -0.1446166 -0.139365  0.1190471  6          -9999      11.29187   -9999      -9999      -9999      -9999      2445.3893 
2445.5999  -9999      -9999      -9999      13.41071   -0.02033277 -0.1749054 -0.1944332 0.005487055 6          -9999      13.41071   -9999      -9999      -9999      -9999      2445.5893 
2445.7999  -9999      -9999      -9999      13.07592   -0.02319832 -0.1865097 -0.2253756 -0.08624237 6          -9999      13.07592   -9999      -9999      -9999      -9999      2445.7893 
2445.9999  -9999      -9999      -9999      13.22521   -0.004154261 -0.1593007 -0.1845567 -0.008912267 6          -9999      13.22521   -9999      -9999      -9999      -9999      2445.9893 
2446.1999  -9999      -9999      -9999      11.80696   -0.0170118 -0.1822647 -0.2274903 -0.103053  6          -9999      11.80696   -9999      -9999      -9999      -9999      2446.1893 
2446.3999  -9999      -9999      -9999      10.02981   -0.02655341 -0.2036505 -0.2743399 -0.2334543 6          -9999      10.02981   -9999      -9999      -9999      -9999      2446.3893 
2446.5999  -9999      -9999      -9999      12.61427   -0.01735171 -0.1949294 -0.2705882 -0.2642449 6          -9999      12.61427   -9999      -9999      -9999      -9999      2446.5893 
2446.7999  -9999      -9999      -9999      13.13622   -0.004584191 -0.1772648 -0.2462941 -0.2339056 6          -9999      13.13622   -9999      -9999      -9999      -9999      2446.7893 
2446.9999  -9999      -9999      -9999      15.47228   -0.001711543 -0.1748642 -0.2463211 -0.2469197 6          -9999      15.47228   -9999      -9999      -9999      -9999      2446.9893 
2447.1999  -9999      -9999      -9999      13.87136   -0.002042768 -0.1781595 -0.2566458 -0.284262  6          -9999      13.87136   -9999      -9999      -9999      -9999      2447.1893 
2447.3999  -9999      -9999      -9999      11.90749   0.005600426 -0.1679091 -0.2424682 -0.2642663 6          -9999      11.90749   -9999      -9999      -9999      -9999      2447.389245144357
