~Version
 VERS              .         2.0                           : CWLS LOG ASCII STANDARD - VERSION 2.0
 WRAP              .         NO                            : ONE LINE PER DEPTH STEP
 DLM               .         SPACE                         : DELIMITING CHARACTER(SPACE TAB OR COMMA)
~Well Information
#_______________________________________________________________________________
#
#PARAMETER_NAME    .UNIT     VALUE                         : DESCRIPTION
#_______________________________________________________________________________
STRT               .m        2430.3999                     : First reference value
STOP               .m        5554.9999                     : Last reference value
STEP               .m        0.2                           : Step increment
NULL               .         -9999                         : Missing value
COMP               .         PETROLEO BRASILEIRO S/A       : Company
WELL               .         1-ESS-186_resample            : Well name
FLD                .                                       : Field
LOC                .                                       : Location
CNTY               .                                       : County
STAT               .         ESPIRITO SANTO                : State
CTRY               .                                       : Country
SRVC               .                                       : Service Company
DATE               .                                       : Date
API                .         342710339400                  : API number
EDF                .M        25.00                         : Elevation Derrick Floor
GDAT               .         SIRGAS2000                    : Geodetic Datum
HZCS               .         UTM                           : Horizontal Coordinate System
LAT                .         -20.356499                    : Latitude
LONG               .         -39.496292                    : Longitude
MC                 .         39 W                          : Meridiano Central
ORIG               .         SIGEO EXPORTACAO PERFIL       : Origem dos dados
WDMS               .M        1798.00                       : Water Depth to Mean Sea Level
XCOORD             .         448202.60                     : Surface X
YCOORD             .         7748989.80                    : Surface Y
~Parameter Information Block
#_______________________________________________________________________________
#
#PARAMETER_NAME    .UNIT     VALUE                         : DESCRIPTION
#_______________________________________________________________________________
SET                .         ESS186_resample               : 
TLFamily_CALI      .         Caliper                       : 
TLFamily_DEPT      .         Measured Depth                : 
TLFamily_DT        .         Compressional Slowness        : 
TLFamily_DTS       .         Shear Slowness                : 
TLFamily_GR        .         Gamma Ray                     : 
TLFamily_INPEFA_1  .                                       : 
TLFamily_INPEFA_2  .                                       : 
TLFamily_INPEFA_3  .                                       : 
TLFamily_INPEFA_4  .                                       : 
TLFamily_LITO      .                                       : 
TLFamily_NPHI      .         Neutron Porosity              : 
TLFamily_OG        .                                       : 
TLFamily_RESD      .         Deep Resistivity              : 
TLFamily_RESM      .         Medium Resistivity            : 
TLFamily_RESS      .         Shallow Resistivity           : 
TLFamily_RHOB      .         Bulk Density                  : 
TLFamily_TVD       .         True Vertical Depth           : 
~Curve Information
#_______________________________________________________________________________
#
#LOGNAME           .UNIT     LOG_ID                        : DESCRIPTION
#_______________________________________________________________________________
DEPT               .m                                      :  
CALI               .in                                     :  
DT                 .us/ft                                  :  
DTS                .us/ft                                  :  
GR                 .gAPI                                   : GAMMA RAY 
INPEFA_1           .                                       :  
INPEFA_2           .                                       :  
INPEFA_3           .                                       :  
INPEFA_4           .                                       :  
LITO               .Sem                                    : Não definido 
NPHI               .%                                      : THERMAL NEUTRON POROSITY (ORIGINAL RATIO METHOD) IN SELECTED LITHOLOGY 
OG                 .                                       :  
RESD               .ohm.m                                  :  
RESM               .ohm.m                                  :  
RESS               .ohm.m                                  :  
RHOB               .g/cm3                                  :  
TVD                .                                       : Vertical Depth 
~Ascii
# ...
2648.1999  -9999      -9999      -9999      31.38594   -0.2895337 -0.1575311 -0.1408647 0.08199572 57         -9999      31.38594   1.221016   1.17164    1.142815731388478 -9999      2648.1797 
2648.3999  -9999      -9999      -9999      29.5269    -0.2790997 -0.1409375 -0.114017  0.1360747  57         -9999      29.5269    1.21602    1.197948   1.217755495736408 -9999      2648.3797 
2648.5999  -9999      -9999      -9999      30.2351    -0.2670929 -0.1195573 -0.07520813 0.2280986  57         -9999      30.2351    1.214238   1.210927   1.256916908259495 -9999      2648.5797 
2648.7999  -9999      -9999      -9999      29.74914   -0.2454344 -0.07980847 0.000712957 0.4242201  57         -9999      29.74914   1.209944   1.224317   1.296845930817967 -9999      2648.7797 
2648.9999  -9999      -9999      -9999      30.3506    -0.2652831 -0.1053335 -0.03214894 0.398844   57         -9999      30.3506    1.205334   1.241822   1.341945363758282 -9999      2648.9797 
2649.1999  -9999      -9999      -9999      30.80404   -0.2448269 -0.06792431 0.04026888 0.5963141  57         -9999      30.80404   1.199472   1.261361   1.410137343478889 -9999      2649.1797 
2649.3999  -9999      -9999      -9999      31.3633    -0.2718036 -0.1058239 -0.01474189 0.5257198  57         -9999      31.3633    1.193678   1.226573   1.348074435776483 -9999      2649.3797 
2649.5999  -9999      -9999      -9999      29.69116   -0.2809084 -0.1197146 -0.03742948 0.4905145  57         -9999      29.69116   1.207652   1.161487   1.134961388697081 -9999      2649.5797 
2649.7999  -9999      -9999      -9999      29.11189   -0.2606089 -0.08530432 0.02379481 0.6418241  57         -9999      29.11189   1.223436   1.174582   1.130574767274068 -9999      2649.779636745407
2649.9999  -9999      -9999      -9999      29.77896   -0.2974449 -0.1418235 -0.06974047 0.4610734  57         -9999      29.77896   1.24715    1.262401   1.307804138049309 -9999      2649.9796 
2650.1999  -9999      -9999      -9999      27.2216    -0.2828217 -0.1220238 -0.0438281 0.4958732  57         -9999      27.2216    1.256538   1.385139   1.610054737693024 -9999      2650.1796 
2650.3999  -9999      -9999      -9999      28.44327   -0.2794099 -0.1151441 -0.03266359 0.5221456  57         -9999      28.44327   1.252045   1.42665    1.641237734319262 -9999      2650.3796 
2650.5999  -9999      -9999      -9999      28.96469   -0.2850612 -0.1246814 -0.05240856 0.4736875  57         -9999      28.96469   1.254839   1.365157   1.456256254312 -9999      2650.5796 
2650.7999  -9999      -9999      -9999      27.85203   -0.2782108 -0.1146873 -0.04003543 0.4891601  57         -9999      27.85203   1.258411   1.291535   1.313224038143351 -9999      2650.7796 
2650.9999  -9999      -9999      -9999      28.63703   -0.2593055 -0.082769  0.01462162 0.6173553  57         -9999      28.63703   1.259953   1.234833   1.191692973352559 -9999      2650.9796 
2651.1999  -9999      -9999      -9999      30.14766   -0.2806135 -0.1134494 -0.03402368 0.540953   57         -9999      30.14766   1.254137   1.196879   1.104626481945803 -9999      2651.1796 
2651.3999  -9999      -9999      -9999      29.02988   -0.2965984 -0.1418169 -0.08916922 0.4116971  57         -9999      29.02988   1.216928   1.16965    1.093757365069032 -9999      2651.3796 
2651.5999  -9999      -9999      -9999      26.11815   -0.29583   -0.1438173 -0.1016413 0.36083    57         -9999      26.11815   1.19293    1.135758   1.071809374120948 -9999      2651.5796 
2651.7999  -9999      -9999      -9999      22.44845   -0.291659  -0.1403508 -0.1051144 0.3237638  57         -9999      22.44845   1.195507   1.135274   1.07521673583863 -9999      2651.7796 
2651.9999  -9999      -9999      -9999      26.07016   -0.2854567 -0.1315701 -0.09672933 0.319795   57         -9999      26.07016   1.192579   1.16879    1.14740377146275 -9999      2651.9796 
2652.1999  -9999      -9999      -9999      26.50998   -0.2860272 -0.1335059 -0.1062151 0.2786189  57         -9999      26.50998   1.185569   1.20998    1.244140596434392 -9999      2652.1796 
2652.3999  -9999      -9999      -9999      30.53649   -0.3001085 -0.1594117 -0.1610737 0.1197247  57         -9999      30.53649   1.180538   1.240896   1.339721926944626 -9999      2652.3796 
2652.5999  -9999      -9999      -9999      34.12996   -0.2881904 -0.1446432 -0.1491148 0.08817855 57         -9999      34.12996   1.179982   1.255015   1.39156063757877 -9999      2652.5795 
2652.7999  -9999      -9999      -9999      31.63023   -0.2664247 -0.1101204 -0.09679445 0.166703   57         -9999      31.63023   1.176659   1.259074   1.406552564015789 -9999      2652.7795 
2652.9999  -9999      -9999      -9999      35.03273   -0.2689104 -0.1129235 -0.1047698 0.1302443  57         -9999      35.03273   1.177756   1.264055   1.421610047755212 -9999      2652.9795 
2653.1999  -9999      -9999      -9999      34.43266   -0.2610042 -0.09915355 -0.08425294 0.1567997  57         -9999      34.43266   1.177729   1.268044   1.433354235727989 -9999      2653.1795 
2653.3999  -9999      -9999      -9999      32.09809   -0.2697019 -0.1137359 -0.1148295 0.06456709 57         -9999      32.09809   1.176194   1.271987   1.446586077493606 -9999      2653.3795 
2653.5999  -9999      -9999      -9999      31.43563   -0.2588643 -0.09700675 -0.09241771 0.08120506 57         -9999      31.43563   1.174903   1.276266   1.458621698012139 -9999      2653.5795 
2653.7999  -9999      -9999      -9999      30.49419   -0.2418852 -0.06752875 -0.04301716 0.1774987  57         -9999      30.49419   1.174864   1.278088   1.46384297270351 -9999      2653.7795 
2653.9999  -9999      -9999      -9999      27.06702   -0.2443327 -0.06808645 -0.04207373 0.1862438  57         -9999      27.06702   1.185446   1.243121   1.408067080011338 -9999      2653.9795 
2654.1999  -9999      -9999      -9999      29.84865   -0.2508147 -0.07729931 -0.05914739 0.1473122  57         -9999      29.84865   1.22793    1.199347   1.561709843355808 -9999      2654.1795 
2654.3999  -9999      -9999      -9999      34.77588   -0.2501101 -0.07551342 -0.0586121 0.142683   57         -9999      34.77588   1.220308   1.225577   1.417689837488648 -9999      2654.3795 
2654.5999  -9999      -9999      -9999      36.06005   -0.2571923 -0.08707152 -0.08240182 0.08146794 57         -9999      36.06005   1.200794   1.347183   1.567469880782056 -9999      2654.5795 
2654.7999  -9999      -9999      -9999      33.72242   -0.2512597 -0.07726133 -0.06903291 0.1039285  57         -9999      33.72242   1.199091   1.349937   1.570357836555558 -9999      2654.7795 
2654.9999  -9999      -9999      -9999      31.1574    -0.2623756 -0.09581238 -0.105603  0.01524641 57         -9999      31.1574    1.1987     1.351377   1.573281599200658 -9999      2654.9795 
2655.1999  -9999      -9999      -9999      30.74258   -0.2627709 -0.09802656 -0.1164788 -0.02978617 57         -9999      30.74258   1.197667   1.352213   1.575698410172407 -9999      2655.179493438321
2655.3999  -9999      -9999      -9999      32.97806   -0.2550294 -0.0866742 -0.1035595 -0.0190826 57         -9999      32.97806   1.197313   1.35274    1.578308700373855 -9999      2655.3794 
2655.5999  -9999      -9999      -9999      31.50679   -0.2612213 -0.09740927 -0.1277567 -0.08435316 57         -9999      31.50679   1.198397   1.357025   1.590845647400258 -9999      2655.5794 
2655.7999  -9999      -9999      -9999      26.7464    -0.2640007 -0.1051416 -0.1512215 -0.1644942 57         -9999      26.7464    1.213569   1.317397   1.498039060973158 -9999      2655.7794 
2655.9999  -9999      -9999      -9999      25.48712   -0.2466188 -0.07879251 -0.1136631 -0.1008289 57         -9999      25.48712   1.240258   1.209751   1.187216576158551 -9999      2655.9794 
2656.1999  -9999      -9999      -9999      25.87386   -0.2724855 -0.1222495 -0.1959383 -0.2986564 57         -9999      25.87386   1.233562   1.309305   1.366379657375535 -9999      2656.1794 
2656.3999  -9999      -9999      -9999      28.20758   -0.248219  -0.0875543 -0.1488603 -0.2351068 57         -9999      28.20758   1.226205   1.412724   1.64175596854018 -9999      2656.3794 
