~Version
 VERS              .         2.0                           : CWLS LOG ASCII STANDARD - VERSION 2.0
 WRAP              .         NO                            : ONE LINE PER DEPTH STEP
 DLM               .         SPACE                         : DELIMITING CHARACTER(SPACE TAB OR COMMA)
~Well Information
#_______________________________________________________________________________
#
#PARAMETER_NAME    .UNIT     VALUE                         : DESCRIPTION
#_______________________________________________________________________________
STRT               .m        2430.3999                     : First reference value
STOP               .m        5554.9999                     : Last reference value
STEP               .m        0.2                           : Step increment
NULL               .         -9999                         : Missing value
COMP               .         PETROLEO BRASILEIRO S/A       : Company
WELL               .         1-ESS-186_resample            : Well name
FLD                .                                       : Field
LOC                .                                       : Location
CNTY               .                                       : County
STAT               .         ESPIRITO SANTO                : State
CTRY               .                                       : Country
SRVC               .                                       : Service Company
DATE               .                                       : Date
API                .         342710339400                  : API number
EDF                .M        25.00                         : Elevation Derrick Floor
GDAT               .         SIRGAS2000                    : Geodetic Datum
HZCS               .         UTM                           : Horizontal Coordinate System
LAT                .         -20.356499                    : Latitude
LONG               .         -39.496292                    : Longitude
MC                 .         39 W                          : Meridiano Central
ORIG               .         SIGEO EXPORTACAO PERFIL       : Origem dos dados
WDMS               .M        1798.00                       : Water Depth to Mean Sea Level
XCOORD             .         448202.60                     : Surface X
YCOORD             .         7748989.80                    : Surface Y
~Parameter Information Block
#_______________________________________________________________________________
#
#PARAMETER_NAME    .UNIT     VALUE                         : DESCRIPTION
#_______________________________________________________________________________
SET                .         ESS186_resample               : 
TLFamily_CALI      .         Caliper                       : 
TLFamily_DEPT      .         Measured Depth                : 
TLFamily_DT        .         Compressional Slowness        : 
TLFamily_DTS       .         Shear Slowness                : 
TLFamily_GR        .         Gamma Ray                     : 
TLFamily_INPEFA_1  .                                       : 
TLFamily_INPEFA_2  .                                       : 
TLFamily_INPEFA_3  .                                       : 
TLFamily_INPEFA_4  .                                       : 
TLFamily_LITO      .                                       : 
TLFamily_NPHI      .         Neutron Porosity              : 
TLFamily_OG        .                                       : 
TLFamily_RESD      .         Deep Resistivity              : 
TLFamily_RESM      .         Medium Resistivity            : 
TLFamily_RESS      .         Shallow Resistivity           : 
TLFamily_RHOB      .         Bulk Density                  : 
TLFamily_TVD       .         True Vertical Depth           : 
~Curve Information
#_______________________________________________________________________________
#
#LOGNAME           .UNIT     LOG_ID                        : DESCRIPTION
#_______________________________________________________________________________
DEPT               .m                                      :  
CALI               .in                                     :  
DT                 .us/ft                                  :  
DTS                .us/ft                                  :  
GR                 .gAPI                                   : GAMMA RAY 
INPEFA_1           .                                       :  
INPEFA_2           .                                       :  
INPEFA_3           .                                       :  
INPEFA_4           .                                       :  
LITO               .Sem                                    : Não definido 
NPHI               .%                                      : THERMAL NEUTRON POROSITY (ORIGINAL RATIO METHOD) IN SELECTED LITHOLOGY 
OG                 .                                       :  
RESD               .ohm.m                                  :  
RESM               .ohm.m                                  :  
RESS               .ohm.m                                  :  
RHOB               .g/cm3                                  :  
TVD                .                                       : Vertical Depth 
~Ascii
# ...
2861.7999  -9999      -9999      -9999      59.65443   0.04929809 -0.02947897 0.1364788  0.4965557  57         -9999      59.65443   0.9201025  0.8978484  0.8742086368284843 -9999      2861.7699 
2861.9999  -9999      -9999      -9999      58.98159   0.05575893 -0.01953459 0.1526809  0.5676009  57         -9999      58.98159   0.9067264  0.8826538  0.8651010319843342 -9999      2861.9698 
2862.1999  -9999      -9999      -9999      63.76934   0.03027904 -0.06042587 0.08192793 0.4468105  57         -9999      63.76934   0.902733   0.8801665  0.8594988265989282 -9999      2862.1698 
2862.3999  -9999      -9999      -9999      61.6712    0.04066199 -0.04556723 0.1027531  0.5083421  57         -9999      61.6712    0.9008896  0.8785312  0.8570479847664163 -9999      2862.3698 
2862.5999  -9999      -9999      -9999      59.55891   0.02915512 -0.06404719 0.06929205 0.4625933  57         -9999      59.55891   0.8972425  0.8757007  0.8538299415621277 -9999      2862.5698 
2862.7999  -9999      -9999      -9999      54.71246   0.01476955 -0.09039065 0.0164966  0.3507048  57         -9999      54.71246   0.894127   0.8727338  0.8514999747276306 -9999      2862.7698 
2862.9999  -9999      -9999      -9999      58.83661   0.02837369 -0.07101261 0.04235048 0.4067199  57         -9999      58.83661   0.8873159  0.8684173  0.8508005792880775 -9999      2862.969799999999
2863.1999  -9999      -9999      -9999      61.62202   0.003764068 -0.1131067 -0.0375211 0.2291696  57         -9999      61.62202   0.8831097  0.8640459  0.8477040067641878 -9999      2863.1698 
2863.3999  -9999      -9999      -9999      54.9057    0.02661113 -0.07961605 0.01018252 0.3160977  57         -9999      54.9057    0.8766726  0.8555331  0.8369357225430483 -9999      2863.3698 
2863.5999  -9999      -9999      -9999      58.50052   0.004956071 -0.1165083 -0.06103219 0.1499107  57         -9999      58.50052   0.8658289  0.8416701  0.8186040861392915 -9999      2863.569748031496
2863.7999  -9999      -9999      -9999      58.48444   0.02452478 -0.08841249 -0.02342802 0.2060769  57         -9999      58.48444   0.8563218  0.8310883  0.8064382618911392 -9999      2863.7697 
2863.9999  -9999      -9999      -9999      60.01965   0.0262735  -0.08519466 -0.02214186 0.2057936  57         -9999      60.01965   0.8512649  0.8254908  0.8030096588932308 -9999      2863.9697 
2864.1999  -9999      -9999      -9999      60.00537   0.02780659 -0.08358658 -0.02514178 0.1931971  57         -9999      60.00537   0.8465456  0.8192418  0.7989165477987361 -9999      2864.1697 
2864.3999  -9999      -9999      -9999      66.3532    0.03766615 -0.06722765 -0.000425068 0.2498392  57         -9999      66.3532    0.8441616  0.8154923  0.7951845716987382 -9999      2864.3697 
2864.5999  -9999      -9999      -9999      63.51618   0.02299244 -0.09118332 -0.04594405 0.1524445  57         -9999      63.51618   0.8427593  0.8121163  0.7935918844885986 -9999      2864.5697 
2864.7999  -9999      -9999      -9999      63.32643   0.05612336 -0.03759786 0.04294505 0.3533705  57         -9999      63.32643   0.8430476  0.8134798  0.7949153849670118 -9999      2864.7697 
2864.9999  -9999      -9999      -9999      62.45173   0.02651993 -0.08054369 -0.02588488 0.2464993  57         -9999      62.45173   0.8612149  0.8335021  0.8203296881548911 -9999      2864.9697 
2865.1999  -9999      -9999      -9999      65.73368   0.004630016 -0.1198127 -0.1025731 0.07310043 57         -9999      65.73368   0.9237726  0.9291879  0.9277816175210433 -9999      2865.16969816273
2865.3999  -9999      -9999      -9999      64.98992   -0.004482521 -0.1391816 -0.1482458 -0.0538711 57         -9999      64.98992   0.9361299  0.9209863  0.8968621440303003 -9999      2865.3696 
2865.5999  -9999      -9999      -9999      64.66919   0.02550298 -0.09572985 -0.08627684 0.05115075 57         -9999      64.66919   0.9260569  0.8933396  0.864644334853361 -9999      2865.5696 
2865.7999  -9999      -9999      -9999      66.25914   0.007211371 -0.1243423 -0.1388091 -0.06051082 57         -9999      66.25914   0.9355955  0.912874   0.9848608871914231 -9999      2865.7696 
2865.9999  -9999      -9999      -9999      64.2893    0.01340726 -0.1181314 -0.1384377 -0.08043914 57         -9999      64.2893    0.8993025  0.8647978  0.9382087547450572 -9999      2865.9696 
2866.1999  -9999      -9999      -9999      65.45577   0.010134   -0.1251612 -0.1580748 -0.1391625 57         -9999      65.45577   0.879091   0.8405756  0.8149004851892175 -9999      2866.1696 
2866.3999  -9999      -9999      -9999      62.24626   0.01524303 -0.1191129 -0.156219  -0.1562096 57         -9999      62.24626   0.8752183  0.8354043  0.8083544955698224 -9999      2866.3696 
2866.5999  -9999      -9999      -9999      62.97831   0.03828826 -0.08244202 -0.09808768 -0.03212576 57         -9999      62.97831   0.8771746  0.8368378  0.8038385790061661 -9999      2866.5696 
2866.7999  -9999      -9999      -9999      60.75008   0.03487556 -0.0843593 -0.09837173 -0.002697242 57         -9999      60.75008   0.8814015  0.8440211  0.8075721923577052 -9999      2866.7696 
2866.9999  -9999      -9999      -9999      58.81253   0.01453011 -0.117419  -0.1580258 -0.119082  57         -9999      58.81253   0.8891988  0.859378   0.8262837490644499 -9999      2866.969517060367
2867.1999  -9999      -9999      -9999      57.92114   0.02982165 -0.09502245 -0.1258936 -0.04921138 57         -9999      57.92114   0.8971822  0.8788245  0.8546790617546428 -9999      2867.1695 
2867.3999  -9999      -9999      -9999      56.89393   0.03878331 -0.07857322 -0.09647486 0.04717463 57         -9999      56.89393   0.9006796  0.8998388  0.8930672529305961 -9999      2867.3695 
2867.5999  -9999      -9999      -9999      59.3335    0.01127697 -0.1215222 -0.1694229 -0.07667225 57         -9999      59.3335    0.9034026  0.920005   0.9312709815389521 -9999      2867.569500000001
2867.7999  -9999      -9999      -9999      55.9732    -0.003323467 -0.1506274 -0.2305701 -0.2187397 57         -9999      55.9732    0.9064809  0.9327923  0.9461802814766197 -9999      2867.7695 
2867.9999  -9999      -9999      -9999      59.25162   0.0187739  -0.1189158 -0.1853962 -0.1290272 57         -9999      59.25162   0.9091863  0.9257486  0.9307190519614805 -9999      2867.9695 
2868.1999  -9999      -9999      -9999      65.60871   -0.001343595 -0.1527079 -0.2485906 -0.2609924 57         -9999      65.60871   0.910522   0.9130722  0.9027811233022819 -9999      2868.1695 
2868.3999  -9999      -9999      -9999      68.6803    0.003602778 -0.1490336 -0.2525055 -0.2868718 57         -9999      68.6803    0.910989   0.9006258  0.8787734392389731 -9999      2868.3695 
2868.5999  -9999      -9999      -9999      61.8968    0.01424182 -0.1337007 -0.2324427 -0.2471088 57         -9999      61.8968    0.9095776  0.8942906  0.8682671760474426 -9999      2868.569467191601
2868.7999  -9999      -9999      -9999      60.34916   0.01340747 -0.1358486 -0.2400075 -0.2579069 57         -9999      60.34916   0.9057287  0.8865034  0.8574467397287189 -9999      2868.7694 
2868.9999  -9999      -9999      -9999      60.42144   0.00419527 -0.1524544 -0.2740791 -0.3352122 57         -9999      60.42144   0.9021133  0.8783825  0.8441071254162417 -9999      2868.9694 
2869.1999  -9999      -9999      -9999      60.50465   0.01499787 -0.137825  -0.2562862 -0.3081531 57         -9999      60.50465   0.9028348  0.8714919  0.8364631263512816 -9999      2869.1694 
2869.3999  -9999      -9999      -9999      58.96501   0.01843384 -0.1316607 -0.2473035 -0.281435  57         -9999      58.96501   0.9029658  0.8672535  0.8364886341139181 -9999      2869.3694 
2869.5999  -9999      -9999      -9999      54.58941   0.01522837 -0.1378162 -0.2615374 -0.3113293 57         -9999      54.58941   0.9067135  0.8684235  0.8371771653179806 -9999      2869.5694 
2869.7999  -9999      -9999      -9999      54.33239   0.02861977 -0.1160146 -0.2257652 -0.2278737 57         -9999      54.33239   0.9107233  0.8806925  0.8498430224218033 -9999      2869.7694 
