~Version
 VERS              .         2.0                           : CWLS LOG ASCII STANDARD - VERSION 2.0
 WRAP              .         NO                            : ONE LINE PER DEPTH STEP
 DLM               .         SPACE                         : DELIMITING CHARACTER(SPACE TAB OR COMMA)
~Well Information
#_______________________________________________________________________________
#
#PARAMETER_NAME    .UNIT     VALUE                         : DESCRIPTION
#_______________________________________________________________________________
STRT               .m        2430.3999                     : First reference value
STOP               .m        5554.9999                     : Last reference value
STEP               .m        0.2                           : Step increment
NULL               .         -9999                         : Missing value
COMP               .         PETROLEO BRASILEIRO S/A       : Company
WELL               .         1-ESS-186_resample            : Well name
FLD                .                                       : Field
LOC                .                                       : Location
CNTY               .                                       : County
STAT               .         ESPIRITO SANTO                : State
CTRY               .                                       : Country
SRVC               .                                       : Service Company
DATE               .                                       : Date
API                .         342710339400                  : API number
EDF                .M        25.00                         : Elevation Derrick Floor
GDAT               .         SIRGAS2000                    : Geodetic Datum
HZCS               .         UTM                           : Horizontal Coordinate System
LAT                .         -20.356499                    : Latitude
LONG               .         -39.496292                    : Longitude
MC                 .         39 W                          : Meridiano Central
ORIG               .         SIGEO EXPORTACAO PERFIL       : Origem dos dados
WDMS               .M        1798.00                       : Water Depth to Mean Sea Level
XCOORD             .         448202.60                     : Surface X
YCOORD             .         7748989.80                    : Surface Y
~Parameter Information Block
#_______________________________________________________________________________
#
#PARAMETER_NAME    .UNIT     VALUE                         : DESCRIPTION
#_______________________________________________________________________________
SET                .         ESS186_resample               : 
TLFamily_CALI      .         Caliper                       : 
TLFamily_DEPT      .         Measured Depth                : 
TLFamily_DT        .         Compressional Slowness        : 
TLFamily_DTS       .         Shear Slowness                : 
TLFamily_GR        .         Gamma Ray                     : 
TLFamily_INPEFA_1  .                                       : 
TLFamily_INPEFA_2  .                                       : 
TLFamily_INPEFA_3  .                                       : 
TLFamily_INPEFA_4  .                                       : 
TLFamily_LITO      .                                       : 
TLFamily_NPHI      .         Neutron Porosity              : 
TLFamily_OG        .                                       : 
TLFamily_RESD      .         Deep Resistivity              : 
TLFamily_RESM      .         Medium Resistivity            : 
TLFamily_RESS      .         Shallow Resistivity           : 
TLFamily_RHOB      .         Bulk Density                  : 
TLFamily_TVD       .         True Vertical Depth           : 
~Curve Information
#_______________________________________________________________________________
#
#LOGNAME           .UNIT     LOG_ID                        : DESCRIPTION
#_______________________________________________________________________________
DEPT               .m                                      :  
CALI               .in                                     :  
DT                 .us/ft                                  :  
DTS                .us/ft                                  :  
GR                 .gAPI                                   : GAMMA RAY 
INPEFA_1           .                                       :  
INPEFA_2           .                                       :  
INPEFA_3           .                                       :  
INPEFA_4           .                                       :  
LITO               .Sem                                    : Não definido 
NPHI               .%                                      : THERMAL NEUTRON POROSITY (ORIGINAL RATIO METHOD) IN SELECTED LITHOLOGY 
OG                 .                                       :  
RESD               .ohm.m                                  :  
RESM               .ohm.m                                  :  
RESS               .ohm.m                                  :  
RHOB               .g/cm3                                  :  
TVD                .                                       : Vertical Depth 
~Ascii
# ...
4722.1999  12.33323   78.76258   139.521    60.47945   0.3958125  0.1000451  0.1139426  0.04087458 54         19.95712   60.47945   2.671696   3.009982   3.435847009294015 2.558122   4721.444876902887
4722.3999  12.32228   80.14595   142.5087   68.07178   0.4304088  0.1584781  0.2141215  0.2098957  25         15.82326   68.07178   2.477607   2.738924   3.078358662113319 2.536546   4721.644388976379
4722.5999  12.34217   77.7831    138.1241   67.27659   0.4122801  0.1350969  0.1797491  0.1141666  25         14.0657    67.27659   2.617885   2.898656   3.246373671955867 2.518399   4721.843927034121
4722.7999  12.33088   73.1442    129.0105   62.27363   0.4056956  0.128383   0.1709123  0.0651059  25         15.48727   62.27363   2.973501   3.332948   3.828002234946278 2.528433   4722.043402099738
4722.9999  12.34174   71.96871   126.0475   59.32277   0.3918724  0.1080255  0.1349987  -0.05937596 25         17.03366   59.32277   3.268106   3.673696   4.266010416666745 2.554906   4722.242907874016
4723.1999  12.3456    73.14758   128.2687   63.59861   0.3921883  0.1105406  0.1369963  -0.1143301 25         16.64449   63.59861   3.267666   3.63263    4.260556437027733 2.568211   4722.442452230971
4723.3999  12.33629   74.24456   130.4139   66.66821   0.3998378  0.1242241  0.1563724  -0.1441121 52         15.51021   66.66821   3.23942    3.577995   4.174066166037836 2.563943   4722.641927296589
4723.5999  12.34395   74.76273   131.3477   63.21157   0.4343909  0.185617   0.264448   0.04263638 52         18.46071   63.21157   3.465698   3.77793    4.355957098939643 2.552567   4722.841426771654
4723.7999  12.34937   77.22348   136.5763   62.1959    0.4258542  0.1799783  0.2623437  0.01308988 52         22.28608   62.1959    3.759412   4.03698    4.603795418092066 2.532982   4723.040977427821
4723.9999  12.35153   83.49619   147.0714   70.99988   0.4355453  0.2040972  0.3122787  0.1049193  52         24.02613   70.99988   3.973619   4.222641   4.860176028499788 2.526433   4723.240452493438
4724.1999  12.3516    89.18934   156.9249   86.54199   0.4356316  0.2130156  0.337993   0.1631176  52         23.70808   86.54199   3.949393   4.190885   4.868358411856796 2.548346   4723.439945669291
4724.3999  12.34824   88.94788   157.0413   87.22034   0.4440905  0.2371027  0.3944319  0.3187117  52         22.82385   87.22034   3.600376   3.796215   4.429318181265123 2.556132   4723.639502624673
4724.5999  12.35495   85.71404   154.5201   81.47823   0.4176401  0.2075731  0.3647356  0.3228768  52         22.23299   81.47823   3.414039   3.543241   4.148695580890995 2.535087   4723.838977690289
4724.7999  12.34468   85.40154   152.6645   83.04893   0.3711884  0.1390942  0.257634   0.1249981  52         21.47093   83.04893   3.28172    3.552783   4.140474782221083 2.507997   4724.038464566929
4724.9999  12.3396    85.60659   150.9526   89.05396   0.3737341  0.1478915  0.2786987  0.1873465  52         20.30067   89.05396   3.103945   3.572554   4.100474869532635 2.502818   4724.238027821522
4725.1999  12.33859   82.4018    147.4677   86.19452   0.3372396  0.09190526 0.1847183  -0.01252984 25         22.28034   86.19452   2.971085   3.399455   3.797592111694037 2.510214   4724.437502887139
4725.3999  12.34868   79.78914   143.6987   74.61836   0.3500293  0.110316   0.2089099  0.006994815 25         24.8796    74.61836   2.742734   3.08233    3.532409344837865 2.517078   4724.636983464568
4725.5999  12.33267   81.12599   143.7618   71.26974   0.3780654  0.1601947  0.2981661  0.2107764  25         22.66518   71.26974   2.477516   2.782059   3.263777995964464 2.515561   4724.836553018374
4725.7999  12.33126   81.79692   144.1418   73.12878   0.3571837  0.1341282  0.2633345  0.1803861  25         18.23123   73.12878   2.313432   2.565827   2.958358102925418 2.511425   4725.036028083991
4725.9999  12.33515   79.25159   140.5471   75.51509   0.3629088  0.148852   0.2964081  0.3006341  25         15.52841   75.51509   2.291341   2.544463   2.826192197151941 2.518734   4725.235503149606
4726.1999  12.32806   75.45854   133.4186   75.20853   0.3333764  0.1066837  0.2323275  0.2190396  25         15.13362   75.20853   2.481194   2.768388   3.217469935282841 2.522413   4725.435078215222
4726.3999  12.32475   72.96165   127.1943   72.40499   0.3319889  0.107021   0.2362699  0.2697889  25         15.01688   72.40499   2.816041   3.183769   3.952196859489095 2.519079   4725.63455328084
4726.5999  12.33398   71.73003   124.6709   65.45645   0.3275349  0.1051579  0.2408912  0.3447102  25         15.6222    65.45645   3.063214   3.493326   4.498534171697156 2.522067   4725.834028346457
4726.7999  12.3361    71.40285   124.9533   64.78072   0.3255698  0.1075362  0.2545364  0.4584653  25         16.96575   64.78072   2.994509   3.414649   4.290615598629953 2.529873   4726.033603412074
4726.9999  12.3361    71.828     126.2852   66.54235   0.2958239  0.06593401 0.1947087  0.4305218  52         17.44808   66.54235   2.920879   3.291406   3.943564715112308 2.532079   4726.233078477691
4727.1999  12.34199   72.13323   126.1231   68.14492   0.2811523  0.0459432  0.1680099  0.4729306  52         17.10447   68.14492   2.879733   3.20364    3.772809233595276 2.539522   4726.432553543307
4727.3999  12.34269   73.14014   127.5131   67.32738   0.2444413  -0.01023292 0.07782621 0.3807741  52         16.82746   67.32738   2.932911   3.264798   3.846097529973835 2.551782   4726.632128608924
4727.5999  12.34162   74.99236   131.4982   72.3901    0.193727   -0.09512234 -0.07260912 0.1259973  52         17.59144   72.3901    2.975724   3.336713   3.976706893478789 2.543216   4726.831603674541
4727.7999  12.34469   77.11834   135.8245   83.55696   0.1641198  -0.1495732 -0.1782873 -0.05867742 52         17.5685    83.55696   3.006335   3.405795   4.042865399853514 2.523789   4727.031078740158
4727.9999  12.35149   77.1538    135.6639   86.62034   0.144887   -0.1972154 -0.2897381 -0.3306212 52         16.71088   86.62034   3.040008   3.422612   4.015035205528739 2.511084   4727.230653805775
4728.1999  12.35291   75.2019    131.9499   87.81474   0.189732   -0.1348231 -0.205126  -0.1700858 52         16.4656    87.81474   3.051868   3.41024    3.972568810268575 2.505172   4727.430128871391
4728.3999  12.35436   74.84805   131.3309   82.62135   0.1852667  -0.1466186 -0.2389492 -0.2370757 52         17.38897   82.62135   2.987007   3.339616   3.873130050273887 2.514444   4727.629603937008
4728.5999  12.35894   76.08437   133.332    73.97404   0.1987937  -0.1296165 -0.2237927 -0.2035577 52         16.99414   73.97404   2.932158   3.263937   3.774163880275334 2.534177   4727.829179002625
4728.7999  12.35093   75.72137   132.8887   74.07957   0.2116755  -0.1093402 -0.1959224 -0.122911  52         15.91355   74.07957   2.966814   3.277221   3.782882136509744 2.555764   4728.028654068242
4728.9999  12.34786   76.96375   134.6997   74.7072    0.195643   -0.1325259 -0.2379321 -0.1793058 52         17.67929   74.7072    3.004103   3.357094   3.852931987113459 2.571488   4728.228129133859
4729.1999  12.33761   80.47242   141.3359   78.17986   0.1897744  -0.144291  -0.2684429 -0.2419438 52         19.43116   78.17986   2.9503     3.283564   3.768969044029936 2.570836   4728.427703149606
4729.3999  12.34226   80.60844   144.0949   79.05689   0.2111707  -0.1094538 -0.2152183 -0.111729  52         19.0889    79.05689   2.815732   3.085917   3.490044104799492 2.548597   4728.627179265092
4729.5999  12.35404   77.74789   139.7599   79.31079   0.1895171  -0.142266  -0.2750065 -0.2156737 52         19.79285   79.31079   2.825964   3.101538   3.536532964614095 2.534395   4728.826654330709
4729.7999  12.34537   78.65591   138.8096   79.07796   0.1933146  -0.1381017 -0.278307  -0.2255488 52         21.86371   79.07796   2.971529   3.246697   3.658659876290795 2.535818   4729.026222047244
4729.9999  12.34976   82.80767   146.211    83.35677   0.2157597  -0.09921613 -0.2146466 -0.06689083 52         23.39664   83.35677   3.221396   3.459689   3.882427287506888 2.536038   4729.225704461943
