~Version
 VERS              .         2.0                           : CWLS LOG ASCII STANDARD - VERSION 2.0
 WRAP              .         NO                            : ONE LINE PER DEPTH STEP
 DLM               .         SPACE                         : DELIMITING CHARACTER(SPACE TAB OR COMMA)
~Well Information
#_______________________________________________________________________________
#
#PARAMETER_NAME    .UNIT     VALUE                         : DESCRIPTION
#_______________________________________________________________________________
STRT               .m        1880.5999                     : First reference value
STOP               .m        5405.7999                     : Last reference value
STEP               .m        0.2                           : Step increment
NULL               .         -9999                         : Missing value
COMP               .         PETROLEO BRASILEIRO S/A       : Company
WELL               .         1-ESS-86A_resample            : Well name
FLD                .                                       : Field
LOC                .                                       : Location
CNTY               .                                       : County
STAT               .         ESPIRITO SANTO                : State
CTRY               .                                       : Country
SRVC               .                                       : Service Company
DATE               .                                       : Date
API                .         342710051600                  : API number
EDF                .M        14.00                         : Elevation Derrick Floor
GDAT               .         SIRGAS2000                    : Geodetic Datum
HZCS               .         UTM                           : Horizontal Coordinate System
LMF                .         MR                            : Log Measure From
LATI               .         -20_24_56.411                 : Latitude
LONG               .         -39_29_19.989                 : Longitude
MC                 .         39 W                          : Meridiano Central
ORIG               .         SIGEO EXPORTACAO PERFIL       : Origem dos dados
ORIGINALWELLNAME   .         1ESS 0086A ES                 : 
WDMS               .M        1841.00                       : Water Depth to Mean Sea Level
X                  .         448953.89                     : Surface X
Y                  .         7742410.09                    : Surface Y
~Parameter Information Block
#_______________________________________________________________________________
#
#PARAMETER_NAME    .UNIT     VALUE                         : DESCRIPTION
#_______________________________________________________________________________
SET                .         ESS86A_resample               : 
TLFamily_CALI      .         Caliper                       : 
TLFamily_DEPT      .         Measured Depth                : 
TLFamily_DT        .         Compressional Slowness        : 
TLFamily_GR        .         Gamma Ray                     : 
TLFamily_HDRS      .         Deep Resistivity              : 
TLFamily_INPEFA_1  .                                       : 
TLFamily_INPEFA_2  .                                       : 
TLFamily_INPEFA_3  .                                       : 
TLFamily_INPEFA_4  .                                       : 
TLFamily_LITO      .                                       : 
TLFamily_NPHI      .         Neutron Porosity              : 
TLFamily_RHOB      .         Bulk Density                  : 
~Curve Information
#_______________________________________________________________________________
#
#LOGNAME           .UNIT     LOG_ID                        : DESCRIPTION
#_______________________________________________________________________________
DEPT               .m                                      :  
CALI               .in                                     : CALIPER 1 CYLINDERDIAMETER 
DT                 .us/ft                                  : DELTA-T (ALSO CALLED SLOWNESS OR INTERVAL TRANSIT TIME) 
GR                 .gAPI                                   : GAMMA RAY 
HDRS               .ohm.m                                  : INDUCTION DEEP RESISTIVITY 
INPEFA_1           .                                       :  
INPEFA_2           .                                       :  
INPEFA_3           .                                       :  
INPEFA_4           .                                       :  
LITO               .                                       :  
NPHI               .%                                      : THERMAL NEUTRON POROSITY (ORIGINAL RATIO METHOD) IN SELECTED LITHOLOGY 
RHOB               .g/cm3                                  : BULK DENSITY 
~Ascii
# ...
2815.5999  18.5638    139.1518   111.7249   0.8687999844551086 0.0940024  -0.01026921 0.09036607 -0.08460589 49         37.4856    2.136     
2815.7999  18.5124    138.1224   107.8096   0.8704000115394592 0.09260686 -0.01067093 0.09303801 -0.06762455 49         39.2969    2.1338    
2815.9999  18.5124    129.2577   109.1506   0.8777999877929688 0.08040593 -0.03399243 0.05559182 -0.1288771 49         37.9478    2.1322    
2816.1999  18.5467    124.6205   109.3912   0.8827999830245972 0.07151481 -0.04963471 0.03261237 -0.1587368 49         35.2577    2.1304    
2816.3999  18.5981    131.5459   108.8794   0.8744000196456909 0.05555398 -0.08095116 -0.01886234 -0.2474521 49         36.5267    2.1281    
2816.5999  18.5895    132.0501   107.0741   0.8689000010490418 0.05157483 -0.09090882 -0.03935331 -0.2973415 49         38.5738    2.1303    
2816.7999  18.5467    133.1935   104.1805   0.8758999705314636 0.05070757 -0.09441099 -0.04918695 -0.3313408 49         37.4862    2.1291    
2816.9999  18.521     129.5961   104.8996   0.8845999836921692 0.04774005 -0.09942136 -0.05752736 -0.3514991 49         37.8779    2.1338    
2817.1999  18.5724    124.1615   102.6304   0.8960000276565552 0.04154428 -0.1136478 -0.08536889 -0.4203993 49         36.976     2.129     
2817.3999  18.6409    126.6119   102.7578   0.9059000015258789 0.04161575 -0.1169631 -0.09825363 -0.4770604 49         37.6122    2.1267    
2817.5999  18.6837    128.942    101.4475   0.9160000085830689 0.04979058 -0.10047   -0.0732662 -0.4548108 49         37.194     2.1246    
2817.7999  18.7437    127.5315   104.3394   0.9254000186920166 0.06085971 -0.07716241 -0.03513219 -0.4037647 49         34.0311    2.1397    
2817.9999  18.7437    125.7831   106.3539   0.949400007724762 0.08797251 -0.0186581 0.06686122 -0.2195368 49         33.0312    2.1432    
2818.1999  18.6495    121.8521   104.3888   1.010300040245056 0.08342896 -0.02422874 0.06195454 -0.225822  49         33.211     2.154     
2818.3999  18.5381    124.4806   102.0867   1.147600054740906 0.08250155 -0.02035317 0.07609635 -0.1882244 49         31.5913    2.2054    
2818.5999  18.4696    115.0042   104.1161   1.312700033187866 0.1031152  0.02807843 0.1674475  0.001629163 49         31.3745    2.185     
2818.7999  18.4439    103.2905   107.9995   1.281000018119812 0.08780558 0.000704887 0.1275585  -0.05676135 49         33.641     2.1656    
2818.9999  18.3754    114.2646   113.4979   1.137799978256226 0.1044529  0.0424176  0.2103448  0.1291255  49         37.6928    2.0996    
2819.1999  18.3069    120.0741   115.4965   1.007699966430664 0.09695892 0.03607479 0.2147062  0.1842445  49         39.1717    2.0898    
2819.3999  18.2812    122.4655   117.2225   0.9254000186920166 0.09658926 0.04270045 0.2393582  0.2756667  49         37.0974    2.1062    
2819.5999  18.2555    124.3575   117.0792   0.9214000105857849 0.07271897 0.000809686 0.1811789  0.2130715  49         37.0169    2.133     
2819.7999  18.2469    126.9653   114.4903   0.9459999799728394 0.04999137 -0.0428502 0.113174   0.1084655  49         37.2217    2.1208    
2819.9999  18.2555    126.3143   111.4214   0.9330000281333923 0.04867721 -0.04289401 0.1183898  0.1350907  49         38.3352    2.1136    
2820.1999  18.2555    129.5384   109.4072   0.8745999932289124 0.04107208 -0.05923979 0.09059627 0.08195081 49         37.6804    2.1049    
2820.3999  18.2469    132.4732   107.9049   0.8695999979972839 0.05385638 -0.02809863 0.1513168  0.2141602  49         35.0857    2.1165    
2820.5999  18.2383    134.1026   105.06     0.9315000176429749 0.04148083 -0.04820101 0.126356   0.1948173  49         34.9229    2.1275    
2820.7999  18.1698    140.5681   100.521    0.9904999732971191 0.03791692 -0.0545234 0.1185106  0.1882863  49         36.4508    2.1332    
2820.9999  18.0842    133.7638   93.0412    1.046000003814697 0.03628746 -0.05468388 0.1238322  0.2117938  49         37.0036    2.1431    
2821.1999  18.0156    130.45     91.3457    1.006100058555603 0.03597907 -0.05065306 0.1387641  0.2616693  49         39.3193    2.1234    
2821.3999  18.0499    133.9964   93.551     0.9096999764442444 0.02742963 -0.06601322 0.1176016  0.2373239  49         39.8605    2.119     
2821.5999  18.2897    133.4486   95.0374    0.8654999732971191 0.02128932 -0.07760517 0.10066    0.2122299  49         41.5654    2.1315    
2821.7999  18.5467    133.6311   100.1037   0.8499000072479248 0.01496416 -0.08872354 0.08538532 0.1902881  49         40.6911    2.1166    
2821.9999  18.3497    137.0558   99.1779    0.8801000118255615 0.01256857 -0.09244689 0.08180915 0.1871105  49         37.0116    2.1309    
2822.1999  17.99      131.4355   102.0219   0.9891999959945679 0.01805238 -0.07995941 0.10594    0.2358842  49         37.3818    2.1497    
2822.3999  17.93      126.7534   103.7967   1.025599956512451 0.01979161 -0.07312334 0.1236844  0.2831977  49         36.2422    2.1573    
2822.5999  17.9642    131.2696   109.4534   0.9754999876022339 0.01172205 -0.0863484 0.1079414  0.2720808  49         35.7112    2.1443    
2822.7999  18.0328    133.8591   116.982    0.9613999724388123 0.000946544 -0.1088154 0.07092223 0.2036055  49         38.5108    2.1426    
2822.9999  18.0842    133.0065   119.5721   0.9294999837875366 0.001559129 -0.1073888 0.0744675  0.2058394  49         39.7265    2.1164    
2823.1999  18.3925    129.6537   118.2466   0.8902000188827515 0.0199991  -0.06513519 0.1540978  0.3705933  49         40.6243    2.0869    
2823.3999  18.8892    127.7188   110.4311   0.876800000667572 0.01045635 -0.08010501 0.1378274  0.3656766  49         38.7876    2.0779    
2823.5999  19.1034    130.1357   107.2656   0.8729000091552734 0.00239217 -0.09411465 0.1197265  0.3452591  49         39.6017    2.0824    
2823.7999  19.2319    133.3197   106.0347   0.8744999766349793 0.006713885 -0.08239092 0.1451982  0.4021171  49         42.2041    2.093     
2823.9999  19.2576    133.6892   106.9932   0.8655999898910523 0.02190485 -0.04331404 0.2255214  0.590268   49         42.5729    2.0826    
2824.1999  18.8808    136.4792   107.5848   0.8454999923706055 -0.008342315 -0.1008182 0.1377656  0.4591222  49         41.8111    2.0452    
2824.3999  18.5382    131.7402   108.0164   0.867900013923645 -0.01266343 -0.1079599 0.1301339  0.4554047  49         40.8606    2.039     
2824.5999  18.6494    127.086    109.2309   0.8970999717712402 -0.02945105 -0.1411643 0.07665364 0.3574813  49         40.829     2.0581    
2824.7999  18.6838    134.0163   110.6693   0.9301999807357788 -0.02721706 -0.1367171 0.08499281 0.3662933  49         39.3814    2.0904    
2824.9999  18.3669    130.9337   110.9414   0.9617000222206116 -0.01746945 -0.1136017 0.130021   0.4593122  49         39.145     2.0946    
2825.1999  18.3839    128.7514   108.5765   0.9616000056266785 -0.02294545 -0.1214107 0.1236701  0.4639218  57         41.6872    2.0904    
2825.3999  18.6923    132.0607   106.3064   0.960099995136261 -0.04460634 -0.1641591 0.05567176 0.349899   57         41.9078    2.0483    
2825.5999  18.8978    128.785    106.3861   0.8917999863624573 -0.06119696 -0.2024281 -0.01431613 0.1991086  57         44.7179    1.9621    
2825.7999  18.9578    129.1105   108.6552   0.7361999750137329 -0.0573242 -0.1970448 -0.008742585 0.1875744  57         46.4942    1.9428    
2825.9999  18.7523    134.8321   110.222    0.7731000185012817 -0.04324798 -0.1697943 0.03584518 0.2556585  57         43.0684    1.9955    
2826.1999  18.4268    132.9615   106.5627   1.035899996757507 -0.03587304 -0.1516997 0.0726045  0.33748    57         41.1604    2.0842    
2826.3999  18.3154    129.5986   104.8041   1.072499990463257 -0.04662777 -0.1729231 0.04006122 0.2863545  57         45.2948    2.0469    
2826.5999  18.8721    136.7346   105.091    0.9071999788284302 -0.06531753 -0.2082043 -0.0130326 0.2085311  57         47.6377    2.0515    
2826.7999  19.4974    141.9997   106.2103   0.8271999955177307 -0.1041526 -0.2931854 -0.1631968 -0.08924594 57         42.6427    2.0906    
