~Version
 VERS              .         2.0                           : CWLS LOG ASCII STANDARD - VERSION 2.0
 WRAP              .         NO                            : ONE LINE PER DEPTH STEP
 DLM               .         SPACE                         : DELIMITING CHARACTER(SPACE TAB OR COMMA)
~Well Information
#_______________________________________________________________________________
#
#PARAMETER_NAME    .UNIT     VALUE                         : DESCRIPTION
#_______________________________________________________________________________
STRT               .m        2062.5046                     : First reference value
STOP               .m        6413.5046                     : Last reference value
STEP               .m        0.2                           : Step increment
NULL               .         -9999                         : Missing value
COMP               .         PETROLEO BRASILEIRO S/A       : Company
WELL               .         1-ESS-120_resample            : Well name
FLD                .                                       : Field
LOC                .                                       : Location
CNTY               .                                       : County
STAT               .         ESPIRITO SANTO                : State
CTRY               .                                       : Country
SRVC               .                                       : Service Company
DATE               .                                       : Date
API                .         342710278300                  : API number
EDF                .M        25.00                         : Elevation Derrick Floor
ELEV               .M        25.0000                       : Surface Elev
ELEV_TYPE          .         KB                            : Elev Type
GDAT               .         SIRGAS2000                    : Geodetic Datum
HZCS               .         UTM                           : Horizontal Coordinate System
LAT                .         -20.620145                    : Latitude
LMF                .         MR                            : Log Measure From
LON                .         -39.512655                    : Longitude
LATI               .         -20_37_15.239                 : Latitude
LONG               .         -39_30_38.085                 : Longitude
MC                 .         39 W                          : Meridiano Central
ORIG               .         SIGEO EXPORTACAO PERFIL       : Origem dos dados
ORIGINALWELLNAME   .         1ESS 0120  ES                 : 
WDMS               .M        2003.00                       : Water Depth to Mean Sea Level
X                  .         446729.00                     : Surface X
XCOORD             .         446584.000000                 : Surface X
Y                  .         7719623.00                    : Surface Y
YCOORD             .         7719778.000000                : Surface Y
~Parameter Information Block
#_______________________________________________________________________________
#
#PARAMETER_NAME    .UNIT     VALUE                         : DESCRIPTION
#_______________________________________________________________________________
SET                .         ESS120_resample               : 
TLFamily_CALI      .         Caliper                       : 
TLFamily_DEPT      .         Measured Depth                : 
TLFamily_DTCO      .         Compressional Slowness        : 
TLFamily_GR        .         Gamma Ray                     : 
TLFamily_INPEFA_1  .                                       : 
TLFamily_INPEFA_2  .                                       : 
TLFamily_INPEFA_3  .                                       : 
TLFamily_INPEFA_4  .                                       : 
TLFamily_LITO      .                                       : 
TLFamily_LLD       .         Deep Resistivity              : 
TLFamily_NPHI      .         Neutron Porosity              : 
TLFamily_OG        .                                       : 
TLFamily_RHOB_merge .         Bulk Density                  : 
~Curve Information
#_______________________________________________________________________________
#
#LOGNAME           .UNIT     LOG_ID                        : DESCRIPTION
#_______________________________________________________________________________
DEPT               .m                                      :  
CALI               .in                                     : CALIPER 
DTCO               .us/ft                                  : DELTA-T COMPRESSIONAL 
GR                 .gAPI                                   : GAMMA RAY 
INPEFA_1           .                                       :  
INPEFA_2           .                                       :  
INPEFA_3           .                                       :  
INPEFA_4           .                                       :  
LITO               .                                       :  
LLD                .ohm.m                                  : LATEROLOG DEEP RESISTIVITY 
NPHI               .%                                      : THERMAL NEUTRON POROSITY (ORIGINAL RATIO METHOD) IN SELECTED LITHOLOGY 
OG                 .                                       :  
RHOB_merge         .g/cm3                                  :  
~Ascii
# ...
4138.704600000001 -9999      92.63139   104.283    0.1384497  -0.210578  -0.1805656 -0.01804727 57         -9999      26.78969   104.283    2.459449  
4138.9046  -9999      93.03993   108.6302   0.1386885  -0.2074203 -0.1742457 -0.001084486 57         -9999      27.43793   108.6302   2.469828  
4139.104600000001 -9999      93.64708   115.0123   0.1287843  -0.2322897 -0.2130438 -0.05362894 57         -9999      27.67114   115.0123   2.487458  
4139.3046  -9999      94.05332   116.6055   0.1289183  -0.2341017 -0.2216192 -0.07712425 57         -9999      28.56211   116.6055   2.452497  
4139.5046  -9999      94.2165    115.045    0.1292119  -0.2343435 -0.2268638 -0.09599532 57         -9999      29.78791   115.045    2.458941  
4139.704600000001 -9999      93.9436    120.6646   0.1352575  -0.2185306 -0.2060807 -0.07545488 57         -9999      30.0422    120.6646   2.444452  
4139.9046  -9999      93.45087   123.3762   0.1300799  -0.2313613 -0.228478  -0.1152002 57         -9999      31.12128   123.3762   2.5147    
4140.104600000001 -9999      92.76316   115.7001   0.1365071  -0.216098  -0.2112416 -0.106756  57         -9999      28.8724    115.7001   2.476622  
4140.3046  -9999      92.28674   105.384    0.1356701  -0.2170634 -0.2153026 -0.1216984 57         -9999      28.5774    105.384    2.483898  
4140.5046  -9999      91.85962   102.9844   0.1394879  -0.2077447 -0.2062702 -0.1233305 57         -9999      27.59534   102.9844   2.483061  
4140.704600000001 -9999      91.34695   101.8693   0.143227   -0.1969939 -0.1929442 -0.113767  57         -9999      28.54832   101.8693   2.48197   
4140.9046  -9999      91.12769   104.3128   0.1393894  -0.2064607 -0.2111129 -0.149647  57         -9999      30.16852   104.3128   2.474008  
4141.104600000001 -9999      91.36078   105.315    0.1428041  -0.1986097 -0.2052748 -0.1575896 57         -9999      29.97196   105.315    2.497059  
4141.3046  -9999      92.02082   108.7725   0.1496021  -0.1798956 -0.1798834 -0.1301234 57         -9999      28.86794   108.7725   2.484671  
4141.5046  -9999      92.89316   112.2596   0.1324118  -0.2236399 -0.2503121 -0.2398456 57         -9999      30.49089   112.2596   2.480626  
4141.704600000001 -9999      93.87952   110.871    0.1407218  -0.206772  -0.2365749 -0.2510809 57         -9999      29.68717   110.871    2.479175  
4141.9046  -9999      94.73006   107.6016   0.1595889  -0.1580275 -0.1674844 -0.1678685 57         -9999      31.22894   107.6016   2.464829  
4142.104600000001 -9999      95.18474   110.6815   0.1433799  -0.1951004 -0.2220402 -0.2422552 57         -9999      33.92202   110.6815   2.465862  
4142.3046  -9999      95.08205   114.8188   0.143632   -0.1989442 -0.2385836 -0.2913072 57         -9999      34.62318   114.8188   2.472561  
4142.5046  -9999      94.91354   114.4233   0.1579295  -0.1633397 -0.1916714 -0.2460794 57         -9999      31.75189   114.4233   2.469497  
4142.704600000001 -9999      94.6072    109.4929   0.1627816  -0.1476808 -0.1682151 -0.2158545 57         -9999      29.04205   109.4929   2.478481  
4142.9046  -9999      94.5235    107.4959   0.1667534  -0.1360578 -0.1518322 -0.1950667 57         -9999      27.53285   107.4959   2.479219  
4143.104600000001 -9999      95.43222   106.2903   0.160322   -0.1501966 -0.1737162 -0.2273341 57         -9999      28.87702   106.2903   2.46473   
4143.3046  -9999      96.5317    105.3331   0.1713648  -0.1222741 -0.1352522 -0.1818386 57         -9999      30.41214   105.3331   2.472602  
4143.5046  -9999      97.16228   104.0255   0.1757159  -0.1066981 -0.1086026 -0.1367108 57         -9999      31.96915   104.0255   2.470824  
4143.704600000001 -9999      97.14598   102.9119   0.1732461  -0.1095869 -0.1100361 -0.1295494 57         -9999      31.69536   102.9119   2.470702  
4143.9046  -9999      96.05607   104.3842   0.1767378  -0.09754867 -0.0897562 -0.09402419 57         -9999      30.39873   104.3842   2.471006  
4144.104600000001 -9999      94.01236   105.6566   0.1680203  -0.1170895 -0.1175532 -0.1266123 57         -9999      30.39422   105.6566   2.457504  
4144.3046  -9999      92.38908   103.637    0.1725668  -0.104276  -0.09934322 -0.1019087 57         -9999      32.63945   103.637    2.469184  
4144.5046  -9999      92.01828   107.9847   0.1589703  -0.1369916 -0.149034  -0.170867  57         -9999      31.56373   107.9847   2.500834  
4144.704600000001 -9999      92.21545   110.8755   0.1654754  -0.1249791 -0.1407877 -0.1825116 57         -9999      27.10504   110.8755   2.454696  
4144.9046  -9999      92.07923   101.6918   0.1883919  -0.06422883 -0.05012766 -0.06120405 57         -9999      25.6434    101.6918   2.457061  
4145.104600000001 -9999      91.93999   99.13152   0.1902378  -0.05341461 -0.02747678 -0.01319033 57         -9999      27.20349   99.13152   2.456086  
4145.3046  -9999      92.23984   105.0322   0.1822052  -0.06727909 -0.0410006 -0.01118032 57         -9999      28.90329   105.0322   2.441935  
4145.5046  -9999      92.73275   103.7812   0.1752285  -0.08592026 -0.07144141 -0.05376065 57         -9999      32.59819   103.7812   2.487984  
4145.704600000001 -9999      93.01691   97.14256   0.1777872  -0.07706431 -0.05809944 -0.03422299 57         -9999      33.53317   97.14256   2.496144  
4145.9046  -9999      93.27399   93.9242    0.1799201  -0.07239009 -0.05419229 -0.03327791 57         -9999      29.91071   93.9242    2.487152  
4146.104600000001 -9999      93.27872   98.54152   0.188317   -0.04686164 -0.01288926 0.03142951 57         -9999      27.9971    98.54152   2.477759  
4146.3046  -9999      93.06089   100.3285   0.1838079  -0.05587089 -0.02446504 0.02287375 57         -9999      28.10659   100.3285   2.492025  
4146.5046  -9999      92.73756   97.57349   0.1956936  -0.02352545 0.02508952 0.09568792 57         -9999      28.52163   97.57349   2.48806   
4146.704600000001 -9999      92.60527   97.40134   0.1942396  -0.02129457 0.03512603 0.1276151  57         -9999      28.37179   97.40134   2.474833  
4146.9046  -9999      92.75269   99.83853   0.1937113  -0.02023463 0.0389428  0.142398   57         -9999      28.37654   99.83853   2.493008  
4147.104600000001 -9999      93.18394   104.5127   0.2059879  0.01590558 0.09878796 0.2423906  57         -9999      29.27641   104.5127   2.498497  
4147.3046  -9999      93.27326   106.3151   0.1978486  0.002051374 0.08715604 0.2543187  57         -9999      30.03931   106.3151   2.485542  
4147.5046  -9999      93.29326   109.899    0.1937414  -0.006415243 0.07638662 0.2518032  57         -9999      31.57322   109.899    2.491471  
4147.704600000001 -9999      93.35605   109.6374   0.1991375  0.01087284 0.1062605  0.3093952  57         -9999      33.39654   109.6374   2.490799  
4147.9046  -9999      93.44611   97.9552    0.1870174  -0.01588743 0.07064136 0.2780137  57         -9999      33.20671   97.9552    2.487103  
4148.104600000001 -9999      93.55913   87.24653   0.1926195  -0.000985175 0.09224958 0.3140971  57         -9999      32.36789   87.24653   2.50656   
4148.3046  -9999      93.79353   91.89481   0.1785464  -0.03363559 0.04553435 0.261789   57         -9999      28.24374   91.89481   2.517838  
4148.5046  -9999      94.27096   103.9617   0.182091   -0.0261549 0.05243115 0.2671337  57         -9999      28.27099   103.9617   2.496015  
4148.704600000001 -9999      95.02392   109.9261   0.1885269  -0.006166654 0.08443212 0.3204833  57         -9999      27.81265   109.9261   2.465997  
4148.9046  -9999      95.53477   106.704    0.1795464  -0.02648725 0.055045   0.2897508  57         -9999      29.15583   106.704    2.500177  
4149.104600000001 -9999      95.3784    100.1639   0.1641917  -0.06662835 -0.01042952 0.1924081  57         -9999      29.0952    100.1639   2.494786  
4149.3046  -9999      94.56463   98.41579   0.1751034  -0.04126842 0.02011351 0.2199949  57         -9999      28.82953   98.41579   2.481248  
4149.5046  -9999      93.75797   96.54086   0.1655584  -0.06582366 -0.02215214 0.1499144  57         -9999      32.32937   96.54086   2.465753  
