~Version
 VERS              .         2.0                           : CWLS LOG ASCII STANDARD - VERSION 2.0
 WRAP              .         NO                            : ONE LINE PER DEPTH STEP
 DLM               .         SPACE                         : DELIMITING CHARACTER(SPACE TAB OR COMMA)
~Well Information
#_______________________________________________________________________________
#
#PARAMETER_NAME    .UNIT     VALUE                         : DESCRIPTION
#_______________________________________________________________________________
STRT               .m        2062.5046                     : First reference value
STOP               .m        6413.5046                     : Last reference value
STEP               .m        0.2                           : Step increment
NULL               .         -9999                         : Missing value
COMP               .         PETROLEO BRASILEIRO S/A       : Company
WELL               .         1-ESS-120_resample            : Well name
FLD                .                                       : Field
LOC                .                                       : Location
CNTY               .                                       : County
STAT               .         ESPIRITO SANTO                : State
CTRY               .                                       : Country
SRVC               .                                       : Service Company
DATE               .                                       : Date
API                .         342710278300                  : API number
EDF                .M        25.00                         : Elevation Derrick Floor
ELEV               .M        25.0000                       : Surface Elev
ELEV_TYPE          .         KB                            : Elev Type
GDAT               .         SIRGAS2000                    : Geodetic Datum
HZCS               .         UTM                           : Horizontal Coordinate System
LAT                .         -20.620145                    : Latitude
LMF                .         MR                            : Log Measure From
LON                .         -39.512655                    : Longitude
LATI               .         -20_37_15.239                 : Latitude
LONG               .         -39_30_38.085                 : Longitude
MC                 .         39 W                          : Meridiano Central
ORIG               .         SIGEO EXPORTACAO PERFIL       : Origem dos dados
ORIGINALWELLNAME   .         1ESS 0120  ES                 : 
WDMS               .M        2003.00                       : Water Depth to Mean Sea Level
X                  .         446729.00                     : Surface X
XCOORD             .         446584.000000                 : Surface X
Y                  .         7719623.00                    : Surface Y
YCOORD             .         7719778.000000                : Surface Y
~Parameter Information Block
#_______________________________________________________________________________
#
#PARAMETER_NAME    .UNIT     VALUE                         : DESCRIPTION
#_______________________________________________________________________________
SET                .         ESS120_resample               : 
TLFamily_CALI      .         Caliper                       : 
TLFamily_DEPT      .         Measured Depth                : 
TLFamily_DTCO      .         Compressional Slowness        : 
TLFamily_GR        .         Gamma Ray                     : 
TLFamily_INPEFA_1  .                                       : 
TLFamily_INPEFA_2  .                                       : 
TLFamily_INPEFA_3  .                                       : 
TLFamily_INPEFA_4  .                                       : 
TLFamily_LITO      .                                       : 
TLFamily_LLD       .         Deep Resistivity              : 
TLFamily_NPHI      .         Neutron Porosity              : 
TLFamily_OG        .                                       : 
TLFamily_RHOB_merge .         Bulk Density                  : 
~Curve Information
#_______________________________________________________________________________
#
#LOGNAME           .UNIT     LOG_ID                        : DESCRIPTION
#_______________________________________________________________________________
DEPT               .m                                      :  
CALI               .in                                     : CALIPER 
DTCO               .us/ft                                  : DELTA-T COMPRESSIONAL 
GR                 .gAPI                                   : GAMMA RAY 
INPEFA_1           .                                       :  
INPEFA_2           .                                       :  
INPEFA_3           .                                       :  
INPEFA_4           .                                       :  
LITO               .                                       :  
LLD                .ohm.m                                  : LATEROLOG DEEP RESISTIVITY 
NPHI               .%                                      : THERMAL NEUTRON POROSITY (ORIGINAL RATIO METHOD) IN SELECTED LITHOLOGY 
OG                 .                                       :  
RHOB_merge         .g/cm3                                  :  
~Ascii
# ...
4721.704600000001 -9999      88.99282   114.6979   0.2856127  0.190393   0.2138102  0.24105    48         -9999      28.69246   114.6979   2.45277   
4721.9046  -9999      85.89865   112.3354   0.2712324  0.1672901  0.2070761  0.285176   48         -9999      26.08583   112.3354   2.52637   
4722.104600000001 -9999      84.73035   106.6813   0.2442976  0.1099057  0.1445262  0.2421863  57         -9999      26.38394   106.6813   2.514881  
4722.3046  -9999      83.99018   108.2085   0.2442503  0.1099692  0.1531542  0.265422   57         -9999      23.83199   108.2085   2.457612  
4722.5046  -9999      83.98795   122.3899   0.2474535  0.1252566  0.1925175  0.3472847  57         -9999      22.40194   122.3899   2.519452  
4722.704600000001 -9999      81.33373   133.389    0.2190259  0.05723535 0.1025561  0.2431168  57         -9999      24.38353   133.389    2.511548  
4722.9046  -9999      79.12174   128.7551   0.2333947  0.09110193 0.1552969  0.3148782  57         -9999      24.3539    128.7551   2.543291  
4723.104600000001 -9999      77.95494   130.9019   0.2201845  0.0648559  0.1313678  0.3116972  57         -9999      24.28634   130.9019   2.560741  
4723.3046  -9999      77.65604   136.6315   0.2005273  0.01354965 0.05885017 0.2197609  57         -9999      21.33039   136.6315   2.562601  
4723.5046  -9999      77.62969   129.3502   0.2050587  0.02385587 0.07771438 0.2466826  57         -9999      17.05037   129.3502   2.510764  
4723.704600000001 -9999      75.80102   116.0417   0.1964005  0.003470354 0.05423566 0.2226116  57         -9999      16.28994   116.0417   2.522616  
4723.9046  -9999      74.74667   116.4811   0.1913002  -0.01037638 0.03672663 0.1970607  57         -9999      18.47943   116.4811   2.524028  
4724.104600000001 -9999      75.80798   127.2053   0.1865855  -0.02282735 0.02144477 0.1732676  57         -9999      19.9012    127.2053   2.534865  
4724.3046  -9999      76.33595   132.7059   0.1921067  -0.008493384 0.04741782 0.2079728  57         -9999      19.03456   132.7059   2.564021  
4724.5046  -9999      78.50531   123.8548   0.1858198  -0.02270293 0.0325187  0.1907205  57         -9999      19.67981   123.8548   2.575341  
4724.704600000001 -9999      82.61728   103.2148   0.1845363  -0.02652487 0.03002645 0.1828667  57         -9999      24.88136   103.2148   2.581921  
4724.9046  -9999      88.57261   97.54568   0.1916661  -0.007136798 0.06438051 0.2297691  57         -9999      25.15543   97.54568   2.543947  
4725.104600000001 -9999      92.83434   118.4843   0.1965278  0.00970047 0.1003707  0.2935016  57         -9999      25.91973   118.4843   2.525373  
4725.3046  -9999      90.43687   135.9802   0.1906016  -0.000459154 0.09675138 0.3072155  57         -9999      27.96637   135.9802   2.516567  
4725.5046  -9999      88.22878   135.0868   0.1835498  -0.01642811 0.0802094  0.2951204  57         -9999      26.5898    135.0868   2.555109  
4725.704600000001 -9999      88.83881   138.217    0.176236   -0.0339012 0.05948442 0.2719062  57         -9999      23.63507   138.217    2.539759  
4725.9046  -9999      89.4961    138.1234   0.1768328  -0.0317296 0.06720175 0.2856621  57         -9999      26.98739   138.1234   2.502445  
4726.104600000001 -9999      88.73525   135.7031   0.1757203  -0.03175187 0.07429156 0.3076205  57         -9999      32.02181   135.7031   2.407585  
4726.3046  -9999      86.61371   139.6719   0.1528553  -0.09007642 -0.01003578 0.1958165  57         -9999      36.26592   139.6719   2.437996  
4726.5046  -9999      79.76382   141.6703   0.1594026  -0.07693733 0.0074862  0.2102085  6          -9999      30.25008   141.6703   2.461122  
4726.704600000001 -9999      73.74693   139.2744   0.1529539  -0.09173388 -0.01031288 0.1905988  6          -9999      18.20597   139.2744   2.599284  
4726.9046  -9999      72.8511    136.9773   0.1377486  -0.132797  -0.0732057 0.09705776 6          -9999      8.532235   136.9773   2.652353  
4727.104600000001 -9999      77.4663    135.853    0.1370946  -0.1394535 -0.08879228 0.0558273  6          -9999      15.0596    135.853    2.580642  
4727.3046  -9999      86.64008   131.7157   0.1405243  -0.1319753 -0.07849384 0.05873105 6          -9999      24.43086   131.7157   2.505095  
4727.5046  -9999      92.61983   129.2665   0.1356749  -0.1456126 -0.1001949 0.01748592 57         -9999      28.27747   129.2665   2.522441  
4727.704600000001 -9999      94.79417   129.0906   0.1392148  -0.1387672 -0.09238055 0.01462412 57         -9999      29.23116   129.0906   2.531322  
4727.9046  -9999      97.70734   125.8837   0.1233403  -0.1814008 -0.1597612 -0.09542304 57         -9999      32.43164   125.8837   2.585066  
4728.104600000001 -9999      100.3232   120.2076   0.134087   -0.1596193 -0.1350651 -0.09024672 57         -9999      34.20289   120.2076   2.557584  
4728.3046  -9999      102.4467   120.5301   0.1488424  -0.1205506 -0.07418928 -0.01251631 57         -9999      33.18708   120.5301   2.537472  
4728.5046  -9999      103.4129   127.2026   0.1404559  -0.1392522 -0.09797335 -0.04393591 57         -9999      32.78379   127.2026   2.432172  
4728.704600000001 -9999      102.6578   134.4341   0.1322132  -0.1631442 -0.1381238 -0.1156932 57         -9999      33.73585   134.4341   2.359287  
4728.9046  -9999      100.5871   135.5953   0.1445992  -0.1345512 -0.09899413 -0.07727978 57         -9999      33.73792   135.5953   2.482968  
4729.104600000001 -9999      98.44744   132.4579   0.1409971  -0.1416075 -0.1063133 -0.08656932 57         -9999      33.35008   132.4579   2.536277  
4729.3046  -9999      97.69744   136.6516   0.147958   -0.124304  -0.07940415 -0.05037968 57         -9999      33.45269   136.6516   2.522341  
4729.5046  -9999      98.38321   139.3387   0.1403217  -0.141942  -0.1015685 -0.07412361 57         -9999      32.91985   139.3387   2.538426  
4729.704600000001 -9999      99.54929   138.2366   0.1480075  -0.1227423 -0.07096104 -0.02962503 57         -9999      31.3937    138.2366   2.492748  
4729.9046  -9999      100.0455   140.0356   0.144591   -0.1277486 -0.07088082 -0.01308297 57         -9999      32.3844    140.0356   2.476948  
4730.104600000001 -9999      99.56757   140.3437   0.1367529  -0.1471338 -0.0960802 -0.03782304 57         -9999      33.60092   140.3437   2.459482  
4730.3046  -9999      99.09846   134.574    0.1396264  -0.1393869 -0.08088695 -0.008558095 57         -9999      34.50892   134.574    2.44838   
4730.5046  -9999      97.81564   129.8584   0.1221816  -0.182434  -0.1411353 -0.08241536 57         -9999      32.27368   129.8584   2.495672  
4730.704600000001 -9999      95.74911   127.1629   0.1254233  -0.1769129 -0.1342399 -0.07732669 57         -9999      29.01716   127.1629   2.473622  
4730.9046  -9999      93.58455   130.3719   0.1175288  -0.197418  -0.1637947 -0.119305  57         -9999      27.64825   130.3719   2.477948  
4731.104600000001 -9999      93.01755   129.0257   0.1146289  -0.2070695 -0.1801729 -0.1519537 57         -9999      28.38611   129.0257   2.504369  
4731.3046  -9999      93.95481   118.5101   0.1204951  -0.1946862 -0.1639953 -0.1422747 57         -9999      28.68783   118.5101   2.543765  
4731.5046  -9999      95.96572   114.1119   0.1317779  -0.1635545 -0.1123621 -0.06662367 57         -9999      28.02833   114.1119   2.537735  
4731.704600000001 -9999      98.0438    121.4118   0.1182016  -0.1958227 -0.1553942 -0.1188059 57         -9999      31.47327   121.4118   2.511062  
4731.9046  -9999      99.26425   123.4146   0.1258052  -0.177796  -0.1281948 -0.0862541 57         -9999      34.29352   123.4146   2.407244  
4732.104600000001 -9999      99.39314   120.8056   0.116142   -0.2011629 -0.1600099 -0.1293542 57         -9999      34.09933   120.8056   2.42618   
4732.3046  -9999      98.14838   117.3975   0.1249733  -0.1809508 -0.1310455 -0.09824605 57         -9999      35.53519   117.3975   2.526513  
4732.5046  -9999      96.20011   118.887    0.1324849  -0.1580156 -0.08894873 -0.0283301 57         -9999      37.52098   118.887    2.544761  
