~Version
 VERS              .         2.0                           : CWLS LOG ASCII STANDARD - VERSION 2.0
 WRAP              .         NO                            : ONE LINE PER DEPTH STEP
 DLM               .         SPACE                         : DELIMITING CHARACTER(SPACE TAB OR COMMA)
~Well Information
#_______________________________________________________________________________
#
#PARAMETER_NAME    .UNIT     VALUE                         : DESCRIPTION
#_______________________________________________________________________________
STRT               .m        2119.8892                     : First reference value
STOP               .m        5043.2892                     : Last reference value
STEP               .m        0.2                           : Step increment
NULL               .         -9999                         : Missing value
COMP               .         PETROLEO BRASILEIRO S/A       : Company
WELL               .         1ESS 0094  ES                 : Well name
FLD                .                                       : Field
LOC                .                                       : Location
CNTY               .                                       : County
STAT               .         ESPIRITO SANTO                : State
CTRY               .                                       : Country
SRVC               .                                       : Service Company
DATE               .                                       : Date
API                .         342710052700                  : API number
EDF                .M        25.00                         : Elevation Derrick Floor
GDAT               .         SIRGAS2000                    : Geodetic Datum
HZCS               .         UTM                           : Horizontal Coordinate System
LAT                .         -20.952076                    : Latitude
LONG               .         -39.451195                    : Longitude
MC                 .         39 W                          : Meridiano Central
ORIG               .         SIGEO EXPORTACAO PERFIL       : Origem dos dados
WDMS               .M        2081.00                       : Water Depth to Mean Sea Level
XCOORD             .         453092.70                     : Surface X
YCOORD             .         7683090.10                    : Surface Y
~Parameter Information Block
#_______________________________________________________________________________
#
#PARAMETER_NAME    .UNIT     VALUE                         : DESCRIPTION
#_______________________________________________________________________________
SET                .         ESS94_resample                : 
TLFamily_CALI      .         Caliper                       : 
TLFamily_DEPT      .         Measured Depth                : 
TLFamily_DT        .         Compressional Slowness        : 
TLFamily_DTS       .         Shear Slowness                : 
TLFamily_GR        .         Gamma Ray                     : 
TLFamily_INPEFA_1  .                                       : 
TLFamily_INPEFA_2  .                                       : 
TLFamily_INPEFA_3  .                                       : 
TLFamily_INPEFA_4  .                                       : 
TLFamily_LITO      .                                       : 
TLFamily_NPHI      .         Neutron Porosity              : 
TLFamily_OG        .                                       : 
TLFamily_RESD      .         Deep Resistivity              : 
TLFamily_RESM      .         Medium Resistivity            : 
TLFamily_RESS      .         Shallow Resistivity           : 
TLFamily_RHOB      .         Bulk Density                  : 
TLFamily_SP        .         Spontaneous Potential         : 
TLFamily_TVD       .         True Vertical Depth           : 
~Curve Information
#_______________________________________________________________________________
#
#LOGNAME           .UNIT     LOG_ID                        : DESCRIPTION
#_______________________________________________________________________________
DEPT               .m                                      :  
CALI               .in                                     :  
DT                 .us/ft                                  :  
DTS                .us/ft                                  :  
GR                 .Sem                                    : GAMMA RAY 
INPEFA_1           .                                       :  
INPEFA_2           .                                       :  
INPEFA_3           .                                       :  
INPEFA_4           .                                       :  
LITO               .Sem                                    : Não definido 
NPHI               .Sem                                    : THERMAL NEUTRON POROSITY (ORIGINAL RATIO METHOD) IN SELECTED LITHOLOGY 
OG                 .                                       :  
RESD               .ohm.m                                  :  
RESM               .ohm.m                                  :  
RESS               .ohm.m                                  :  
RHOB               .g/cm3                                  :  
SP                 .mV                                     : SPONTANEOUS POTENTIAL 
TVD                .m                                      : Vertical Depth 
~Ascii
# ...
5011.8892  8.516257   61.27472   158.6647   96.16628   -0.007272412 0.007361557 0.03489643 0.04482687 6          10.23581034744361 96.16628   9.822089   17.11987   13.52361   2.65203    17.17659842519703 5011.6014 
5012.0892  8.513228   61.33023   249.9483   96.58006   -0.0080304 0.003467628 0.02544073 0.04026364 6          6.894726018580127 96.58006   8.528409   13.2524    5.406192   2.656459   16.30669711286084 5011.801330971129
5012.2892  8.518869   61.38709   283.5645   97.82087   -0.007084204 0.002283252 0.0215937  0.04481025 6          8.771557124581937 97.82087   8.228912   11.90924   3.646762   2.660813   12.84893595800657 5012.0013 
5012.4892  8.513883   62.77436   343.92     101.8716   -0.007136199 0.000670894 0.01894818 0.05091083 6          7.108296702227803 101.8716   10.9177    19.18051   16.95569   2.663658   10.48387559055276 5012.2013 
5012.689200000001 8.529204   62.62189   417.8292   109.6906   -0.00712182 -0.001953305 0.01135949 0.03769533 6          7.106879423298377 109.6906   11.43931   23.13587   24.90839   2.651096   9.237880052490624 5012.4013 
5012.8892  8.508752   62.08007   416.6234   115.5688   -0.004887693 0.000740854 0.01672067 0.05010505 6          8.112092344777183 115.5688   10.42885   20.42007   23.61579   2.635876   9.579379265090063 5012.601299999999
5013.0892  8.504322   61.7172    408.1715   109.8869   -0.004432632 -0.000308463 0.01350654 0.04206919 6          8.997094987885761 109.8869   10.06833   20.3516    19.48522   2.641889   12.87702755906471 5012.8013 
5013.2892  8.481322   61.28378   396.6948   99.84062   -0.001291913 0.003852713 0.0209081  0.04944016 6          9.694043957968882 99.84062   10.81535   22.49663   16.84572   2.652335   17.98967847769735 5013.0013 
5013.4892  8.490672   61.78016   392.2008   97.63168   0.000148574 0.004944882 0.02146819 0.04602483 6          9.971992958249173 97.63168   11.60579   26.33048   22.48587   2.659105   20.5987808398961 5013.2013 
5013.689200000001 8.526055   62.14428   392.2008   99.81725   0.002723045 0.007158003 0.02164841 0.04070497 6          9.6093507451316 99.81725   12.52194   30.51511   26.67779   2.647553   20.12825984250211 5013.401300000001
5013.8892  8.514932   61.86711   374.8281   102.598    0.002233045 0.005707381 0.01793737 0.03665537 6          9.134401852064707 102.598    12.69712   31.94375   26.5332    2.62408    16.16585905511924 5013.6013 
5014.0892  8.500578   61.61188   240.9818   -9999      -9999      -9999      -9999      -9999      6          8.483452123604355 -9999      11.97631   24.58159   20.33401   2.620287   12.74852309710249 5013.801300000001
5014.2892  8.485856   60.77919   206.9633   -9999      -9999      -9999      -9999      -9999      6          7.652103180023534 -9999      10.30746   16.9385    9.14789    2.639907   12.7730606299202 5014.0013 
5014.4892  8.480043   60.83061   213.894    -9999      -9999      -9999      -9999      -9999      6          6.363503190791197 -9999      9.474851   16.48461   9.874168   2.661508   13.98442913385448 5014.2013 
5014.689200000001 8.487231   61.00731   222.0506   -9999      -9999      -9999      -9999      -9999      6          5.602574170729901 -9999      10.25887   20.95749   21.88596   2.669827   14.36607165354147 5014.401224934383
5014.8892  8.519426   61.58168   222.737    -9999      -9999      -9999      -9999      -9999      6          5.711817516114308 -9999      11.49923   23.76139   23.06456   2.668166   11.89716141732363 5014.601199999999
5015.0892  8.517547   62.10581   222.737    -9999      -9999      -9999      -9999      -9999      6          6.493674171879086 -9999      11.66614   21.75087   31.2738    2.661248   12.77596141732686 5014.8012 
5015.2892  8.491495   62.52213   222.737    -9999      -9999      -9999      -9999      -9999      6          7.204047189297377 -9999      11.41304   19.71586   40.01955   2.655249   16.44516246719353 5015.0012 
5015.4892  8.4888     61.4415    222.737    -9999      -9999      -9999      -9999      -9999      6          7.903500080108643 -9999      11.406     21.3047    29.6138    2.65       18.6548    5015.2012 
5015.689200000001 8.524179   62.15316   228.1131   -9999      -9999      -9999      -9999      -9999      6          -6140.275030513078 -9999      9.560782   17.30587   15.14937   2.654143   18.34942388450866 5015.401200000001
5015.8892  8.520832   63.29346   243.2921   -9999      -9999      -9999      -9999      -9999      6          -69851.58013426997 -9999      7.459096   12.1553    4.586902   2.648441   17.65208215223084 5015.6012 
5016.0892  8.495914   63.04936   264.266    -9999      -9999      -9999      -9999      -9999      6          -99998.93700787402 -9999      7.062109   11.46766   3.26586    2.622911   19.41042598425906 5015.801200000001
5016.2892  8.540353   63.559     265.356    -9999      -9999      -9999      -9999      -9999      6          -99999     -9999      7.83897    13.35755   5.759913   2.603472   17.94481469815438 5016.001200000001
5016.4892  8.552225   64.2454    282.3894   -9999      -9999      -9999      -9999      -9999      6          -99999     -9999      9.290314   18.23818   19.77554   2.612261   15.20048871390748 5016.2012 
5016.689200000001 8.529164   63.33458   403.8234   -9999      -9999      -9999      -9999      -9999      6          -99999     -9999      10.14165   21.29016   29.52067   2.62368    12.2332787401507 5016.4012 
5016.8892  8.516497   61.18491   419.4114   -9999      -9999      -9999      -9999      -9999      6          -99999     -9999      8.247644   15.10981   12.66698   2.632693   9.899282939635642 5016.601199999999
5017.0892  8.494704   61.3106    400.3318   -9999      -9999      -9999      -9999      -9999      6          -99999     -9999      6.462785   10.36725   3.433306   2.638698   7.987886614172305 5016.8012 
5017.2892  8.51133    61.78079   254.5522   -9999      -9999      -9999      -9999      -9999      6          -99999     -9999      5.410771   8.236452   2.284954   2.64169    4.137526771654676 5017.001118897638
5017.4892  8.513802   62.35352   212.6745   -9999      -9999      -9999      -9999      -9999      6          -99999     -9999      5.461604   8.344183   2.259048   2.644283   4.480274278213633 5017.2011 
5017.689200000001 8.472337   63.39555   183.2229   -9999      -9999      -9999      -9999      -9999      6          -99999     -9999      6.258828   9.325909   2.501086   2.656363   6.806376115495513 5017.401100000001
5017.8892  8.451804   65.85516   183.2229   -9999      -9999      -9999      -9999      -9999      6          -99999     -9999      6.653763   9.466296   2.5204     2.665436   10.36828425196111 5017.6011 
5018.0892  8.476113   66.41621   183.2229   -9999      -9999      -9999      -9999      -9999      6          -99999     -9999      6.976865   9.554173   2.492782   2.656604   13.38509396325956 5017.801100000001
5018.2892  8.461342   65.45174   183.9138   -9999      -9999      -9999      -9999      -9999      6          -99999     -9999      7.515399   10.15736   3.008097   2.637746   15.12190288713941 5018.0011 
5018.4892  8.446258   64.67301   191.5288   -9999      -9999      -9999      -9999      -9999      6          -99999     -9999      8.639853   13.1706    8.488165   2.632648   14.332407874014 5018.2011 
5018.689200000001 8.457271   63.41992   202.5118   -9999      -9999      -9999      -9999      -9999      6          -99999     -9999      9.164577   16.36804   17.77678   2.635992   11.51075958003644 5018.401100000001
5018.8892  8.471588   62.30198   203.287    -9999      -9999      -9999      -9999      -9999      6          -99999     -9999      8.533326   15.58916   10.33856   2.633477   10.15353648293961 5018.6011 
5019.0892  8.481384   62.0414    182.014    -9999      -9999      -9999      -9999      -9999      6          -99999     -9999      8.307721   14.1758    5.610293   2.642321   11.06215669291477 5018.8011 
5019.2892  8.479744   61.54111   176.0865   -9999      -9999      -9999      -9999      -9999      6          -99999     -9999      8.162743   13.79853   5.166676   2.657312   11.49783858267703 5019.0011 
