~Version
 VERS              .         2.0                           : CWLS LOG ASCII STANDARD - VERSION 2.0
 WRAP              .         NO                            : ONE LINE PER DEPTH STEP
 DLM               .         SPACE                         : DELIMITING CHARACTER(SPACE TAB OR COMMA)
~Well Information
#_______________________________________________________________________________
#
#PARAMETER_NAME    .UNIT     VALUE                         : DESCRIPTION
#_______________________________________________________________________________
STRT               .m        1880.5999                     : First reference value
STOP               .m        5405.7999                     : Last reference value
STEP               .m        0.2                           : Step increment
NULL               .         -9999                         : Missing value
COMP               .         PETROLEO BRASILEIRO S/A       : Company
WELL               .         1-ESS-86A_resample            : Well name
FLD                .                                       : Field
LOC                .                                       : Location
CNTY               .                                       : County
STAT               .         ESPIRITO SANTO                : State
CTRY               .                                       : Country
SRVC               .                                       : Service Company
DATE               .                                       : Date
API                .         342710051600                  : API number
EDF                .M        14.00                         : Elevation Derrick Floor
GDAT               .         SIRGAS2000                    : Geodetic Datum
HZCS               .         UTM                           : Horizontal Coordinate System
LMF                .         MR                            : Log Measure From
LATI               .         -20_24_56.411                 : Latitude
LONG               .         -39_29_19.989                 : Longitude
MC                 .         39 W                          : Meridiano Central
ORIG               .         SIGEO EXPORTACAO PERFIL       : Origem dos dados
ORIGINALWELLNAME   .         1ESS 0086A ES                 : 
WDMS               .M        1841.00                       : Water Depth to Mean Sea Level
X                  .         448953.89                     : Surface X
Y                  .         7742410.09                    : Surface Y
~Parameter Information Block
#_______________________________________________________________________________
#
#PARAMETER_NAME    .UNIT     VALUE                         : DESCRIPTION
#_______________________________________________________________________________
SET                .         ESS86A_resample               : 
TLFamily_CALI      .         Caliper                       : 
TLFamily_DEPT      .         Measured Depth                : 
TLFamily_DT        .         Compressional Slowness        : 
TLFamily_GR        .         Gamma Ray                     : 
TLFamily_HDRS      .         Deep Resistivity              : 
TLFamily_INPEFA_1  .                                       : 
TLFamily_INPEFA_2  .                                       : 
TLFamily_INPEFA_3  .                                       : 
TLFamily_INPEFA_4  .                                       : 
TLFamily_LITO      .                                       : 
TLFamily_NPHI      .         Neutron Porosity              : 
TLFamily_RHOB      .         Bulk Density                  : 
~Curve Information
#_______________________________________________________________________________
#
#LOGNAME           .UNIT     LOG_ID                        : DESCRIPTION
#_______________________________________________________________________________
DEPT               .m                                      :  
CALI               .in                                     : CALIPER 1 CYLINDERDIAMETER 
DT                 .us/ft                                  : DELTA-T (ALSO CALLED SLOWNESS OR INTERVAL TRANSIT TIME) 
GR                 .gAPI                                   : GAMMA RAY 
HDRS               .ohm.m                                  : INDUCTION DEEP RESISTIVITY 
INPEFA_1           .                                       :  
INPEFA_2           .                                       :  
INPEFA_3           .                                       :  
INPEFA_4           .                                       :  
LITO               .                                       :  
NPHI               .%                                      : THERMAL NEUTRON POROSITY (ORIGINAL RATIO METHOD) IN SELECTED LITHOLOGY 
RHOB               .g/cm3                                  : BULK DENSITY 
~Ascii
# ...
3262.1999  16.0627    123.2219   85.9349    0.9067000150680542 -0.2178527 0.1110369  0.1836036  0.41869    58         34.2458    2.2654    
3262.3999  15.9857    119.9245   91.008     0.8964999914168911 -0.2298871 0.08087838 0.1323069  0.3388335  58         34.9175    2.2776    
3262.5999  15.9172    117.6724   94.9918    0.8784999847412109 -0.2299399 0.07448602 0.1198153  0.3245178  58         36.252     2.2807    
3262.7999  15.7202    118.5228   101.9081   0.8495000004768372 -0.2374343 0.05405837 0.08534905 0.2745482  58         36.4666    2.2795    
3262.9999  15.4975    120.3871   100.6973   0.7935000061988831 -0.2278333 0.07021417 0.1157487  0.3552024  58         36.8747    2.2624    
3263.1999  15.4204    124.381    96.446     0.7537000179290772 -0.2321815 0.05686019 0.09517641 0.3429877  58         35.1689    2.266     
3263.3999  15.4032    128.9101   92.8329    0.7833999991418361 -0.2371832 0.04352576 0.07665784 0.3408195  58         32.9035    2.2731    
3263.5999  15.7628    122.7463   94.8644    0.8468999862670898 -0.2464041 0.02098485 0.0421038  0.3098876  58         34.1891    2.2958    
3263.7999  16.1825    117.4105   102.8188   0.9010000228881836 -0.2603612 -0.01501398 -0.0211362 0.2080821  58         33.9388    2.2934    
3263.9999  16.1655    115.1788   111.6418   0.9440000057220459 -0.2693829 -0.04088875 -0.06802209 0.1305548  58         33.4039    2.2886    
3264.1999  16.1484    115.9478   111.7416   0.9739999771118164 -0.2740672 -0.05811029 -0.1010637 0.07269137 58         32.4443    2.2915    
3264.3999  16.157     120.0205   106.963    0.9871000051498395 -0.2604609 -0.03811609 -0.07159986 0.1275197  58         34.1904    2.2896    
3264.5999  16.1655    120.5396   105.443    0.9758999943733215 -0.2565401 -0.03486302 -0.06577425 0.1543331  58         35.1623    2.274     
3264.7999  16.1741    118.0581   106.1456   0.9176999926567078 -0.261286  -0.04986632 -0.09144118 0.1219768  58         34.9819    2.2637    
3264.9999  16.1998    122.6264   111.4351   0.869700014591217 -0.2397824 -0.01064051 -0.02432006 0.2648563  58         34.8657    2.278     
3265.1999  16.1912    120.7206   112.0125   0.8960000276565552 -0.2510988 -0.03505496 -0.05918695 0.2414098  57         34.8696    2.2839    
3265.3999  16.1827    114.1809   111.5013   0.9757999777795117 -0.2478831 -0.03142433 -0.04830354 0.3014429  57         33.8116    2.2944    
3265.5999  16.1827    115.0716   108.7356   1.01639997959137 -0.281907  -0.108779  -0.1824367 0.06797095 57         32.8775    2.2942    
3265.7999  16.1827    115.3718   106.8346   1.019000053405762 -0.2792537 -0.1124211 -0.1948619 0.04453765 57         32.8227    2.2925    
3265.9999  16.1912    116.3059   103.3186   1.015599966049194 -0.2771318 -0.118107  -0.2124044 0.004875603 57         32.6103    2.2944    
3266.1999  16.1998    117.6855   101.4476   1.008499979972839 -0.2526778 -0.07345625 -0.1373885 0.1599505  57         33.1628    2.3061    
3266.3999  16.1998    117.3441   101.6386   0.9939000010490071 -0.2723565 -0.1189686 -0.214144  0.04169779 57         34.1899    2.3086    
3266.5999  16.1998    116.6095   104.3251   0.9789000153541565 -0.2748866 -0.1315475 -0.2384535 0.00972828 57         34.0591    2.3095    
3266.7999  16.1998    115.3646   108.5103   0.9703999757766724 -0.267062  -0.1233599 -0.2282364 0.03924366 57         33.4683    2.3025    
3266.9999  16.1998    114.3454   111.0688   0.9685999751091003 -0.2842031 -0.166527  -0.3058139 -0.09784998 57         34.622     2.299     
3267.1999  16.1998    115.437    111.1576   0.9682000279426575 -0.2730748 -0.1499155 -0.2793718 -0.03526544 57         35.0389    2.3013    
3267.3999  16.1998    116.6278   105.8284   0.9738000035286132 -0.2963894 -0.208181  -0.3863478 -0.2397143 57         34.5558    2.3127    
3267.5999  16.1912    116.2722   100.6008   0.9807000160217285 -0.2765131 -0.1774422 -0.3421411 -0.1671389 57         33.6886    2.3037    
3267.7999  16.1912    115.7357   97.9798    0.9761999845504761 -0.2824684 -0.1964962 -0.3773623 -0.2256182 57         32.8902    2.304     
3267.9999  16.1998    118.4195   93.8398    0.9652000069618225 -0.2865822 -0.2128905 -0.4097051 -0.2846894 57         32.0653    2.3071    
3268.1999  16.2084    118.5658   96.0919    0.9599999785423279 -0.2948532 -0.2407588 -0.4667429 -0.4104462 57         31.7561    2.3007    
3268.3999  16.2084    116.5178   96.8595    0.9574000239372271 -0.2853301 -0.2306639 -0.4580132 -0.4159762 57         32.6089    2.3023    
3268.5999  16.1998    115.6611   105.491    0.9616000056266785 -0.2712708 -0.2074018 -0.4205723 -0.3479399 57         34.2447    2.3013    
3268.7999  16.1912    113.4602   109.7738   0.9776999950408936 -0.2781948 -0.2288681 -0.4611503 -0.4299533 57         33.8522    2.2999    
3268.9999  16.2084    113.7542   108.8164   0.9898999929428101 -0.2728442 -0.2252878 -0.4600929 -0.4416388 57         32.6343    2.3049    
3269.1999  16.2255    116.8851   100.2516   0.9878000020980835 -0.2673914 -0.2202939 -0.455075  -0.443943  57         31.6469    2.3024    
3269.3999  16.2255    115.6508   97.1398    0.9812999963760121 -0.2586548 -0.2075293 -0.4351233 -0.4138415 57         31.1274    2.3109    
3269.5999  16.234     113.8501   98.0584    0.9643999934196472 -0.2411514 -0.1740845 -0.375702  -0.2962255 57         32.4559    2.3135    
3269.7999  16.2341    116.8709   99.7195    0.9229999780654907 -0.2569651 -0.2103214 -0.4365683 -0.4081684 57         33.4153    2.3049    
3269.9999  16.2169    117.0424   103.3489   0.8704000115394592 -0.2517437 -0.2060995 -0.4334992 -0.4206613 57         35.0346    2.2895    
3270.1999  16.1998    119.5239   100.8082   0.8260999917984009 -0.2382513 -0.1825457 -0.3944375 -0.3593432 57         35.5406    2.2906    
3270.3999  16.1998    119.7584   104.0838   0.8324000239373521 -0.2284717 -0.1657436 -0.3651563 -0.3106633 57         35.0939    2.294     
3270.5999  16.2084    116.4446   100.8724   0.8978000283241272 -0.2088208 -0.1250766 -0.2894138 -0.1556708 57         34.8365    2.306     
3270.7999  16.1827    116.7919   99.7055    0.957099974155426 -0.2102299 -0.1269373 -0.2841314 -0.1224566 57         33.4201    2.3125    
3270.9999  16.1741    116.9531   98.7143    0.9580000042915344 -0.2213106 -0.1505484 -0.3187552 -0.1730692 57         31.8399    2.3112    
3271.1999  16.1827    118.3197   99.4326    0.933899998664856 -0.2156052 -0.1408588 -0.2991096 -0.1331703 57         31.5995    2.3097    
3271.3999  16.1998    120.2822   99.2101    0.9108999967574289 -0.2128612 -0.1356901 -0.2851529 -0.09953927 57         31.2761    2.3059    
3271.5999  16.1912    120.7454   95.2299    0.8708000183105469 -0.2122908 -0.134323  -0.2763216 -0.07028089 57         32.8746    2.2998    
3271.7999  16.1912    120.2983   93.5197    0.8187999725341797 -0.2192244 -0.149841  -0.2985596 -0.1068919 57         35.4297    2.2904    
3271.9999  16.1912    122.4775   92.0811    0.8004000186920166 -0.2157822 -0.1446759 -0.2870819 -0.08783011 57         34.6435    2.2928    
3272.1999  16.1741    121.9129   92.3526    0.8245999813079834 -0.2214751 -0.1582547 -0.3075186 -0.1293224 57         33.8947    2.2925    
3272.3999  16.1655    120.4238   91.0747    0.8522999882698387 -0.2167988 -0.1508556 -0.292755  -0.1075448 57         34.1906    2.3003    
3272.5999  16.1912    120.5076   87.1274    0.8628000020980835 -0.2224583 -0.1647877 -0.3147083 -0.1574459 57         33.7361    2.2928    
3272.7999  16.1827    122.9975   89.0588    0.86080002784729 -0.2129878 -0.1463284 -0.2799605 -0.09952016 57         34.341     2.2873    
3272.9999  16.1912    122.4522   90.0588    0.8543999791145325 -0.2096604 -0.1386248 -0.2604291 -0.05986913 57         32.9838    2.2768    
3273.1999  16.1827    118.6339   90.2588    0.8479999899864197 -0.2041683 -0.126589  -0.2334951 -0.005374023 57         32.1142    2.2692    
3273.3999  16.1484    118.7684   87.7508    0.8359000086784217 -0.1996572 -0.1164245 -0.2093125 0.04643347 57         33.0782    2.27      
3273.5999  16.157     120.1778   82.4115    0.832099974155426 -0.2080895 -0.1321065 -0.2279895 0.02182072 57         34.1843    2.2882    
