~Version
 VERS              .         2.0                           : CWLS LOG ASCII STANDARD - VERSION 2.0
 WRAP              .         NO                            : ONE LINE PER DEPTH STEP
 DLM               .         SPACE                         : DELIMITING CHARACTER(SPACE TAB OR COMMA)
~Well Information
#_______________________________________________________________________________
#
#PARAMETER_NAME    .UNIT     VALUE                         : DESCRIPTION
#_______________________________________________________________________________
STRT               .m        1880.5999                     : First reference value
STOP               .m        5405.7999                     : Last reference value
STEP               .m        0.2                           : Step increment
NULL               .         -9999                         : Missing value
COMP               .         PETROLEO BRASILEIRO S/A       : Company
WELL               .         1-ESS-86A_resample            : Well name
FLD                .                                       : Field
LOC                .                                       : Location
CNTY               .                                       : County
STAT               .         ESPIRITO SANTO                : State
CTRY               .                                       : Country
SRVC               .                                       : Service Company
DATE               .                                       : Date
API                .         342710051600                  : API number
EDF                .M        14.00                         : Elevation Derrick Floor
GDAT               .         SIRGAS2000                    : Geodetic Datum
HZCS               .         UTM                           : Horizontal Coordinate System
LMF                .         MR                            : Log Measure From
LATI               .         -20_24_56.411                 : Latitude
LONG               .         -39_29_19.989                 : Longitude
MC                 .         39 W                          : Meridiano Central
ORIG               .         SIGEO EXPORTACAO PERFIL       : Origem dos dados
ORIGINALWELLNAME   .         1ESS 0086A ES                 : 
WDMS               .M        1841.00                       : Water Depth to Mean Sea Level
X                  .         448953.89                     : Surface X
Y                  .         7742410.09                    : Surface Y
~Parameter Information Block
#_______________________________________________________________________________
#
#PARAMETER_NAME    .UNIT     VALUE                         : DESCRIPTION
#_______________________________________________________________________________
SET                .         ESS86A_resample               : 
TLFamily_CALI      .         Caliper                       : 
TLFamily_DEPT      .         Measured Depth                : 
TLFamily_DT        .         Compressional Slowness        : 
TLFamily_GR        .         Gamma Ray                     : 
TLFamily_HDRS      .         Deep Resistivity              : 
TLFamily_INPEFA_1  .                                       : 
TLFamily_INPEFA_2  .                                       : 
TLFamily_INPEFA_3  .                                       : 
TLFamily_INPEFA_4  .                                       : 
TLFamily_LITO      .                                       : 
TLFamily_NPHI      .         Neutron Porosity              : 
TLFamily_RHOB      .         Bulk Density                  : 
~Curve Information
#_______________________________________________________________________________
#
#LOGNAME           .UNIT     LOG_ID                        : DESCRIPTION
#_______________________________________________________________________________
DEPT               .m                                      :  
CALI               .in                                     : CALIPER 1 CYLINDERDIAMETER 
DT                 .us/ft                                  : DELTA-T (ALSO CALLED SLOWNESS OR INTERVAL TRANSIT TIME) 
GR                 .gAPI                                   : GAMMA RAY 
HDRS               .ohm.m                                  : INDUCTION DEEP RESISTIVITY 
INPEFA_1           .                                       :  
INPEFA_2           .                                       :  
INPEFA_3           .                                       :  
INPEFA_4           .                                       :  
LITO               .                                       :  
NPHI               .%                                      : THERMAL NEUTRON POROSITY (ORIGINAL RATIO METHOD) IN SELECTED LITHOLOGY 
RHOB               .g/cm3                                  : BULK DENSITY 
~Ascii
# ...
3492.3999  13.4456    111.9439   79.7338    0.001100000000137595 0.4155865  0.479431   0.3174005  0.2393016  57         38.4185    2.2112    
3492.5999  13.6893    111.8213   81.3734    0.6994     0.410698   0.4679076  0.2986402  0.2025067  57         39.5637    2.2671    
3492.7999  13.9329    111.8367   80.338     1.0454     0.4213124  0.4895729  0.3386684  0.2832511  57         42.6383    2.2845    
3492.9999  14.5827    113.0255   80.0357    1.5207     0.4231753  0.4951487  0.3550638  0.3352973  57         41.4951    2.2953    
3493.1999  15.5248    114.75     81.1128    1.9574     0.4194092  0.4886772  0.3509824  0.3527263  57         39.729     2.2974    
3493.3999  16.0933    115.5204   82.9805    1.773799999998629 0.4111572  0.4727567  0.3307993  0.3418583  57         40.4324    2.3202    
3493.5999  16.3532    114.8616   88.4355    1.1111     0.4050496  0.4585522  0.3097588  0.3183465  57         38.737     2.3546    
3493.7999  16.4507    113.148    91.9832    0.6301     0.403991   0.4551646  0.307791   0.331764   57         37.966     2.3734    
3493.9999  16.4588    111.8571   94.5402    0.7765     0.405443   0.4585079  0.3200613  0.3815849  57         37.8425    2.3507    
3494.1999  16.4263    111.102    94.949     1.5555     0.3984764  0.4440455  0.301937   0.3768663  57         36.6582    2.3359    
3494.3999  16.4101    110.6378   93.9545    2.46410000000022 0.3881562  0.4209464  0.2667552  0.3334416  57         37.3069    2.3373    
3494.5999  16.467     110.648    95.3788    2.0363     0.3791873  0.3995243  0.232585   0.2842271  57         39.8255    2.343     
3494.7999  16.5806    110.6275   96.7253    1.1633     0.3714385  0.380125   0.2010062  0.2351803  57         40.1242    2.3536    
3494.9999  16.7918    110.1326   98.7482    0.9861     0.3679054  0.3675126  0.1782587  0.1925413  57         36.3778    2.3711    
3495.1999  17.4334    109.2653   97.2594    1.0403     0.368666   0.3652673  0.1754514  0.1922562  57         36.5423    2.3818    
3495.3999  18.002     108.5663   96.0072    1.121899999999994 0.3661863  0.3562594  0.1616844  0.1743812  57         39.3383    2.3916    
3495.5999  18.2051    112.0537   94.6552    1.0231     0.3524107  0.320675   0.09803013 0.04842227 57         40.388     2.3977    
3495.7999  18.4649    116.8418   91.5616    0.8488     0.3696162  0.3510573  0.1500065  0.1455486  57         42.0002    2.3714    
3495.9999  18.4405    116.2398   89.1567    0.8075     0.3655962  0.3403037  0.1368853  0.1390986  57         43.1235    2.1826    
3496.1999  17.3847    114.3418   87.9091    0.822      0.3544049  0.3128505  0.09312994 0.06950115 57         44.444     2.1148    
3496.3999  16.5076    112.7959   90.6162    0.8792000000001521 0.34203    0.2798328  0.03477749 -0.04779156 57         37.8965    2.1061    
3496.5999  16.4588    110.3964   94.3606    0.9729     0.3458215  0.2815889  0.03753338 -0.0507763 57         32.6726    2.2408    
3496.7999  16.4101    106.352    96.1892    1.2144     0.3457358  0.2750183  0.0261875  -0.08142925 57         34.9332    2.36      
3496.9999  16.3289    104.1429   95.597     1.3157     0.3588516  0.2976662  0.06805303 -0.003841802 57         33.3291    2.342     
3497.1999  16.4182    104.8469   95.4438    1.2804     0.3652106  0.3086444  0.09425836 0.05823154 57         34.5436    2.3392    
3497.3999  16.4588    106.5459   97.1191    1.252999999999934 0.3631388  0.3029799  0.09422806 0.07938527 57         37.7214    2.3417    
3497.5999  16.4507    107.8983   99.6568    1.2085     0.3514782  0.2753602  0.05396676 0.01593693 57         34.3053    2.3411    
3497.7999  16.4588    108        101.7677   1.1591     0.3505102  0.2688466  0.04792293 0.005834721 57         30.322     2.355     
3497.9999  16.5157    107.4592   101.3211   1.1116     0.3539766  0.2727973  0.06184213 0.04027069 57         30.2239    2.3793    
3498.1999  16.5319    106.6429   99.2524    1.104      0.3617681  0.2875869  0.09785835 0.1269744  57         31.2695    2.3945    
3498.3999  16.5238    106.1071   97.5418    1.073299999999938 0.3655103  0.2955924  0.1254299  0.209221   57         32.6512    2.4015    
3498.5999  16.5888    105.8621   98.4239    1.0645     0.3540121  0.2720199  0.09938335 0.1957601  57         31.5619    2.4001    
3498.7999  16.6375    105.6633   96.0599    1.0683     0.3389623  0.2388823  0.05365822 0.1345015  57         29.0899    2.386     
3498.9999  16.6456    106.4439   95.5746    1.1205     0.3328656  0.2229668  0.03502385 0.1129     57         29.0203    2.3818    
3499.1999  16.67      108.3163   96.3364    1.1655     0.3197155  0.1928837  -0.007602954 0.04534696 57         30.8336    2.3899    
3499.3999  16.6781    109.2857   99.8154    1.196600000000115 0.3146954  0.1782518  -0.02596331 0.01600537 57         32.5877    2.3829    
3499.5999  16.7024    108.668    101.9316   1.2781     0.3024906  0.1472119  -0.07530896 -0.08468591 57         32.3121    2.3839    
3499.7999  16.7025    108.1837   100.7055   1.3472     0.2968066  0.128694   -0.1056631 -0.1627854 57         31.3241    2.3786    
3499.9999  16.6456    107.9184   95.6313    1.3412     0.3057679  0.1424607  -0.07803632 -0.1246713 57         29.6758    2.375     
3500.1999  16.6944    106.8316   91.7366    1.3987     0.3026856  0.1312297  -0.09287263 -0.1642623 57         29.6918    2.3806    
3500.3999  16.7106    105.25     91.4054    1.428399999999976 0.30462    0.1299133  -0.09170209 -0.1786366 57         29.82      2.3802    
3500.5999  16.9707    106.7214   95.094     1.3788     0.3040296  0.1245973  -0.09583677 -0.1993264 57         29.184     2.3817    
3500.7999  17.3847    112.6633   98.8815    1.2217     0.3111531  0.1360601  -0.06980674 -0.1579327 57         29.1147    2.358     
3500.9999  17.6446    117.3214   99.873     0.8591     0.3099805  0.130348   -0.07299818 -0.1703296 57         30.8915    2.2916    
3501.1999  17.539     117.4031   97.3106    0.6971000000000001 0.3151582  0.1386391  -0.0510513 -0.1318033 57         33.6392    2.2796    
3501.3999  17.0111    113.2704   94.6004    0.8141000000004602 0.3101162  0.1265549  -0.06262446 -0.1504471 57         32.9876    2.2848    
3501.5999  16.6943    108.5089   96.2278    0.9955000000000001 0.3048588  0.1121024  -0.08118462 -0.1914606 57         30.2286    2.3039    
3501.7999  16.6781    107.2602   101.1416   1.2455     0.2974914  0.0927989  -0.1095808 -0.2592314 57         31.9424    2.333     
3501.9999  16.5725    108.2245   105.5385   1.2223     0.2977508  0.08996331 -0.1093478 -0.2742494 57         32.1841    2.3554    
3502.1999  16.5888    109.3367   109.016    1.233      0.3024015  0.09413048 -0.1004306 -0.2844057 57         31.4683    2.3651    
3502.3999  16.6537    110.0765   108.8573   1.400000000000536 0.3221386  0.1338867  -0.02435164 -0.1500621 57         31.2805    2.3643    
3502.5999  16.6943    114.0904   108.6348   1.6076     0.315545   0.120719   -0.03603574 -0.1692587 57         31.3534    2.3591    
3502.7999  16.7999    124.1837   107.3297   1.065      0.3197759  0.1272124  -0.01836633 -0.1465798 57         34.5713    2.344     
3502.9999  17.2466    129.352    103.3147   0.5645     0.3373778  0.1627552  0.05078226 -0.02209582 57         39.3193    2.2437    
3503.1999  17.3928    122.8929   100.5165   0.6211     0.3446881  0.1815992  0.09880772 0.08947688 57         37.697     2.2648    
3503.3999  17.5147    115.6735   97.6726    1.069400000001271 0.3398094  0.1760769  0.1073325  0.1396386  57         31.9237    2.2892    
3503.5999  17.6445    111.8301   97.2171    1.3304     0.3373134  0.1729581  0.1162464  0.1818642  57         33.4081    2.3781    
3503.7999  17.3197    108.7755   96.2822    1.0505     0.3262736  0.1508983  0.0902166  0.1497633  57         34.0203    2.3365    
3503.9999  16.67      107.1225   96.0127    0.9984     0.3322438  0.1663949  0.1317872  0.2559636  57         33.3682    2.3261    
3504.1999  16.2964    108.1888   95.3846    1.1876     0.3167712  0.136709   0.09526569 0.2175157  57         33.3039    2.3296    
