~Version
 VERS              .         2.0                           : CWLS LOG ASCII STANDARD - VERSION 2.0
 WRAP              .         NO                            : ONE LINE PER DEPTH STEP
 DLM               .         SPACE                         : DELIMITING CHARACTER(SPACE TAB OR COMMA)
~Well Information
#_______________________________________________________________________________
#
#PARAMETER_NAME    .UNIT     VALUE                         : DESCRIPTION
#_______________________________________________________________________________
STRT               .m        2430.3999                     : First reference value
STOP               .m        5554.9999                     : Last reference value
STEP               .m        0.2                           : Step increment
NULL               .         -9999                         : Missing value
COMP               .         PETROLEO BRASILEIRO S/A       : Company
WELL               .         1-ESS-186_resample            : Well name
FLD                .                                       : Field
LOC                .                                       : Location
CNTY               .                                       : County
STAT               .         ESPIRITO SANTO                : State
CTRY               .                                       : Country
SRVC               .                                       : Service Company
DATE               .                                       : Date
API                .         342710339400                  : API number
EDF                .M        25.00                         : Elevation Derrick Floor
GDAT               .         SIRGAS2000                    : Geodetic Datum
HZCS               .         UTM                           : Horizontal Coordinate System
LAT                .         -20.356499                    : Latitude
LONG               .         -39.496292                    : Longitude
MC                 .         39 W                          : Meridiano Central
ORIG               .         SIGEO EXPORTACAO PERFIL       : Origem dos dados
WDMS               .M        1798.00                       : Water Depth to Mean Sea Level
XCOORD             .         448202.60                     : Surface X
YCOORD             .         7748989.80                    : Surface Y
~Parameter Information Block
#_______________________________________________________________________________
#
#PARAMETER_NAME    .UNIT     VALUE                         : DESCRIPTION
#_______________________________________________________________________________
SET                .         ESS186_resample               : 
TLFamily_CALI      .         Caliper                       : 
TLFamily_DEPT      .         Measured Depth                : 
TLFamily_DT        .         Compressional Slowness        : 
TLFamily_DTS       .         Shear Slowness                : 
TLFamily_GR        .         Gamma Ray                     : 
TLFamily_INPEFA_1  .                                       : 
TLFamily_INPEFA_2  .                                       : 
TLFamily_INPEFA_3  .                                       : 
TLFamily_INPEFA_4  .                                       : 
TLFamily_LITO      .                                       : 
TLFamily_NPHI      .         Neutron Porosity              : 
TLFamily_OG        .                                       : 
TLFamily_RESD      .         Deep Resistivity              : 
TLFamily_RESM      .         Medium Resistivity            : 
TLFamily_RESS      .         Shallow Resistivity           : 
TLFamily_RHOB      .         Bulk Density                  : 
TLFamily_TVD       .         True Vertical Depth           : 
~Curve Information
#_______________________________________________________________________________
#
#LOGNAME           .UNIT     LOG_ID                        : DESCRIPTION
#_______________________________________________________________________________
DEPT               .m                                      :  
CALI               .in                                     :  
DT                 .us/ft                                  :  
DTS                .us/ft                                  :  
GR                 .gAPI                                   : GAMMA RAY 
INPEFA_1           .                                       :  
INPEFA_2           .                                       :  
INPEFA_3           .                                       :  
INPEFA_4           .                                       :  
LITO               .Sem                                    : Não definido 
NPHI               .%                                      : THERMAL NEUTRON POROSITY (ORIGINAL RATIO METHOD) IN SELECTED LITHOLOGY 
OG                 .                                       :  
RESD               .ohm.m                                  :  
RESM               .ohm.m                                  :  
RESS               .ohm.m                                  :  
RHOB               .g/cm3                                  :  
TVD                .                                       : Vertical Depth 
~Ascii
# ...
4312.9999  -9999      -9999      -9999      65.18436   0.06274171 0.2026382  0.1534387  0.3393732  54         -9999      65.18436   2.24306    2.223062   2.302490169463649 -9999      4312.77   
4313.1999  -9999      -9999      -9999      66.52798   0.05016731 0.1831364  0.1147982  0.2375949  54         -9999      66.52798   2.23378    2.207353   2.2837157909137 -9999      4312.969966929133
4313.3999  -9999      -9999      -9999      67.48586   0.0678839  0.2129559  0.1616136  0.3229234  54         -9999      67.48586   2.226755   2.200042   2.281221409329296 -9999      4313.1699 
4313.5999  -9999      -9999      -9999      67.43893   0.06038151 0.2041811  0.146098   0.2896349  54         -9999      67.43893   2.219836   2.198254   2.28774993586752 -9999      4313.369804461941
4313.7999  -9999      -9999      -9999      65.30448   0.05650563 0.1996137  0.1353182  0.2584013  54         -9999      65.30448   2.216446   2.18963    2.276997847392382 -9999      4313.569773228347
4313.9999  -9999      -9999      -9999      66.34594   0.04665207 0.1838365  0.1023054  0.1654345  54         -9999      66.34594   2.206452   2.17611    2.256054402859816 -9999      4313.7697 
4314.1999  -9999      -9999      -9999      66.9567    0.05951183 0.2047764  0.1320841  0.2052382  54         -9999      66.9567    2.202389   2.162806   2.23201152582127 -9999      4313.969610761154
4314.3999  -9999      -9999      -9999      69.56227   0.0699497  0.2257967  0.1690281  0.2886248  57         -9999      69.56227   2.207588   2.150293   2.200823681934816 -9999      4314.169579527559
4314.5999  -9999      -9999      -9999      69.16623   0.05119823 0.1983464  0.1211818  0.1865656  57         -9999      69.16623   2.205342   2.148894   2.199566998545011 -9999      4314.369500000001
4314.7999  -9999      -9999      -9999      68.25626   0.05432194 0.203549   0.1247906  0.1788932  57         -9999      68.25626   2.202114   2.162294   2.243813144123338 -9999      4314.569417060367
4314.9999  -9999      -9999      -9999      68.60423   0.05188263 0.2009822  0.1167883  0.1520462  57         -9999      68.60423   2.203812   2.172194   2.267292508343631 -9999      4314.7694 
4315.1999  -9999      -9999      -9999      71.85223   0.04171536 0.1843725  0.082066   0.05786107 57         -9999      71.85223   2.205382   2.158342   2.221747546804132 -9999      4314.969354593176
4315.3999  -9999      -9999      -9999      72.97198   0.05364462 0.2035931  0.109103   0.097575   57         -9999      72.97198   2.200247   2.155337   2.218217835331595 -9999      4315.169300000001
4315.5999  -9999      -9999      -9999      66.6821    0.06091769 0.2185214  0.1347301  0.1585861  57         -9999      66.6821    2.197654   2.1653     2.246974087097006 -9999      4315.3692 
4315.7999  -9999      -9999      -9999      66.62512   0.04707208 0.198397   0.09899962 0.08433197 54         -9999      66.62512   2.209001   2.164831   2.239779018920015 -9999      4315.569160892388
4315.9999  -9999      -9999      -9999      66.49236   0.05751465 0.2164818  0.1272593  0.144276   54         -9999      66.49236   2.216767   2.165858   2.226818678307783 -9999      4315.7691 
4316.1999  -9999      -9999      -9999      68.11893   0.04925867 0.2053317  0.1071288  0.1086861  54         -9999      68.11893   2.221699   2.171307   2.234112038467815 -9999      4315.968999999999
4316.3999  -9999      -9999      -9999      65.86782   0.06140701 0.2271886  0.1444301  0.20499    54         -9999      65.86782   2.22468    2.179475   2.248154387152911 -9999      4316.168967191601
4316.5999  -9999      -9999      -9999      65.68239   0.03834546 0.1915094  0.08208532 0.08434042 54         -9999      65.68239   2.235416   2.187172   2.251620882352396 -9999      4316.3689 
4316.7999  -9999      -9999      -9999      66.96806   0.05633439 0.2211202  0.1302948  0.198817   54         -9999      66.96806   2.246379   2.201232   2.265369925099817 -9999      4316.568804724409
4316.9999  -9999      -9999      -9999      69.11617   0.03567269 0.1891358  0.07428778 0.09446746 54         -9999      69.11617   2.253386   2.224426   2.30020475732923 -9999      4316.768773490813
4317.1999  -9999      -9999      -9999      67.49058   0.04467813 0.2041889  0.09751202 0.155209   54         -9999      67.49058   2.263437   2.252642   2.342419898261041 -9999      4316.968699999999
4317.3999  -9999      -9999      -9999      64.69237   0.03964444 0.1976154  0.08565076 0.1494613  54         -9999      64.69237   2.27625    2.281042   2.384996318643867 -9999      4317.1687 
4317.5999  -9999      -9999      -9999      66.91595   0.03117901 0.1840051  0.05915409 0.1015576  54         -9999      66.91595   2.281318   2.285755   2.392387504844935 -9999      4317.368600000001
4317.7999  -9999      -9999      -9999      68.26386   0.0535452  0.2218217  0.1240446  0.2655203  54         -9999      68.26386   2.281474   2.279005   2.376553587825689 -9999      4317.568548556431
4317.9999  -9999      -9999      -9999      68.40224   0.02883384 0.185665   0.06588559 0.1808647  54         -9999      68.40224   2.287342   2.257917   2.332514443678861 -9999      4317.768499999999
4318.1999  -9999      -9999      -9999      69.29387   0.02032843 0.1702175  0.03429406 0.1199788  54         -9999      69.29387   2.288938   2.235773   2.291243180365155 -9999      4317.968399999999
4318.3999  -9999      -9999      -9999      67.28662   0.02491537 0.1772879  0.04278275 0.1464702  54         -9999      67.28662   2.287693   2.232983   2.290957517041409 -9999      4318.168354855643
4318.5999  -9999      -9999      -9999      64.83041   0.01920916 0.1690996  0.0272843  0.1285083  54         -9999      64.83041   2.287296   2.237355   2.302891584319152 -9999      4318.3683 
4318.7999  -9999      -9999      -9999      66.54577   0.01036094 0.1535668  -0.004404662 0.06212117 54         -9999      66.54577   2.283659   2.246578   2.323256612845902 -9999      4318.5682 
4318.9999  -9999      -9999      -9999      66.79678   0.01732806 0.1650251  0.01230115 0.1032062  54         -9999      66.79678   2.288663   2.25492    2.33656934946643 -9999      4318.768161154855
4319.1999  -9999      -9999      -9999      67.49336   0.007226202 0.1489278  -0.01836555 0.03968457 54         -9999      67.49336   2.295453   2.260433   2.342702750561597 -9999      4318.9681 
4319.3999  -9999      -9999      -9999      65.70564   0.01045318 0.1537236  -0.01456883 0.04188577 54         -9999      65.70564   2.293833   2.269708   2.357718476724031 -9999      4319.168000000001
4319.5999  -9999      -9999      -9999      68.51453   0.01952209 0.1694624  0.01073068 0.1010676  54         -9999      68.51453   2.298154   2.268183   2.353128529305164 -9999      4319.367967454069
4319.7999  -9999      -9999      -9999      67.66871   0.02469959 0.1808115  0.03241236 0.1689885  54         -9999      67.66871   2.305315   2.257992   2.322518528861952 -9999      4319.5679 
4319.9999  -9999      -9999      -9999      69.40453   0.01519942 0.1684622  0.01380037 0.1532232  54         -9999      69.40453   2.309005   2.248334   2.294809173344405 -9999      4319.767804986877
4320.1999  -9999      -9999      -9999      68.50467   0.01977057 0.1780078  0.03178857 0.2149783  54         -9999      68.50467   2.309321   2.254566   2.30891591562745 -9999      4319.9678 
4320.3999  -9999      -9999      -9999      68.38633   0.01403681 0.1714344  0.02323834 0.2261563  54         -9999      68.38633   2.30864    2.27414    2.354439457489201 -9999      4320.167742519686
4320.5999  -9999      -9999      -9999      69.61117   0.003044329 0.1548212  -0.005017816 0.1863743  54         -9999      69.61117   2.308034   2.284814   2.376320238029368 -9999      4320.3677 
4320.7999  -9999      -9999      -9999      66.69166   -0.002107482 0.1471285  -0.01924662 0.1691968  54         -9999      66.69166   2.315798   2.275362   2.350616064825664 -9999      4320.567599999999
4320.9999  -9999      -9999      -9999      68.6797    -0.01710394 0.1223714  -0.06540008 0.07043043 54         -9999      68.6797    2.318805   2.263533   2.325594505934666 -9999      4320.767548818897
