~Version
 VERS              .         2.0                           : CWLS LOG ASCII STANDARD - VERSION 2.0
 WRAP              .         NO                            : ONE LINE PER DEPTH STEP
 DLM               .         SPACE                         : DELIMITING CHARACTER(SPACE TAB OR COMMA)
~Well Information
#_______________________________________________________________________________
#
#PARAMETER_NAME    .UNIT     VALUE                         : DESCRIPTION
#_______________________________________________________________________________
STRT               .m        1880.5999                     : First reference value
STOP               .m        5405.7999                     : Last reference value
STEP               .m        0.2                           : Step increment
NULL               .         -9999                         : Missing value
COMP               .         PETROLEO BRASILEIRO S/A       : Company
WELL               .         1-ESS-86A_resample            : Well name
FLD                .                                       : Field
LOC                .                                       : Location
CNTY               .                                       : County
STAT               .         ESPIRITO SANTO                : State
CTRY               .                                       : Country
SRVC               .                                       : Service Company
DATE               .                                       : Date
API                .         342710051600                  : API number
EDF                .M        14.00                         : Elevation Derrick Floor
GDAT               .         SIRGAS2000                    : Geodetic Datum
HZCS               .         UTM                           : Horizontal Coordinate System
LMF                .         MR                            : Log Measure From
LATI               .         -20_24_56.411                 : Latitude
LONG               .         -39_29_19.989                 : Longitude
MC                 .         39 W                          : Meridiano Central
ORIG               .         SIGEO EXPORTACAO PERFIL       : Origem dos dados
ORIGINALWELLNAME   .         1ESS 0086A ES                 : 
WDMS               .M        1841.00                       : Water Depth to Mean Sea Level
X                  .         448953.89                     : Surface X
Y                  .         7742410.09                    : Surface Y
~Parameter Information Block
#_______________________________________________________________________________
#
#PARAMETER_NAME    .UNIT     VALUE                         : DESCRIPTION
#_______________________________________________________________________________
SET                .         ESS86A_resample               : 
TLFamily_CALI      .         Caliper                       : 
TLFamily_DEPT      .         Measured Depth                : 
TLFamily_DT        .         Compressional Slowness        : 
TLFamily_GR        .         Gamma Ray                     : 
TLFamily_HDRS      .         Deep Resistivity              : 
TLFamily_INPEFA_1  .                                       : 
TLFamily_INPEFA_2  .                                       : 
TLFamily_INPEFA_3  .                                       : 
TLFamily_INPEFA_4  .                                       : 
TLFamily_LITO      .                                       : 
TLFamily_NPHI      .         Neutron Porosity              : 
TLFamily_RHOB      .         Bulk Density                  : 
~Curve Information
#_______________________________________________________________________________
#
#LOGNAME           .UNIT     LOG_ID                        : DESCRIPTION
#_______________________________________________________________________________
DEPT               .m                                      :  
CALI               .in                                     : CALIPER 1 CYLINDERDIAMETER 
DT                 .us/ft                                  : DELTA-T (ALSO CALLED SLOWNESS OR INTERVAL TRANSIT TIME) 
GR                 .gAPI                                   : GAMMA RAY 
HDRS               .ohm.m                                  : INDUCTION DEEP RESISTIVITY 
INPEFA_1           .                                       :  
INPEFA_2           .                                       :  
INPEFA_3           .                                       :  
INPEFA_4           .                                       :  
LITO               .                                       :  
NPHI               .%                                      : THERMAL NEUTRON POROSITY (ORIGINAL RATIO METHOD) IN SELECTED LITHOLOGY 
RHOB               .g/cm3                                  : BULK DENSITY 
~Ascii
# ...
2352.7999  -9999      -9999      40.0866    -9999      0.1976523  0.1022326  -0.05077833 -0.03310629 57         -9999      -9999     
2352.9999  -9999      -9999      39.3513    -9999      0.1960434  0.09770265 -0.0662117 -0.07948754 57         -9999      -9999     
2353.1999  -9999      -9999      40.3903    -9999      0.205167   0.1168137  -0.0391206 -0.04001081 57         -9999      -9999     
2353.3999  -9999      -9999      37.1616    -9999      0.2088113  0.1243226  -0.03192375 -0.03628795 57         -9999      -9999     
2353.5999  -9999      -9999      35.803     -9999      0.2132489  0.133415   -0.02219961 -0.02815971 57         -9999      -9999     
2353.7999  -9999      -9999      34.0768    -9999      0.215304   0.1393048  -0.01550153 -0.01800215 57         -9999      -9999     
2353.9999  -9999      -9999      32.2067    -9999      0.2233968  0.157171   0.01137764 0.03180674 57         -9999      -9999     
2354.1999  -9999      -9999      32.9899    -9999      0.2206673  0.1522294  -0.001179667 0.008225055 57         -9999      -9999     
2354.3999  -9999      -9999      34.2686    -9999      0.2170823  0.1448888  -0.0192476 -0.03132277 57         -9999      -9999     
2354.5999  -9999      -9999      37.1296    -9999      0.2253941  0.1627996  0.006663112 0.01388066 57         -9999      -9999     
2354.7999  -9999      -9999      38.0247    -9999      0.2315893  0.1767051  0.02674939 0.0541589  57         -9999      -9999     
2354.9999  -9999      -9999      37.9927    -9999      0.2346535  0.1851289  0.03924092 0.08815864 57         -9999      -9999     
2355.1999  -9999      -9999      39.0636    -9999      0.2298397  0.1772313  0.0237757  0.07078523 57         -9999      -9999     
2355.3999  -9999      -9999      40.2624    -9999      0.2265263  0.170204   0.006284612 0.03888646 57         -9999      -9999     
2355.5999  -9999      -9999      41.9407    -9999      0.2259028  0.1683948  -0.003129811 0.01866967 57         -9999      -9999     
2355.7999  -9999      -9999      39.8468    -9999      0.2268064  0.1700662  -0.006317205 0.01041648 57         -9999      -9999     
2355.9999  -9999      -9999      38.0247    -9999      0.229553   0.1754543  -0.003358792 0.01304528 57         -9999      -9999     
2356.1999  -9999      -9999      35.1317    -9999      0.2338814  0.1849768  0.00800971 0.03613162 57         -9999      -9999     
2356.3999  -9999      -9999      33.5813    -9999      0.2399553  0.1992963  0.02955437 0.08571386 57         -9999      -9999     
2356.5999  -9999      -9999      32.6862    -9999      0.2382528  0.1971921  0.02269026 0.0824417  57         -9999      -9999     
2356.7999  -9999      -9999      32.91      -9999      0.237127   0.1958045  0.0161916  0.0772457  57         -9999      -9999     
2356.9999  -9999      -9999      33.0059    -9999      0.240369   0.2035773  0.02543516 0.1016279  57         -9999      -9999     
2357.1999  -9999      -9999      34.1887    -9999      0.2355735  0.1944239  0.005141214 0.0683554  57         -9999      -9999     
2357.3999  -9999      -9999      36.0428    -9999      0.2438814  0.2131575  0.03356901 0.1295404  57         -9999      -9999     
2357.5999  -9999      -9999      36.1706    -9999      0.232423   0.1898085  -0.01177548 0.0470256  57         -9999      -9999     
2357.7999  -9999      -9999      35.3715    -9999      0.237665   0.2006193  0.000274247 0.06706367 57         -9999      -9999     
2357.9999  -9999      -9999      33.9489    -9999      0.2344597  0.1939475  -0.01774005 0.02962136 57         -9999      -9999     
2358.1999  -9999      -9999      34.9079    -9999      0.2416133  0.2088819  0.001479644 0.06302141 57         -9999      -9999     
2358.3999  -9999      -9999      37.3054    -9999      0.2451295  0.2176532  0.01246565 0.08952609 57         -9999      -9999     
2358.5999  -9999      -9999      39.0796    -9999      0.2326831  0.1915674  -0.03906986 -0.01245868 57         -9999      -9999     
2358.7999  -9999      -9999      39.1755    -9999      0.2478172  0.2233334  0.009186947 0.0737951  57         -9999      -9999     
2358.9999  -9999      -9999      37.801     -9999      0.2410965  0.2100971  -0.01894283 0.01928882 57         -9999      -9999     
2359.1999  -9999      -9999      36.0907    -9999      0.2497183  0.2293587  0.009634807 0.07342413 57         -9999      -9999     
2359.3999  -9999      -9999      34.3485    -9999      0.2395447  0.2086066  -0.03200755 -0.01104901 57         -9999      -9999     
2359.5999  -9999      -9999      34.3165    -9999      0.2466395  0.2235113  -0.01323281 0.01331538 57         -9999      -9999     
2359.7999  -9999      -9999      35.4034    -9999      0.2493206  0.2304038  -0.006405462 0.019577   57         -9999      -9999     
2359.9999  -9999      -9999      36.3305    -9999      0.2542693  0.242673   0.01074203 0.04791335 57         -9999      -9999     
2360.1999  -9999      -9999      37.8649    -9999      0.2564878  0.249211   0.01807448 0.05779097 57         -9999      -9999     
2360.3999  -9999      -9999      36.9219    -9999      0.2646481  0.2685772  0.04829276 0.1136277  57         -9999      -9999     
2360.5999  -9999      -9999      38.5841    -9999      0.2647177  0.2722117  0.05347317 0.1290558  57         -9999      -9999     
2360.7999  -9999      -9999      38.2645    -9999      0.2636012  0.2726003  0.05208297 0.1294186  57         -9999      -9999     
2360.9999  -9999      -9999      38.9518    -9999      0.2600883  0.2664699  0.03702998 0.09523457 57         -9999      -9999     
2361.1999  -9999      -9999      37.6252    -9999      0.2571759  0.2611009  0.0222459  0.05571458 57         -9999      -9999     
2361.3999  -9999      -9999      36.0268    -9999      0.2596959  0.2670277  0.02670316 0.04977415 57         -9999      -9999     
2361.5999  -9999      -9999      37.753     -9999      0.2716688  0.294557   0.07137203 0.1293151  57         -9999      -9999     
2361.7999  -9999      -9999      36.4104    -9999      0.2647306  0.2824639  0.0479153  0.08077099 57         -9999      -9999     
2361.9999  -9999      -9999      37.785     -9999      0.2713449  0.2978649  0.07062747 0.1149845  57         -9999      -9999     
2362.1999  -9999      -9999      36.1227    -9999      0.2729554  0.3045673  0.08114582 0.1348383  57         -9999      -9999     
2362.3999  -9999      -9999      37.5931    -9999      0.2616316  0.2819065  0.03768013 0.04118381 57         -9999      -9999     
2362.5999  -9999      -9999      37.737     -9999      0.2640512  0.2872242  0.04079386 0.02679484 57         -9999      -9999     
2362.7999  -9999      -9999      37.2575    -9999      0.2703907  0.3020563  0.06216544 0.0505842  57         -9999      -9999     
2362.9999  -9999      -9999      35.9788    -9999      0.2685025  0.3001783  0.05572955 0.02429745 57         -9999      -9999     
2363.1999  -9999      -9999      34.844     -9999      0.2721906  0.3096328  0.06844353 0.03214251 57         -9999      -9999     
2363.3999  -9999      -9999      34.0608    -9999      0.2723502  0.3121782  0.0698325  0.0186301  57         -9999      -9999     
2363.5999  -9999      -9999      34.4124    -9999      0.2672304  0.3020461  0.04692657 -0.05025947 57         -9999      -9999     
2363.7999  -9999      -9999      35.6592    -9999      0.2791457  0.3283847  0.08816654 0.004654273 57         -9999      -9999     
2363.9999  -9999      -9999      37.753     -9999      0.2800258  0.3331873  0.0948424  0.001721574 57         -9999      -9999     
2364.1999  -9999      -9999      39.8148    -9999      0.2846679  0.3459144  0.1156185  0.027003   57         -9999      -9999     
2364.3999  -9999      -9999      39.9747    -9999      0.2847477  0.3489501  0.1196956  0.02049838 57         -9999      -9999     
2364.5999  -9999      -9999      37.3694    -9999      0.282865   0.3472854  0.1146961  -0.007992629 57         -9999      -9999     
2364.7999  -9999      -9999      36.81      -9999      0.2850426  0.3542615  0.1246987  -0.00998571 57         -9999      -9999     
