~Version
 VERS              .         2.0                           : CWLS LOG ASCII STANDARD - VERSION 2.0
 WRAP              .         NO                            : ONE LINE PER DEPTH STEP
 DLM               .         SPACE                         : DELIMITING CHARACTER(SPACE TAB OR COMMA)
~Well Information
#_______________________________________________________________________________
#
#PARAMETER_NAME    .UNIT     VALUE                         : DESCRIPTION
#_______________________________________________________________________________
STRT               .m        2119.8892                     : First reference value
STOP               .m        5043.2892                     : Last reference value
STEP               .m        0.2                           : Step increment
NULL               .         -9999                         : Missing value
COMP               .         PETROLEO BRASILEIRO S/A       : Company
WELL               .         1ESS 0094  ES                 : Well name
FLD                .                                       : Field
LOC                .                                       : Location
CNTY               .                                       : County
STAT               .         ESPIRITO SANTO                : State
CTRY               .                                       : Country
SRVC               .                                       : Service Company
DATE               .                                       : Date
API                .         342710052700                  : API number
EDF                .M        25.00                         : Elevation Derrick Floor
GDAT               .         SIRGAS2000                    : Geodetic Datum
HZCS               .         UTM                           : Horizontal Coordinate System
LAT                .         -20.952076                    : Latitude
LONG               .         -39.451195                    : Longitude
MC                 .         39 W                          : Meridiano Central
ORIG               .         SIGEO EXPORTACAO PERFIL       : Origem dos dados
WDMS               .M        2081.00                       : Water Depth to Mean Sea Level
XCOORD             .         453092.70                     : Surface X
YCOORD             .         7683090.10                    : Surface Y
~Parameter Information Block
#_______________________________________________________________________________
#
#PARAMETER_NAME    .UNIT     VALUE                         : DESCRIPTION
#_______________________________________________________________________________
SET                .         ESS94_resample                : 
TLFamily_CALI      .         Caliper                       : 
TLFamily_DEPT      .         Measured Depth                : 
TLFamily_DT        .         Compressional Slowness        : 
TLFamily_DTS       .         Shear Slowness                : 
TLFamily_GR        .         Gamma Ray                     : 
TLFamily_INPEFA_1  .                                       : 
TLFamily_INPEFA_2  .                                       : 
TLFamily_INPEFA_3  .                                       : 
TLFamily_INPEFA_4  .                                       : 
TLFamily_LITO      .                                       : 
TLFamily_NPHI      .         Neutron Porosity              : 
TLFamily_OG        .                                       : 
TLFamily_RESD      .         Deep Resistivity              : 
TLFamily_RESM      .         Medium Resistivity            : 
TLFamily_RESS      .         Shallow Resistivity           : 
TLFamily_RHOB      .         Bulk Density                  : 
TLFamily_SP        .         Spontaneous Potential         : 
TLFamily_TVD       .         True Vertical Depth           : 
~Curve Information
#_______________________________________________________________________________
#
#LOGNAME           .UNIT     LOG_ID                        : DESCRIPTION
#_______________________________________________________________________________
DEPT               .m                                      :  
CALI               .in                                     :  
DT                 .us/ft                                  :  
DTS                .us/ft                                  :  
GR                 .Sem                                    : GAMMA RAY 
INPEFA_1           .                                       :  
INPEFA_2           .                                       :  
INPEFA_3           .                                       :  
INPEFA_4           .                                       :  
LITO               .Sem                                    : Não definido 
NPHI               .Sem                                    : THERMAL NEUTRON POROSITY (ORIGINAL RATIO METHOD) IN SELECTED LITHOLOGY 
OG                 .                                       :  
RESD               .ohm.m                                  :  
RESM               .ohm.m                                  :  
RESS               .ohm.m                                  :  
RHOB               .g/cm3                                  :  
SP                 .mV                                     : SPONTANEOUS POTENTIAL 
TVD                .m                                      : Vertical Depth 
~Ascii
# ...
3333.2892  12.1045    126.1754   335.0407   90.69467   0.1022187  0.03198626 -0.0172682 -0.3341691 57         41.77245093518295 90.69467   0.4869696  0.5077642  0.4567043  2.143655   -37.80885517190776 3333.083700000001
3333.4892  12.14837   126.1141   335.9413   93.55643   0.09815687 0.02635424 -0.02567915 -0.3313033 57         40.80475499311007 93.55643   0.4916623  0.5134601  0.4629732  2.158189   -34.44818972289403 3333.2837 
3333.6892  12.20162   126.677    337.3819   94.30768   0.09700361 0.02412377 -0.02851298 -0.3202089 57         38.47628372673366 94.30768   0.4871868  0.5080606  0.4559887  2.166698   -34.43422837145421 3333.4837 
3333.8892  12.27675   127.6496   338.3136   92.86626   0.09222902 0.01534241 -0.04699268 -0.3456484 57         41.86264846081077 92.86626   0.4836169  0.5030492  0.4512011  2.167245   -30.82131242126207 3333.6837 
3334.0892  12.40047   127.2478   335.9163   90.31106   0.1058269  0.03580287 -0.002029902 -0.2394738 57         43.73167833944054 90.31106   0.4842958  0.5031766  0.4505207  2.161919   -30.06053660235418 3333.8837 
3334.2892  12.21935   127.1811   338.5858   89.60103   0.1086901  0.04159226 0.01682633 -0.1618194 57         43.79485020675026 89.60103   0.4835396  0.5028949  0.4520984  2.161173   -32.22979868491309 3334.0837 
3334.4892  12.15083   126.9063   344.9537   92.16518   0.1085656  0.04171012 0.02249306 -0.1088169 57         42.58760550391152 92.16518   0.4830529  0.5044213  0.4533688  2.166222   -32.93661494017211 3334.2837 
3334.6892  12.12046   126.685    339.3295   92.62788   0.1067037  0.03994473 0.02622302 -0.05178864 57         40.90740725499961 92.62788   0.492338   0.5159774  0.4665633  2.164753   -30.58364389573559 3334.4837 
3334.8892  12.18498   126.5769   342.3347   93.16098   0.1017937  0.03169718 0.01274576 -0.03475492 57         40.43912947647207 93.16098   0.5035232  0.5285181  0.4777886  2.162621   -34.45563543124474 3334.6837 
3335.0892  12.19148   126.0812   335.1201   94.9458    0.09383924 0.01866837 -0.01084117 -0.04455687 57         42.95533998745309 94.9458    0.5045927  0.5306205  0.4777173  2.158983   -32.48211622863526 3334.8837 
3335.2892  12.11408   125.8082   325.5181   96.02957   0.08223608 -0.001454555 -0.05361395 -0.1124839 57         45.6188321051009 96.02957   0.5008356  0.5278422  0.4762131  2.153838   -29.67573722078069 3335.0837 
3335.4892  12.17093   125.9565   324.0681   96.71132   0.07884457 -0.01105765 -0.08012325 -0.1753522 57         45.52661463219337 96.71132   0.4975916  0.5235144  0.4750741  2.158446   -26.47894411762678 3335.2837 
3335.6892  12.14029   126.1916   325.7136   92.55136   0.1005284  0.02037852 -0.01616303 -0.04865418 57         45.58667867265037 92.55136   0.4922276  0.5126902  0.4648619  2.161212   -26.83626795691156 3335.4837 
3335.8892  12.15544   126.1283   325.8126   86.24075   0.08866006 0.00100161 -0.05645412 -0.1199608 57         46.7913115894391 86.24075   0.4845013  0.4979005  0.4478992  2.153685   -32.58433455619799 3335.6837 
3336.0892  12.18301   124.6834   327.7263   85.97894   0.1061782  0.02633417 -0.004259994 -0.01615129 57         46.21968030554061 85.97894   0.4887789  0.5024677  0.4515926  2.148619   -33.75399242611097 3335.8837 
3336.2892  12.20249   123.4064   319.7755   85.97426   0.108552   0.03041259 0.008286726 0.0275607  57         46.55263921782801 85.97426   0.5068294  0.5225132  0.4684504  2.15523    -31.9752339340562 3336.0837 
3336.4892  12.24813   121.7203   294.0811   87.55892   0.1104102  0.03454757 0.02312478 0.0818232  57         48.10700083655038 87.55892   0.5314708  0.5491651  0.4889754  2.172007   -31.70380231401741 3336.2837 
3336.6892  12.40083   122.8674   292.5653   90.38445   0.1040897  0.02408912 0.003252919 0.05330567 57         45.10752703449233 90.38445   0.571381   0.5906624  0.5213507  2.189014   -32.23169149564 3336.4837 
3336.8892  12.1949    124.8844   296.6206   93.17925   0.1048202  0.02405297 0.003145908 0.05375793 57         40.13834493241532 93.17925   0.5738858  0.5906981  0.5196959  2.219701   -32.93089171282136 3336.683700000001
3337.0892  12.21927   125.7525   302.6997   92.33858   0.1005655  0.01562719 -0.01642215 0.00693044 57         41.80998243998032 92.33858   0.5365293  0.5498475  0.4906814  2.242157   -30.49109802846355 3336.8837 
3337.2892  12.16381   125.631    307.0603   91.133     0.09751379 0.008256546 -0.03628618 -0.05492951 57         43.62595274317019 91.133     0.4995227  0.5121424  0.4592422  2.207894   -27.93826903696158 3337.0837 
3337.4892  12.1034    125.5827   313.3663   91.76494   0.1283565  0.05645023 0.06767858 0.1519618  57         43.35045045066762 91.76494   0.4661767  0.4798347  0.4343325  2.155111   -30.34770776343031 3337.2837 
3337.6892  12.04734   125.7366   317.5952   93.43597   0.09985068 0.01383279 -0.01674085 -0.001751167 57         40.38961319410512 93.43597   0.4513797  0.4659947  0.4307269  2.140525   -33.82356884973684 3337.48361863517
3337.8892  12.05711   126.1288   319.5959   95.7695    0.07714231 -0.0271708 -0.1150022 -0.2507787 57         37.10189335740442 95.7695    0.4664716  0.4842238  0.4488166  2.14992    -32.87200852641681 3337.6836 
3338.0892  12.06695   126.8972   325.6585   98.45966   0.1046939  0.01031011 -0.04833363 -0.1855812 57         37.31159540612181 98.45966   0.4869282  0.5093958  0.4702834  2.163005   -30.69416114726568 3337.883600000001
3338.2892  12.08772   127.4838   330.8599   101.3667   0.111619   0.01895134 -0.03574736 -0.2078311 57         39.11562379451669 101.3667   0.4954005  0.5213752  0.4786255  2.175654   -30.18359784003648 3338.0836 
3338.4892  12.08718   126.7947   329.1407   102.1753   0.138666   0.06168428 0.0553495  -0.04866121 57         41.84703538548832 102.1753   0.4861601  0.5125092  0.470492   2.174505   -29.27205315537441 3338.2836 
3338.6892  12.12857   126.0103   326.5123   97.14002   0.1462251  0.07527959 0.08928078 0.01959543 57         47.02716889468636 97.14002   0.4756363  0.5010855  0.4606253  2.156696   -31.55692370355748 3338.4836 
3338.8892  12.1603    125.9247   325.7144   95.27826   0.1286819  0.05275021 0.05260716 -0.0281819 57         48.13434722980448 95.27826   0.4673348  0.4919829  0.4509069  2.147343   -36.68153373337743 3338.6836 
3339.0892  12.1987    125.677    327.7062   93.2083    0.1092508  0.01847434 -0.02639188 -0.219289  57         42.87300109863785 93.2083    0.4616     0.4866     0.4444     2.1478     -28.8512001037712 3338.883600000001
3339.2892  12.24432   125.1433   328.655    91.89013   0.1246786  0.03961929 0.01220597 -0.1890115 57         44.77455065069078 91.89013   0.4672914  0.4985469  0.4586412  2.149926   -39.40569566746608 3339.0836 
3339.4892  12.25122   126.0416   330.9391   92.38038   0.1330213  0.05206812 0.03703007 -0.1706302 57         45.45435221113861 92.38038   0.4757172  0.5136517  0.4737815  2.138891   -51.00303242400711 3339.2836 
3339.6892  12.21952   126.8211   334.4807   94.57819   0.1392411  0.06210012 0.05875036 -0.1502229 57         46.05082327174284 94.57819   0.4821898  0.5212281  0.478018   2.130996   -30.84912442789662 3339.4836 
3339.8892  12.1907    126.7764   338.9442   96.09784   0.1332693  0.05139939 0.03290474 -0.2372947 57         47.34114915742655 96.09784   0.4870993  0.5225505  0.4753748  2.144243   -26.59204325839211 3339.6836 
3340.0892  12.18228   127.6077   332.9983   97.3472    0.155537   0.08683877 0.1089122  -0.1055268 57         47.13182196028687 97.3472    0.4853928  0.5183649  0.469277   2.15587    -47.88573184474848 3339.883600000001
3340.2892  12.20436   127.9531   333.3978   98.39928   0.1388611  0.05997027 0.05039071 -0.2462308 57         44.59785719743437 98.39928   0.4766006  0.506511   0.4591747  2.159374   -40.81620157796666 3340.0836 
3340.4892  12.18926   127.9619   339.5012   93.54005   0.1561908  0.08610238 0.1033873  -0.1692265 57         41.75414499398006 93.54005   0.4665058  0.4933948  0.4483648  2.155821   -27.04156611785634 3340.2836 
3340.6892  12.22596   128.6859   348.3087   95.54962   0.1603371  0.09339432 0.1211327  -0.142931  57         43.00745817369435 95.54962   0.473968   0.501554   0.4543719  2.146858   -36.6584156216402 3340.4836 
