~Version
 VERS              .         2.0                           : CWLS LOG ASCII STANDARD - VERSION 2.0
 WRAP              .         NO                            : ONE LINE PER DEPTH STEP
 DLM               .         SPACE                         : DELIMITING CHARACTER(SPACE TAB OR COMMA)
~Well Information
#_______________________________________________________________________________
#
#PARAMETER_NAME    .UNIT     VALUE                         : DESCRIPTION
#_______________________________________________________________________________
STRT               .m        2430.3999                     : First reference value
STOP               .m        5554.9999                     : Last reference value
STEP               .m        0.2                           : Step increment
NULL               .         -9999                         : Missing value
COMP               .         PETROLEO BRASILEIRO S/A       : Company
WELL               .         1-ESS-186_resample            : Well name
FLD                .                                       : Field
LOC                .                                       : Location
CNTY               .                                       : County
STAT               .         ESPIRITO SANTO                : State
CTRY               .                                       : Country
SRVC               .                                       : Service Company
DATE               .                                       : Date
API                .         342710339400                  : API number
EDF                .M        25.00                         : Elevation Derrick Floor
GDAT               .         SIRGAS2000                    : Geodetic Datum
HZCS               .         UTM                           : Horizontal Coordinate System
LAT                .         -20.356499                    : Latitude
LONG               .         -39.496292                    : Longitude
MC                 .         39 W                          : Meridiano Central
ORIG               .         SIGEO EXPORTACAO PERFIL       : Origem dos dados
WDMS               .M        1798.00                       : Water Depth to Mean Sea Level
XCOORD             .         448202.60                     : Surface X
YCOORD             .         7748989.80                    : Surface Y
~Parameter Information Block
#_______________________________________________________________________________
#
#PARAMETER_NAME    .UNIT     VALUE                         : DESCRIPTION
#_______________________________________________________________________________
SET                .         ESS186_resample               : 
TLFamily_CALI      .         Caliper                       : 
TLFamily_DEPT      .         Measured Depth                : 
TLFamily_DT        .         Compressional Slowness        : 
TLFamily_DTS       .         Shear Slowness                : 
TLFamily_GR        .         Gamma Ray                     : 
TLFamily_INPEFA_1  .                                       : 
TLFamily_INPEFA_2  .                                       : 
TLFamily_INPEFA_3  .                                       : 
TLFamily_INPEFA_4  .                                       : 
TLFamily_LITO      .                                       : 
TLFamily_NPHI      .         Neutron Porosity              : 
TLFamily_OG        .                                       : 
TLFamily_RESD      .         Deep Resistivity              : 
TLFamily_RESM      .         Medium Resistivity            : 
TLFamily_RESS      .         Shallow Resistivity           : 
TLFamily_RHOB      .         Bulk Density                  : 
TLFamily_TVD       .         True Vertical Depth           : 
~Curve Information
#_______________________________________________________________________________
#
#LOGNAME           .UNIT     LOG_ID                        : DESCRIPTION
#_______________________________________________________________________________
DEPT               .m                                      :  
CALI               .in                                     :  
DT                 .us/ft                                  :  
DTS                .us/ft                                  :  
GR                 .gAPI                                   : GAMMA RAY 
INPEFA_1           .                                       :  
INPEFA_2           .                                       :  
INPEFA_3           .                                       :  
INPEFA_4           .                                       :  
LITO               .Sem                                    : Não definido 
NPHI               .%                                      : THERMAL NEUTRON POROSITY (ORIGINAL RATIO METHOD) IN SELECTED LITHOLOGY 
OG                 .                                       :  
RESD               .ohm.m                                  :  
RESM               .ohm.m                                  :  
RESS               .ohm.m                                  :  
RHOB               .g/cm3                                  :  
TVD                .                                       : Vertical Depth 
~Ascii
# ...
5539.999900000001 12.54495   -9999      -9999      58.73337   0.2463927  0.4122542  0.3561436  0.4663523  49         2.385967   58.73337   28.26559   29.24504   33.0381318971379 2.690898   5538.517800000001
5540.1999  12.55549   -9999      -9999      59.62094   0.2198777  0.3901075  0.3565634  0.5514162  49         2.803191   59.62094   26.35655   26.7813    30.2265682999798 2.694221   5538.717799999999
5540.3999  12.55236   -9999      -9999      61.00484   0.1713929  0.3280884  0.2825851  0.4578289  49         3.523591   61.00484   22.46846   22.58175   25.54958078055362 2.701034   5538.9178 
5540.5999  12.56605   -9999      -9999      64.35919   0.1372514  0.2849241  0.234171   0.3934512  57         4.501419   64.35919   19.94476   20.23767   22.17843150843769 2.711982   5539.117786351706
5540.7999  12.55849   -9999      -9999      71.24025   0.1233821  0.2723133  0.2355348  0.4263366  57         4.07126    71.24025   21.86398   22.4302    25.57613954683306 2.710016   5539.317700000001
5540.999900000001 12.55293   -9999      -9999      75.00063   0.09494062 0.2384506  0.2046528  0.4043484  57         2.748633   75.00063   27.68564   29.54668   34.63776578102484 2.71067    5539.517700000001
5541.1999  12.56581   -9999      -9999      73.23817   0.07420299 0.2137306  0.185717   0.3962668  57         2.291994   73.23817   34.6506    37.89966   45.15475635119795 2.716335   5539.7177 
5541.3999  12.56314   -9999      -9999      69.62166   0.03610886 0.1599913  0.1153574  0.2656907  57         2.829807   69.62166   38.51019   42.20926   50.61836467245365 2.711032   5539.917661417324
5541.5999  12.56733   -9999      -9999      66.21815   0.02764901 0.1523588  0.1217426  0.2876579  57         3.005766   66.21815   40.60144   43.38422   52.28397311044018 2.703641   5540.1176 
5541.7999  12.59484   -9999      -9999      65.3283    0.002152497 0.1185275  0.08584996 0.2228339  57         2.556517   65.3283    44.12537   47.04795   56.68693468617195 2.700875   5540.317599999999
5541.999900000001 12.60289   -9999      -9999      68.60078   -0.0199824 0.08846042 0.05412636 0.1532744  57         2.000065   68.60078   48.08531   52.19234   63.67331350158745 2.709805   5540.517567716536
5542.1999  12.61324   -9999      -9999      73.01187   -0.03621751 0.06775301 0.03909928 0.1167867  57         2.051029   73.01187   45.36666   49.3059    59.89615661033233 2.715197   5540.7175 
5542.3999  12.60433   -9999      -9999      77.00875   -0.05632209 0.04140421 0.01602394 0.05990274 57         2.979559   77.00875   38.09239   41.32453   49.46335060864099 2.707378   5540.917500000001
5542.5999  12.62873   -9999      -9999      82.64751   -0.06567555 0.03354547 0.02701532 0.07388816 57         3.822361   82.64751   34.31633   37.07286   44.02668381148537 2.703974   5541.1175 
5542.7999  12.64167   -9999      -9999      84.00824   -0.07472216 0.02835465 0.04677784 0.1162022  57         3.363589   84.00824   34.48544   37.57054   44.61514476045436 2.707791   5541.317442782152
5542.999900000001 12.64628   -9999      -9999      83.77023   -0.0918954 0.009071421 0.0420045  0.1012309  15         2.11882    83.77023   36.54428   40.39963   49.99524682681968 2.710258   5541.517400000001
5543.1999  12.63689   -9999      -9999      88.33019   -0.08305705 0.03314427 0.115442   0.2687079  15         1.260914   88.33019   44.66429   51.07582   62.8771705468094 2.698975   5541.7174 
5543.3999  12.60739   -9999      -9999      98.36646   -0.02826518 0.02889205 0.0355945  0.08865622 15         1.215991   98.36646   46.01431   54.5678    69.03328042357458 2.678686   5541.9174 
5543.5999  12.5218    -9999      -9999      105.5319   -0.05436352 0.02907039 0.07927099 0.1699718  15         2.251522   105.5319   38.10352   44.07412   55.37182485237613 2.673175   5542.117317847769
5543.7999  12.44393   -9999      -9999      105.1468   -0.03176941 0.0308397  0.06257726 0.1283224  15         2.592927   105.1468   36.5648    41.9919    52.25756483539945 2.679994   5542.317300000001
5543.999900000001 12.3868    -9999      -9999      105.4403   -0.02738413 0.03028503 0.06043493 0.112355   15         1.243213   105.4403   44.96183   54.76538   76.30064912305538 2.676584   5542.517300000001
5544.1999  12.34208   -9999      -9999      106.7869   -0.02275268 0.03217388 0.06495495 0.113138   15         0.3042493  106.7869   53.32905   67.34152   101.2667454307244 2.658326   5542.717299999999
5544.3999  12.34021   -9999      -9999      110.6943   -0.01694211 0.03057398 0.05893889 0.09674636 15         0.1026433  110.6943   54.46864   69.72801   102.1844921512578 2.638623   5542.9172 
5544.5999  12.30746   -9999      -9999      110.361    -0.01405986 0.02727336 0.05184767 0.07942782 15         0.2134701  110.361    50.97322   64.38781   92.47568924139179 2.62381    5543.1172 
5544.7999  12.29775   -9999      -9999      110.0732   -0.01023733 0.02607607 0.04870267 0.0711072  15         0.3021105  110.0732   46.89725   56.46269   78.45881622643458 2.623604   5543.3172 
5544.999900000001 12.29127   -9999      -9999      110.48     -0.005558512 0.02722785 0.05027704 0.07524971 15         0.3665543  110.48     41.91657   49.26572   66.3558656368669 2.632495   5543.517199212599
5545.1999  12.30371   -9999      -9999      110.3506   -0.002074216 0.02653278 0.04850306 0.07446217 15         0.45478    110.3506   38.81569   45.75958   60.55303114193153 2.630971   5543.7171 
5545.3999  12.31249   -9999      -9999      110.3771   -0.002696249 0.02052453 0.03804012 0.05492254 15         0.4710284  110.3771   37.18341   44.0641    60.03985301893888 2.622864   5543.917100000001
5545.5999  12.32264   -9999      -9999      109.1072   -0.002734212 0.01599685 0.03011774 0.03926551 15         0.5217685  109.1072   35.0285    41.95324   59.37829363361138 2.616654   5544.1171 
5545.7999  12.31142   -9999      -9999      107.4281   -0.001017496 0.01291223 0.02322001 0.0268413  15         0.7029355  107.4281   31.76883   38.43613   56.31303420393389 2.61928    5544.317  
5545.999900000001 12.32518   -9999      -9999      107.319    -0.0000926 0.009531942 0.01675217 0.01768401 15         1.295411   107.319    29.40558   36.94294   49.16773786033581 2.625248   5544.517000000001
5546.1999  12.35603   -9999      -9999      104.6689   -0.000564826 0.004874507 0.009207105 0.00961442 15         2.975083   104.6689   26.77569   34.16486   41.22257397876513 2.641157   5544.717  
5546.3999  12.39918   -9999      -9999      -9999      -9999      -9999      -9999      -9999      57         5.637478   -9999      21.24609   25.6349    29.59688319698992 2.667521   5544.916980577428
5546.5999  12.45492   -9999      -9999      -9999      -9999      -9999      -9999      -9999      57         7.407036   -9999      17.12973   19.398     21.9104639688835 2.680591   5545.1169 
5546.7999  12.53264   -9999      -9999      -9999      -9999      -9999      -9999      -9999      57         7.70813    -9999      15.88839   17.50016   19.53641985799716 2.671056   5545.3169 
5546.999900000001 12.55906   -9999      -9999      -9999      -9999      -9999      -9999      -9999      57         8.056014   -9999      15.45435   16.80069   19.51814086100253 2.648925   5545.516900000001
5547.1999  12.66448   -9999      -9999      -9999      -9999      -9999      -9999      -9999      57         10.81476   -9999      13.7044    14.48813   17.63546788495648 2.635395   5545.716855643044
5547.3999  12.70554   -9999      -9999      -9999      -9999      -9999      -9999      -9999      15         12.94301   -9999      12.25345   12.75797   15.30425965196906 2.638983   5545.9168 
5547.5999  12.68638   -9999      -9999      -9999      -9999      -9999      -9999      -9999      15         12.22917   -9999      12.80522   13.49585   15.49195869555994 2.647868   5546.1168 
5547.7999  12.66591   -9999      -9999      -9999      -9999      -9999      -9999      -9999      15         8.626051   -9999      15.26334   17.58081   19.56226483825151 2.63804    5546.3168 
5547.999900000001 12.59896   -9999      -9999      -9999      -9999      -9999      -9999      -9999      15         3.718637   -9999      17.05095   22.10232   24.94342657850493 2.608422   5546.516730708662
