~Version
 VERS              .         2.0                           : CWLS LOG ASCII STANDARD - VERSION 2.0
 WRAP              .         NO                            : ONE LINE PER DEPTH STEP
 DLM               .         SPACE                         : DELIMITING CHARACTER(SPACE TAB OR COMMA)
~Well Information
#_______________________________________________________________________________
#
#PARAMETER_NAME    .UNIT     VALUE                         : DESCRIPTION
#_______________________________________________________________________________
STRT               .m        2062.5046                     : First reference value
STOP               .m        6413.5046                     : Last reference value
STEP               .m        0.2                           : Step increment
NULL               .         -9999                         : Missing value
COMP               .         PETROLEO BRASILEIRO S/A       : Company
WELL               .         1-ESS-120_resample            : Well name
FLD                .                                       : Field
LOC                .                                       : Location
CNTY               .                                       : County
STAT               .         ESPIRITO SANTO                : State
CTRY               .                                       : Country
SRVC               .                                       : Service Company
DATE               .                                       : Date
API                .         342710278300                  : API number
EDF                .M        25.00                         : Elevation Derrick Floor
ELEV               .M        25.0000                       : Surface Elev
ELEV_TYPE          .         KB                            : Elev Type
GDAT               .         SIRGAS2000                    : Geodetic Datum
HZCS               .         UTM                           : Horizontal Coordinate System
LAT                .         -20.620145                    : Latitude
LMF                .         MR                            : Log Measure From
LON                .         -39.512655                    : Longitude
LATI               .         -20_37_15.239                 : Latitude
LONG               .         -39_30_38.085                 : Longitude
MC                 .         39 W                          : Meridiano Central
ORIG               .         SIGEO EXPORTACAO PERFIL       : Origem dos dados
ORIGINALWELLNAME   .         1ESS 0120  ES                 : 
WDMS               .M        2003.00                       : Water Depth to Mean Sea Level
X                  .         446729.00                     : Surface X
XCOORD             .         446584.000000                 : Surface X
Y                  .         7719623.00                    : Surface Y
YCOORD             .         7719778.000000                : Surface Y
~Parameter Information Block
#_______________________________________________________________________________
#
#PARAMETER_NAME    .UNIT     VALUE                         : DESCRIPTION
#_______________________________________________________________________________
SET                .         ESS120_resample               : 
TLFamily_CALI      .         Caliper                       : 
TLFamily_DEPT      .         Measured Depth                : 
TLFamily_DTCO      .         Compressional Slowness        : 
TLFamily_GR        .         Gamma Ray                     : 
TLFamily_INPEFA_1  .                                       : 
TLFamily_INPEFA_2  .                                       : 
TLFamily_INPEFA_3  .                                       : 
TLFamily_INPEFA_4  .                                       : 
TLFamily_LITO      .                                       : 
TLFamily_LLD       .         Deep Resistivity              : 
TLFamily_NPHI      .         Neutron Porosity              : 
TLFamily_OG        .                                       : 
TLFamily_RHOB_merge .         Bulk Density                  : 
~Curve Information
#_______________________________________________________________________________
#
#LOGNAME           .UNIT     LOG_ID                        : DESCRIPTION
#_______________________________________________________________________________
DEPT               .m                                      :  
CALI               .in                                     : CALIPER 
DTCO               .us/ft                                  : DELTA-T COMPRESSIONAL 
GR                 .gAPI                                   : GAMMA RAY 
INPEFA_1           .                                       :  
INPEFA_2           .                                       :  
INPEFA_3           .                                       :  
INPEFA_4           .                                       :  
LITO               .                                       :  
LLD                .ohm.m                                  : LATEROLOG DEEP RESISTIVITY 
NPHI               .%                                      : THERMAL NEUTRON POROSITY (ORIGINAL RATIO METHOD) IN SELECTED LITHOLOGY 
OG                 .                                       :  
RHOB_merge         .g/cm3                                  :  
~Ascii
# ...
3549.7046  -9999      106.7398   110.1549   -0.2537861 0.0141265  0.06534071 0.002031599 57         -9999      37.97565   110.1549   2.358673  
3549.9046  -9999      107.5771   112.7413   -0.2552641 0.01275038 0.06734718 -0.005300331 57         -9999      37.34817   112.7413   2.365168  
3550.104600000001 -9999      108.1048   114.6444   -0.2503664 0.02726879 0.09273378 0.0188135  57         -9999      33.81351   114.6444   2.373317  
3550.3046  -9999      108.7664   113.4737   -0.2624786 -0.001672258 0.05212446 -0.05037799 57         -9999      31.34446   113.4737   2.397017  
3550.5046  -9999      108.8862   108.4922   -0.2597652 0.003729241 0.05789887 -0.06937119 57         -9999      31.91324   108.4922   2.384063  
3550.7046  -9999      108.5716   107.1277   -0.2502544 0.02902442 0.09666862 -0.03655461 57         -9999      34.00387   107.1277   2.34702   
3550.9046  -9999      108.3468   109.5958   -0.2550331 0.0197824  0.08630615 -0.06417789 57         -9999      35.09813   109.5958   2.352166  
3551.104600000001 -9999      108.2016   116.7959   -0.2503175 0.0314     0.1030208  -0.06345028 57         -9999      38.05232   116.7959   2.349939  
3551.3046  -9999      108.2786   119.5965   -0.2418475 0.05607307 0.1441718  -0.01794625 57         -9999      36.88542   119.5965   2.344316  
3551.5046  -9999      108.2841   119.2518   -0.2441156 0.05378441 0.1461283  -0.02153803 57         -9999      32.05333   119.2518   2.352235  
3551.7046  -9999      108.4134   117.9195   -0.2389516 0.06984179 0.1750128  0.01162611 57         -9999      34.30735   117.9195   2.337927  
3551.9046  -9999      108.0701   118.7824   -0.2486947 0.04737404 0.1451055  -0.03867344 57         -9999      38.434     118.7824   2.327183  
3552.104600000001 -9999      107.1636   116.642    -0.2395784 0.07083139 0.1807823  -0.006498349 57         -9999      36.15736   116.642    2.328042  
3552.3046  -9999      107.0361   115.1091   -0.2361024 0.08419295 0.2074537  0.02847581 57         -9999      33.67048   115.1091   2.359519  
3552.5046  -9999      107.0969   113.0613   -0.2509969 0.04730345 0.1541105  -0.05676394 57         -9999      33.82689   113.0613   2.360485  
3552.7046  -9999      107.5477   110.8888   -0.2308537 0.09823705 0.2300912  0.02968458 57         -9999      30.5158    110.8888   2.376185  
3552.9046  -9999      107.7076   110.8832   -0.2382667 0.0856523  0.2204125  0.0212233  57         -9999      29.7635    110.8832   2.341148  
3553.104600000001 -9999      107.2355   111.0638   -0.2361884 0.09107647 0.2297292  0.02331998 57         -9999      31.1985    111.0638   2.353299  
3553.3046  -9999      106.5176   115.1404   -0.2359641 0.09406234 0.2378498  0.02803261 57         -9999      33.86759   115.1404   2.367402  
3553.5046  -9999      105.8927   118.2777   -0.2298024 0.1121477  0.2693708  0.06883246 57         -9999      36.40929   118.2777   2.355277  
3553.7046  -9999      105.5772   114.1524   -0.2315304 0.111285   0.2741122  0.07777461 57         -9999      34.79579   114.1524   2.356079  
3553.9046  -9999      105.9337   111.036    -0.2230979 0.1364201  0.3190551  0.1474154  57         -9999      36.21722   111.036    2.372214  
3554.104600000001 -9999      107.0748   110.7158   -0.2366485 0.1059798  0.2809557  0.1042877  57         -9999      38.14968   110.7158   2.36774   
3554.3046  -9999      107.9705   108.5196   -0.228754  0.1263493  0.3139647  0.1478126  57         -9999      39.76072   108.5196   2.334684  
3554.5046  -9999      108.2105   107.681    -0.2273283 0.1352051  0.3363239  0.1927477  57         -9999      38.72958   107.681    2.345705  
3554.7046  -9999      107.5552   108.2192   -0.2373526 0.1118048  0.3066266  0.1603941  57         -9999      34.55843   108.2192   2.366657  
3554.9046  -9999      106.6533   112.3794   -0.2388652 0.1076023  0.3015308  0.1511376  57         -9999      32.19757   112.3794   2.36788   
3555.104600000001 -9999      105.6977   113.0943   -0.2262304 0.1425068  0.3600518  0.241661   57         -9999      33.36236   113.0943   2.366624  
3555.3046  -9999      104.8515   110.0063   -0.2370227 0.1198733  0.3354673  0.2273031  57         -9999      31.0223    110.0063   2.359279  
3555.5046  -9999      103.9802   113.1082   -0.2337633 0.1291215  0.3537581  0.262326   57         -9999      34.70358   113.1082   2.369625  
3555.7046  -9999      103.5692   111.6953   -0.2347075 0.1302583  0.363401   0.2937444  57         -9999      36.99951   111.6953   2.360614  
3555.9046  -9999      104.1883   109.5055   -0.2371354 0.1266937  0.3648998  0.31314    57         -9999      34.15941   109.5055   2.353849  
3556.104600000001 -9999      105.1186   109.7721   -0.2400811 0.121781   0.364358   0.3301511  57         -9999      34.16814   109.7721   2.360105  
3556.3046  -9999      106.0229   111.405    -0.2347695 0.1381572  0.3963516  0.3954681  57         -9999      36.93504   111.405    2.376701  
3556.5046  -9999      106.4784   110.1259   -0.2542198 0.09129949 0.3327374  0.327533   57         -9999      36.38676   110.1259   2.385875  
3556.7046  -9999      106.5085   109.5629   -0.2461895 0.1103274  0.3620509  0.374068   57         -9999      36.82353   109.5629   2.378398  
3556.9046  -9999      106.5016   107.7461   -0.2533797 0.09541301 0.3465547  0.3733123  57         -9999      35.52917   107.7461   2.354615  
3557.104600000001 -9999      106.3557   111.4717   -0.2648292 0.06511933 0.3017915  0.3194133  57         -9999      32.87864   111.4717   2.365695  
3557.3046  -9999      105.5862   114.0143   -0.2654499 0.06185376 0.2959683  0.3131719  57         -9999      31.11363   114.0143   2.35024   
3557.5046  -9999      104.2693   113.2142   -0.2653722 0.06116885 0.2949068  0.3157392  57         -9999      32.71481   113.2142   2.360809  
3557.7046  -9999      103.3822   115.4069   -0.2743838 0.0374702  0.2589259  0.2683016  57         -9999      35.02627   115.4069   2.372479  
3557.9046  -9999      103.8507   119.492    -0.2623826 0.06582046 0.299207   0.3228666  57         -9999      35.69572   119.492    2.382732  
3558.104600000001 -9999      105.0701   115.924    -0.267146  0.05577512 0.2877855  0.3202902  57         -9999      36.54332   115.924    2.386572  
3558.3046  -9999      106.5664   114.2061   -0.272528  0.04181463 0.2671777  0.2989396  57         -9999      37.56231   114.2061   2.383142  
3558.5046  -9999      107.9251   115.4682   -0.2775147 0.02690284 0.2419249  0.2645517  57         -9999      39.84247   115.4682   2.393223  
3558.7046  -9999      108.2738   116.6544   -0.2915401 -0.01187389 0.1786909  0.1702243  57         -9999      40.78753   116.6544   2.381437  
3558.9046  -9999      107.7874   117.5334   -0.2756948 0.0226002  0.2212979  0.2118441  57         -9999      40.32587   117.5334   2.361696  
3559.104600000001 -9999      107.2116   119.2121   -0.2830014 0.006012318 0.1975487  0.1849716  57         -9999      36.99514   119.2121   2.362451  
3559.3046  -9999      106.7234   118.1411   -0.2842405 -0.001793169 0.1788106  0.1492531  57         -9999      35.03099   118.1411   2.36013   
3559.5046  -9999      107.2435   123.1494   -0.2739834 0.02327901 0.2136283  0.1952875  57         -9999      33.6983    123.1494   2.356764  
3559.7046  -9999      108.9292   125.7735   -0.2826917 0.001779192 0.1813467  0.1578901  57         -9999      31.23891   125.7735   2.356436  
3559.9046  -9999      110.4261   125.6342   -0.2842077 -0.005889322 0.1635904  0.1267362  57         -9999      29.69124   125.6342   2.344753  
3560.104600000001 -9999      111.16     128.3849   -0.2908022 -0.02550012 0.1280914  0.06960524 57         -9999      31.12898   128.3849   2.352427  
3560.3046  -9999      110.6891   130.7658   -0.2800059 -0.003237086 0.1525896  0.08907805 57         -9999      31.36465   130.7658   2.352106  
3560.5046  -9999      109.3159   128.3178   -0.2752705 0.01018255 0.1725284  0.12186    57         -9999      34.19453   128.3178   2.330574  
3560.7046  -9999      107.8345   127.3237   -0.2761429 0.005939431 0.162586   0.110015   57         -9999      40.14944   127.3237   2.327239  
