~Version
 VERS              .         2.0                           : CWLS LOG ASCII STANDARD - VERSION 2.0
 WRAP              .         NO                            : ONE LINE PER DEPTH STEP
 DLM               .         SPACE                         : DELIMITING CHARACTER(SPACE TAB OR COMMA)
~Well Information
#_______________________________________________________________________________
#
#PARAMETER_NAME    .UNIT     VALUE                         : DESCRIPTION
#_______________________________________________________________________________
STRT               .m        2119.8892                     : First reference value
STOP               .m        5043.2892                     : Last reference value
STEP               .m        0.2                           : Step increment
NULL               .         -9999                         : Missing value
COMP               .         PETROLEO BRASILEIRO S/A       : Company
WELL               .         1ESS 0094  ES                 : Well name
FLD                .                                       : Field
LOC                .                                       : Location
CNTY               .                                       : County
STAT               .         ESPIRITO SANTO                : State
CTRY               .                                       : Country
SRVC               .                                       : Service Company
DATE               .                                       : Date
API                .         342710052700                  : API number
EDF                .M        25.00                         : Elevation Derrick Floor
GDAT               .         SIRGAS2000                    : Geodetic Datum
HZCS               .         UTM                           : Horizontal Coordinate System
LAT                .         -20.952076                    : Latitude
LONG               .         -39.451195                    : Longitude
MC                 .         39 W                          : Meridiano Central
ORIG               .         SIGEO EXPORTACAO PERFIL       : Origem dos dados
WDMS               .M        2081.00                       : Water Depth to Mean Sea Level
XCOORD             .         453092.70                     : Surface X
YCOORD             .         7683090.10                    : Surface Y
~Parameter Information Block
#_______________________________________________________________________________
#
#PARAMETER_NAME    .UNIT     VALUE                         : DESCRIPTION
#_______________________________________________________________________________
SET                .         ESS94_resample                : 
TLFamily_CALI      .         Caliper                       : 
TLFamily_DEPT      .         Measured Depth                : 
TLFamily_DT        .         Compressional Slowness        : 
TLFamily_DTS       .         Shear Slowness                : 
TLFamily_GR        .         Gamma Ray                     : 
TLFamily_INPEFA_1  .                                       : 
TLFamily_INPEFA_2  .                                       : 
TLFamily_INPEFA_3  .                                       : 
TLFamily_INPEFA_4  .                                       : 
TLFamily_LITO      .                                       : 
TLFamily_NPHI      .         Neutron Porosity              : 
TLFamily_OG        .                                       : 
TLFamily_RESD      .         Deep Resistivity              : 
TLFamily_RESM      .         Medium Resistivity            : 
TLFamily_RESS      .         Shallow Resistivity           : 
TLFamily_RHOB      .         Bulk Density                  : 
TLFamily_SP        .         Spontaneous Potential         : 
TLFamily_TVD       .         True Vertical Depth           : 
~Curve Information
#_______________________________________________________________________________
#
#LOGNAME           .UNIT     LOG_ID                        : DESCRIPTION
#_______________________________________________________________________________
DEPT               .m                                      :  
CALI               .in                                     :  
DT                 .us/ft                                  :  
DTS                .us/ft                                  :  
GR                 .Sem                                    : GAMMA RAY 
INPEFA_1           .                                       :  
INPEFA_2           .                                       :  
INPEFA_3           .                                       :  
INPEFA_4           .                                       :  
LITO               .Sem                                    : Não definido 
NPHI               .Sem                                    : THERMAL NEUTRON POROSITY (ORIGINAL RATIO METHOD) IN SELECTED LITHOLOGY 
OG                 .                                       :  
RESD               .ohm.m                                  :  
RESM               .ohm.m                                  :  
RESS               .ohm.m                                  :  
RHOB               .g/cm3                                  :  
SP                 .mV                                     : SPONTANEOUS POTENTIAL 
TVD                .m                                      : Vertical Depth 
~Ascii
# ...
2752.6892  -9999      131.1353   -9999      31.86302   -0.2034165 -0.2123754 -0.3843231 -0.2237662 57         -9999      31.86302   0.9988927  1.064723   1.012393   -9999      -9999      2752.548776902888
2752.8892  -9999      136.1167   -9999      36.57497   -0.2068999 -0.2200233 -0.4030774 -0.2984853 57         -9999      36.57497   0.9570037  0.9489536  0.9067927  -9999      -9999      2752.7487 
2753.0892  -9999      140.4145   -9999      39.8969    -0.2010073 -0.2125175 -0.3896007 -0.3121086 57         -9999      39.8969    0.9143444  0.8561875  0.824477   -9999      -9999      2752.9487 
2753.2892  -9999      139.6056   -9999      42.81547   -0.2031391 -0.2183076 -0.4062175 -0.3930366 57         -9999      42.81547   0.8899784  0.8369992  0.8038254  -9999      -9999      2753.1486 
2753.4892  -9999      138.2355   -9999      43.33795   -0.1770948 -0.1777502 -0.3193409 -0.2465143 57         -9999      43.33795   0.882556   0.8401418  0.8005762  -9999      -9999      2753.348551968504
2753.6892  -9999      139.1872   -9999      43.96139   -0.188346  -0.1940867 -0.3492399 -0.312951  57         -9999      43.96139   0.8875026  0.84814    0.8027849  -9999      -9999      2753.5485 
2753.8892  -9999      138.1556   -9999      44.59897   -0.1855043 -0.1910181 -0.3432625 -0.3239144 57         -9999      44.59897   0.8996758  0.8527831  0.8110194  -9999      -9999      2753.748489501313
2754.0892  -9999      135.0861   -9999      43.50869   -0.1822403 -0.1862608 -0.3315395 -0.3134233 57         -9999      43.50869   0.9178114  0.8662018  0.8308389  -9999      -9999      2753.9484 
2754.2892  -9999      132.2817   -9999      44.37514   -0.1847522 -0.1908776 -0.3401819 -0.3427046 57         -9999      44.37514   0.9504588  0.9122522  0.8747131  -9999      -9999      2754.148327034121
2754.4892  -9999      131.0935   -9999      44.48755   -0.1810079 -0.1862384 -0.3299506 -0.3343185 57         -9999      44.48755   1.005333   0.9979161  0.945576   -9999      -9999      2754.3483 
2754.6892  -9999      130.7148   -9999      39.47943   -0.1687108 -0.1660045 -0.2812835 -0.2260173 57         -9999      39.47943   1.059044   1.074126   1.009729   -9999      -9999      2754.548264566929
2754.8892  -9999      131.6139   -9999      32.5188    -0.1796932 -0.1817835 -0.3070924 -0.25596   57         -9999      32.5188    1.101924   1.118433   1.04984    -9999      -9999      2754.7482 
2755.0892  -9999      131.9777   -9999      26.54121   -0.1834852 -0.1890158 -0.3204241 -0.2825205 57         -9999      26.54121   1.132242   1.145893   1.06984    -9999      -9999      2754.948102099738
2755.2892  -9999      131.9487   -9999      24.36692   -0.1716139 -0.1694105 -0.2722161 -0.1702839 57         -9999      24.36692   1.14602    1.156942   1.070754   -9999      -9999      2755.1481 
2755.4892  -9999      129.6015   -9999      22.39979   -0.1829994 -0.1866644 -0.3026541 -0.2131728 57         -9999      22.39979   1.144807   1.149537   1.054244   -9999      -9999      2755.348039632546
2755.6892  -9999      126.2924   -9999      23.23147   -0.188313  -0.1964048 -0.3220165 -0.2533885 57         -9999      23.23147   1.134245   1.115267   1.025218   -9999      -9999      2755.548  
2755.8892  -9999      126.7067   -9999      25.72918   -0.1876574 -0.1966491 -0.3214116 -0.2584028 57         -9999      25.72918   1.119273   1.062515   0.98637    -9999      -9999      2755.747977165354
2756.0892  -9999      127.5841   -9999      26.34904   -0.1711043 -0.170462  -0.2611265 -0.127439  57         -9999      26.34904   1.118364   1.061211   0.9882311  -9999      -9999      2755.9479 
2756.2892  -9999      128.8725   -9999      26.41441   -0.1898352 -0.1991359 -0.3162534 -0.2193139 57         -9999      26.41441   1.13265    1.108386   1.025952   -9999      -9999      2756.147814698163
2756.4892  -9999      130.6789   -9999      22.36768   -0.1900455 -0.2021855 -0.3241014 -0.2435076 57         -9999      22.36768   1.154177   1.165997   1.072126   -9999      -9999      2756.3478 
2756.6892  -9999      129.8626   -9999      22.17098   -0.1880581 -0.2006144 -0.3199962 -0.2392109 57         -9999      22.17098   1.16599    1.182496   1.089622   -9999      -9999      2756.547752230972
2756.8892  -9999      129.966    -9999      23.64069   -0.179088  -0.1869189 -0.2870471 -0.1667249 57         -9999      23.64069   1.169685   1.166784   1.083724   -9999      -9999      2756.7477 
2757.0892  -9999      133.2906   -9999      24.04308   -0.1758165 -0.1806103 -0.2656245 -0.1013986 57         -9999      24.04308   1.168974   1.157469   1.081282   -9999      -9999      2756.9476 
2757.2892  -9999      130.644    -9999      24.3702    -0.1741633 -0.1766995 -0.2483253 -0.03834864 57         -9999      24.3702    1.172157   1.153459   1.078425   -9999      -9999      2757.1476 
2757.4892  -9999      124.7278   -9999      23.89967   -0.1740789 -0.1743648 -0.2317774 0.032747   57         -9999      23.89967   1.178278   1.135596   1.062328   -9999      -9999      2757.347527296588
2757.6892  -9999      123.0144   -9999      21.56751   -0.1735485 -0.1712945 -0.2131256 0.1116921  57         -9999      21.56751   1.185838   1.125615   1.05229    -9999      -9999      2757.547496062992
2757.8892  -9999      123.8049   -9999      22.66151   -0.1875622 -0.1924147 -0.2489024 0.06996605 57         -9999      22.66151   1.189481   1.146953   1.068299   -9999      -9999      2757.7474 
2758.0892  -9999      126.0419   -9999      25.2763    -0.1814272 -0.1822095 -0.2190984 0.1515254  57         -9999      25.2763    1.19       1.180184   1.095234   -9999      -9999      2757.9474 
2758.2892  -9999      125.5686   -9999      24.85182   -0.1850919 -0.1858051 -0.2152901 0.1898657  57         -9999      24.85182   1.19       1.182009   1.100793   -9999      -9999      2758.147302362205
2758.4892  -9999      123.06     -9999      25.841     -0.1957241 -0.2017904 -0.2414095 0.1494265  57         -9999      25.841     1.187499   1.170059   1.094923   -9999      -9999      2758.347271128609
2758.6892  -9999      122.6092   -9999      27.91376   -0.1878994 -0.1879462 -0.2032396 0.2378202  57         -9999      27.91376   1.171814   1.158327   1.080647   -9999      -9999      2758.5472 
2758.8892  -9999      123.663    -9999      28.52831   -0.2059392 -0.2155388 -0.2555063 0.1343189  57         -9999      28.52831   1.141751   1.142889   1.059222   -9999      -9999      2758.7472 
2759.0892  -9999      124.4136   -9999      25.06011   -0.2089058 -0.2209977 -0.2653556 0.0929023  57         -9999      25.06011   1.095194   1.074023   1.001329   -9999      -9999      2758.9471 
2759.2892  -9999      124.4475   -9999      26.04504   -0.2080992 -0.2218092 -0.2687373 0.04944736 57         -9999      26.04504   1.056594   0.9992903  0.9423005  -9999      -9999      2759.147046194226
2759.4892  -9999      125.1588   -9999      27.8765    -0.2120047 -0.228741  -0.2838058 -0.02008304 57         -9999      27.8765    1.031434   0.9493539  0.9025627  -9999      -9999      2759.347  
2759.6892  -9999      125.9788   -9999      27.8032    -0.2032589 -0.2162008 -0.2583369 -0.01164911 57         -9999      27.8032    1.03393    0.9623745  0.908977   -9999      -9999      2759.546983727034
2759.8892  -9999      125.6551   -9999      25.47807   -0.1977176 -0.2065728 -0.234433  0.00801975 57         -9999      25.47807   1.0537     1.01151    0.9450812  -9999      -9999      2759.7469 
2760.0892  -9999      126.0269   -9999      23.34458   -0.2055168 -0.2186019 -0.2582426 -0.07486948 57         -9999      23.34458   1.078485   1.077297   0.9950452  -9999      -9999      2759.9469 
2760.2892  -9999      127.3682   -9999      22.62404   -0.2008806 -0.2119595 -0.2448243 -0.09331492 57         -9999      22.62404   1.08816    1.098052   1.01788    -9999      -9999      2760.1468 
2760.4892  -9999      127.1874   -9999      23.06262   -0.1877114 -0.1900827 -0.1947937 -0.02079364 57         -9999      23.06262   1.078727   1.057128   1.008693   -9999      -9999      2760.346758792651
