~Version
 VERS              .         2.0                           : CWLS LOG ASCII STANDARD - VERSION 2.0
 WRAP              .         NO                            : ONE LINE PER DEPTH STEP
 DLM               .         SPACE                         : DELIMITING CHARACTER(SPACE TAB OR COMMA)
~Well Information
#_______________________________________________________________________________
#
#PARAMETER_NAME    .UNIT     VALUE                         : DESCRIPTION
#_______________________________________________________________________________
STRT               .m        2430.3999                     : First reference value
STOP               .m        5554.9999                     : Last reference value
STEP               .m        0.2                           : Step increment
NULL               .         -9999                         : Missing value
COMP               .         PETROLEO BRASILEIRO S/A       : Company
WELL               .         1-ESS-186_resample            : Well name
FLD                .                                       : Field
LOC                .                                       : Location
CNTY               .                                       : County
STAT               .         ESPIRITO SANTO                : State
CTRY               .                                       : Country
SRVC               .                                       : Service Company
DATE               .                                       : Date
API                .         342710339400                  : API number
EDF                .M        25.00                         : Elevation Derrick Floor
GDAT               .         SIRGAS2000                    : Geodetic Datum
HZCS               .         UTM                           : Horizontal Coordinate System
LAT                .         -20.356499                    : Latitude
LONG               .         -39.496292                    : Longitude
MC                 .         39 W                          : Meridiano Central
ORIG               .         SIGEO EXPORTACAO PERFIL       : Origem dos dados
WDMS               .M        1798.00                       : Water Depth to Mean Sea Level
XCOORD             .         448202.60                     : Surface X
YCOORD             .         7748989.80                    : Surface Y
~Parameter Information Block
#_______________________________________________________________________________
#
#PARAMETER_NAME    .UNIT     VALUE                         : DESCRIPTION
#_______________________________________________________________________________
SET                .         ESS186_resample               : 
TLFamily_CALI      .         Caliper                       : 
TLFamily_DEPT      .         Measured Depth                : 
TLFamily_DT        .         Compressional Slowness        : 
TLFamily_DTS       .         Shear Slowness                : 
TLFamily_GR        .         Gamma Ray                     : 
TLFamily_INPEFA_1  .                                       : 
TLFamily_INPEFA_2  .                                       : 
TLFamily_INPEFA_3  .                                       : 
TLFamily_INPEFA_4  .                                       : 
TLFamily_LITO      .                                       : 
TLFamily_NPHI      .         Neutron Porosity              : 
TLFamily_OG        .                                       : 
TLFamily_RESD      .         Deep Resistivity              : 
TLFamily_RESM      .         Medium Resistivity            : 
TLFamily_RESS      .         Shallow Resistivity           : 
TLFamily_RHOB      .         Bulk Density                  : 
TLFamily_TVD       .         True Vertical Depth           : 
~Curve Information
#_______________________________________________________________________________
#
#LOGNAME           .UNIT     LOG_ID                        : DESCRIPTION
#_______________________________________________________________________________
DEPT               .m                                      :  
CALI               .in                                     :  
DT                 .us/ft                                  :  
DTS                .us/ft                                  :  
GR                 .gAPI                                   : GAMMA RAY 
INPEFA_1           .                                       :  
INPEFA_2           .                                       :  
INPEFA_3           .                                       :  
INPEFA_4           .                                       :  
LITO               .Sem                                    : Não definido 
NPHI               .%                                      : THERMAL NEUTRON POROSITY (ORIGINAL RATIO METHOD) IN SELECTED LITHOLOGY 
OG                 .                                       :  
RESD               .ohm.m                                  :  
RESM               .ohm.m                                  :  
RESS               .ohm.m                                  :  
RHOB               .g/cm3                                  :  
TVD                .                                       : Vertical Depth 
~Ascii
# ...
4108.1999  -9999      -9999      -9999      65.45528   -0.04817671 0.01227679 0.01778693 0.0482732  57         -9999      65.45528   1.541329   1.56581    1.628973827888716 -9999      4108.012599999999
4108.3999  -9999      -9999      -9999      63.11734   -0.03601053 0.03418415 0.05741751 0.145405   57         -9999      63.11734   1.555717   1.584567   1.646524253165177 -9999      4108.212550131233
4108.5999  -9999      -9999      -9999      60.0546    -0.05800734 0.000315999 0.000175166 0.02980826 54         -9999      60.0546    1.573783   1.602197   1.66325939912558 -9999      4108.4125 
4108.7999  -9999      -9999      -9999      59.22522   -0.04884226 0.01393706 0.01951388 0.05992815 54         -9999      59.22522   1.583418   1.607874   1.668742030092741 -9999      4108.6125 
4108.9999  -9999      -9999      -9999      60.64042   -0.0449518 0.02190344 0.03366974 0.09671713 54         -9999      60.64042   1.588711   1.608356   1.664368773292271 -9999      4108.812456430446
4109.1999  -9999      -9999      -9999      61.48039   -0.06125114 -0.00453248 -0.01394532 -0.008626873 54         -9999      61.48039   1.59252    1.607627   1.660279239519647 -9999      4109.0124 
4109.3999  -9999      -9999      -9999      61.34786   -0.05684848 0.000914958 -0.009731117 -0.01381986 54         -9999      61.34786   1.592724   1.603973   1.654415459945524 -9999      4109.2124 
4109.5999  -9999      -9999      -9999      61.09711   -0.07023139 -0.02208544 -0.05436866 -0.1276432 54         -9999      61.09711   1.593696   1.601403   1.653323603007673 -9999      4109.412362729659
4109.7999  -9999      -9999      -9999      60.45522   -0.07031593 -0.02624181 -0.0714555 -0.2040302 54         -9999      60.45522   1.594632   1.599235   1.651987030153745 -9999      4109.6123 
4109.9999  -9999      -9999      -9999      62.32172   -0.05718288 -0.006294955 -0.04313405 -0.1724631 54         -9999      62.32172   1.594301   1.592816   1.638533180565359 -9999      4109.812300000001
4110.1999  -9999      -9999      -9999      63.18229   -0.05752012 -0.007089447 -0.04834469 -0.205693  57         -9999      63.18229   1.58775    1.571439   1.602706922519723 -9999      4110.0123 
4110.3999  -9999      -9999      -9999      64.54965   -0.04620971 0.01141627 -0.01922745 -0.1604286 57         -9999      64.54965   1.59063    1.558922   1.579204315296029 -9999      4110.212237795276
4110.5999  -9999      -9999      -9999      65.08418   -0.05022728 0.00562269 -0.03081134 -0.1992195 57         -9999      65.08418   1.588977   1.563299   1.585101310110181 -9999      4110.4122 
4110.7999  -9999      -9999      -9999      65.15744   -0.04062581 0.02154403 -0.005285624 -0.1578132 57         -9999      65.15744   1.591267   1.577397   1.611761431758205 -9999      4110.6122 
4110.9999  -9999      -9999      -9999      63.91328   -0.03839587 0.02630078 0.002765198 -0.1463181 57         -9999      63.91328   1.593056   1.594009   1.641362262317646 -9999      4110.812088188976
4111.1999  -9999      -9999      -9999      63.55      -0.02735306 0.04624806 0.03921746 -0.06192437 57         -9999      63.55      1.593274   1.606282   1.66405955836984 -9999      4111.011738582676
4111.3999  -9999      -9999      -9999      62.04404   -0.02727786 0.05066865 0.05346728 -0.005064028 57         -9999      62.04404   1.592088   1.60858    1.66979781326765 -9999      4111.21124488189
4111.5999  -9999      -9999      -9999      65.14224   -0.05524934 0.006890265 -0.01973147 -0.1545045 57         -9999      65.14224   1.58941    1.605813   1.669148007770676 -9999      4111.410801574803
4111.7999  -9999      -9999      -9999      65.50352   -0.04549331 0.02125725 0.001733711 -0.1209838 57         -9999      65.50352   1.58616    1.596316   1.659368650377034 -9999      4111.610357480316
4111.9999  -9999      -9999      -9999      64.29368   -0.05478884 0.00662655 -0.02427539 -0.1855933 57         -9999      64.29368   1.585817   1.572535   1.615033357506067 -9999      4111.8099 
4112.1999  -9999      -9999      -9999      66.12319   -0.05544689 0.00435403 -0.03216007 -0.2255848 57         -9999      66.12319   1.58952    1.552446   1.569992218124558 -9999      4112.0099 
4112.3999  -9999      -9999      -9999      66.53996   -0.05390329 0.005899134 -0.03355113 -0.2545095 57         -9999      66.53996   1.595132   1.549724   1.557836071989248 -9999      4112.209825459318
4112.5999  -9999      -9999      -9999      67.83282   -0.04904508 0.01364703 -0.02289096 -0.2528136 57         -9999      67.83282   1.601224   1.566922   1.585005801441022 -9999      4112.4098 
4112.7999  -9999      -9999      -9999      67.55547   -0.05422904 0.004684677 -0.04166045 -0.3184596 57         -9999      67.55547   1.611722   1.603076   1.64549759496256 -9999      4112.6098 
4112.9999  -9999      -9999      -9999      64.53352   -0.04643155 0.01653735 -0.02503786 -0.3099258 54         -9999      64.53352   1.617524   1.627166   1.685737007415657 -9999      4112.80973175853
4113.1999  -9999      -9999      -9999      62.86787   -0.04034939 0.02722173 -0.007468447 -0.2882774 54         -9999      62.86787   1.624569   1.643043   1.701556280238392 -9999      4113.0097 
4113.3999  -9999      -9999      -9999      61.2611    -0.04702806 0.01628707 -0.02851653 -0.355345  54         -9999      61.2611    1.630146   1.651832   1.711270464666688 -9999      4113.2097 
4113.5999  -9999      -9999      -9999      61.90207   -0.03292015 0.03945487 0.009987613 -0.2896157 54         -9999      61.90207   1.63039    1.660842   1.727928998579548 -9999      4113.409638057743
4113.7999  -9999      -9999      -9999      61.58544   -0.03824782 0.0316747  -0.003401747 -0.3300864 54         -9999      61.58544   1.629641   1.665843   1.740952915325598 -9999      4113.6096 
4113.9999  -9999      -9999      -9999      61.23592   -0.02899359 0.04717017 0.02296556 -0.2847102 54         -9999      61.23592   1.627147   1.655398   1.72969211455561 -9999      4113.8096 
4114.1999  -9999      -9999      -9999      60.04355   -0.02817123 0.04992763 0.0293812  -0.274166  54         -9999      60.04355   1.619465   1.630978   1.693126391567712 -9999      4114.009599999999
4114.3999  -9999      -9999      -9999      60.70372   -0.02609329 0.05442043 0.03860963 -0.2581753 54         -9999      60.70372   1.609704   1.589314   1.621241870703796 -9999      4114.20951312336
4114.5999  -9999      -9999      -9999      66.49966   -0.01991221 0.06620678 0.06177048 -0.2054444 57         -9999      66.49966   1.60103    1.550753   1.556752577137236 -9999      4114.409500000001
4114.7999  -9999      -9999      -9999      67.56496   -0.0179194 0.07194444 0.07625499 -0.1643184 57         -9999      67.56496   1.596458   1.534378   1.534923768443814 -9999      4114.609500000001
4114.9999  -9999      -9999      -9999      67.45889   -0.01965144 0.07049643 0.07670207 -0.158499  57         -9999      67.45889   1.595478   1.538543   1.545155592572037 -9999      4114.809419422572
4115.1999  -9999      -9999      -9999      66.67078   -0.008281681 0.09106738 0.1167022  -0.0590558 57         -9999      66.67078   1.598766   1.559794   1.580166480808334 -9999      4115.0094 
4115.3999  -9999      -9999      -9999      65.80962   -0.01063489 0.09045388 0.1225802  -0.0237669 57         -9999      65.80962   1.601973   1.587793   1.624392887201213 -9999      4115.2094 
4115.5999  -9999      -9999      -9999      64.21769   -0.005038893 0.1020861  0.1489285  0.05633398 57         -9999      64.21769   1.605496   1.610895   1.664622448772362 -9999      4115.409325721785
4115.7999  -9999      -9999      -9999      64.13955   0.001101082 0.1159558  0.1819847  0.1643765  57         -9999      64.13955   1.610071   1.625162   1.687725282949994 -9999      4115.6093 
4115.9999  -9999      -9999      -9999      63.22656   0.006363876 0.1297435  0.2180369  0.2959123  57         -9999      63.22656   1.613294   1.620556   1.670561660637147 -9999      4115.8093 
4116.1999  -9999      -9999      -9999      61.99606   -0.01146768 0.1050759  0.1866457  0.2802072  54         -9999      61.99606   1.61176    1.616224   1.661579753032206 -9999      4116.0093 
