~Version
 VERS              .         2.0                           : CWLS LOG ASCII STANDARD - VERSION 2.0
 WRAP              .         NO                            : ONE LINE PER DEPTH STEP
 DLM               .         SPACE                         : DELIMITING CHARACTER(SPACE TAB OR COMMA)
~Well Information
#_______________________________________________________________________________
#
#PARAMETER_NAME    .UNIT     VALUE                         : DESCRIPTION
#_______________________________________________________________________________
STRT               .m        2119.8892                     : First reference value
STOP               .m        5043.2892                     : Last reference value
STEP               .m        0.2                           : Step increment
NULL               .         -9999                         : Missing value
COMP               .         PETROLEO BRASILEIRO S/A       : Company
WELL               .         1ESS 0094  ES                 : Well name
FLD                .                                       : Field
LOC                .                                       : Location
CNTY               .                                       : County
STAT               .         ESPIRITO SANTO                : State
CTRY               .                                       : Country
SRVC               .                                       : Service Company
DATE               .                                       : Date
API                .         342710052700                  : API number
EDF                .M        25.00                         : Elevation Derrick Floor
GDAT               .         SIRGAS2000                    : Geodetic Datum
HZCS               .         UTM                           : Horizontal Coordinate System
LAT                .         -20.952076                    : Latitude
LONG               .         -39.451195                    : Longitude
MC                 .         39 W                          : Meridiano Central
ORIG               .         SIGEO EXPORTACAO PERFIL       : Origem dos dados
WDMS               .M        2081.00                       : Water Depth to Mean Sea Level
XCOORD             .         453092.70                     : Surface X
YCOORD             .         7683090.10                    : Surface Y
~Parameter Information Block
#_______________________________________________________________________________
#
#PARAMETER_NAME    .UNIT     VALUE                         : DESCRIPTION
#_______________________________________________________________________________
SET                .         ESS94_resample                : 
TLFamily_CALI      .         Caliper                       : 
TLFamily_DEPT      .         Measured Depth                : 
TLFamily_DT        .         Compressional Slowness        : 
TLFamily_DTS       .         Shear Slowness                : 
TLFamily_GR        .         Gamma Ray                     : 
TLFamily_INPEFA_1  .                                       : 
TLFamily_INPEFA_2  .                                       : 
TLFamily_INPEFA_3  .                                       : 
TLFamily_INPEFA_4  .                                       : 
TLFamily_LITO      .                                       : 
TLFamily_NPHI      .         Neutron Porosity              : 
TLFamily_OG        .                                       : 
TLFamily_RESD      .         Deep Resistivity              : 
TLFamily_RESM      .         Medium Resistivity            : 
TLFamily_RESS      .         Shallow Resistivity           : 
TLFamily_RHOB      .         Bulk Density                  : 
TLFamily_SP        .         Spontaneous Potential         : 
TLFamily_TVD       .         True Vertical Depth           : 
~Curve Information
#_______________________________________________________________________________
#
#LOGNAME           .UNIT     LOG_ID                        : DESCRIPTION
#_______________________________________________________________________________
DEPT               .m                                      :  
CALI               .in                                     :  
DT                 .us/ft                                  :  
DTS                .us/ft                                  :  
GR                 .Sem                                    : GAMMA RAY 
INPEFA_1           .                                       :  
INPEFA_2           .                                       :  
INPEFA_3           .                                       :  
INPEFA_4           .                                       :  
LITO               .Sem                                    : Não definido 
NPHI               .Sem                                    : THERMAL NEUTRON POROSITY (ORIGINAL RATIO METHOD) IN SELECTED LITHOLOGY 
OG                 .                                       :  
RESD               .ohm.m                                  :  
RESM               .ohm.m                                  :  
RESS               .ohm.m                                  :  
RHOB               .g/cm3                                  :  
SP                 .mV                                     : SPONTANEOUS POTENTIAL 
TVD                .m                                      : Vertical Depth 
~Ascii
# ...
3143.2892  12.20714   117.0607   325.8121   69.67156   0.5657701  -0.03072054 -0.1374357 0.01228056 49         7.076691899086725 69.67156   0.3908315  0.590105   1.136804   2.534355   -38.46490575635203 3143.0878 
3143.4892  12.18883   120.145    288.306    79.39301   0.5751505  -0.01430893 -0.1175533 0.01238838 49         7.899357131147135 79.39301   0.3538679  0.4737247  0.7482686  2.452746   -38.85845824113988 3143.2878 
3143.6892  12.21359   119.9241   296.473    88.34524   0.5774958  -0.007145112 -0.1131435 -0.006272419 49         12.33126008542876 88.34524   0.3013165  0.3565733  0.4849348  2.303548   -39.65589700533749 3143.4878 
3143.8892  12.20811   119.9367   308.8293   90.99995   0.5795771  -0.000831922 -0.1108892 -0.03220298 49         22.35377998553363 90.99995   0.2616152  0.2922961  0.3705587  2.198432   -40.1691365780146 3143.6877 
3144.0892  12.22334   119.0831   330.1369   87.95594   0.5796402  0.002538952 -0.1143643 -0.07428937 49         27.30760753060629 87.95594   0.2439817  0.2668621  0.3336618  2.157671   -37.11469806459829 3143.887700000001
3144.2892  12.2303    119.2792   341.7415   81.72208   0.5794885  0.005487796 -0.1191737 -0.1287729 49         26.45513092501574 81.72208   0.2448808  0.2644515  0.3281139  2.139617   -36.3070798858887 3144.0877 
3144.4892  12.22272   119.2113   338.4651   78.56745   0.5840847  0.0162296  -0.1072308 -0.1562421 49         26.58324120488958 78.56745   0.2578887  0.2781308  0.3515438  2.137985   -38.28020907824907 3144.2877 
3144.6892  12.0357    118.3296   335.8827   79.02676   0.5856659  0.02237648 -0.1052147 -0.2095805 49         28.13627208499276 79.02676   0.2652735  0.2866679  0.3738796  2.153995   -45.36347156433356 3144.4877 
3144.8892  11.98939   119.3904   338.0172   79.17546   0.5909237  0.03417448 -0.09176087 -0.2460419 49         29.33742138219362 79.17546   0.2585832  0.2791029  0.3543925  2.165025   -57.23003257291797 3144.6877 
3145.0892  12.02862   121.2388   346.4161   79.98579   0.612641   0.074324   -0.01213826 -0.128767  49         29.36322809955167 79.98579   0.2541521  0.2755341  0.3371761  2.159776   -49.35556010245966 3144.887700000001
3145.2892  12.02232   121.2492   356.9534   83.2229    0.6038328  0.06695906 -0.03200757 -0.2000682 49         28.77145158962795 83.2229    0.2522445  0.2765     0.336396   2.149179   -39.97280499314996 3145.087700000001
3145.4892  12.00277   121.4898   355.863    90.0211    0.5978279  0.06133174 -0.05400106 -0.2985961 49         27.73349276865632 90.0211    0.2500128  0.2753789  0.3342206  2.146698   -36.91907946769412 3145.2877 
3145.6892  11.9333    121.412    353.3697   96.52074   0.5979506  0.06479019 -0.05814189 -0.3734946 49         28.93723816258133 96.52074   0.2462918  0.2727604  0.3305776  2.154958   -37.25230518851588 3145.4877 
3145.8892  11.9189    120.6919   349.454    93.1708    0.6070488  0.0819693  -0.03397126 -0.4005939 49         29.9699095778574 93.1708    0.2442582  0.2749438  0.3349136  2.165038   -37.91537187230943 3145.6877 
3146.0892  11.92145   120.603    345.9533   86.30989   0.6214085  0.1101542  0.01944582 -0.3515897 49         29.20462292948914 86.30989   0.2434231  0.2789681  0.3436579  2.169055   -40.15617090260881 3145.887700000001
3146.2892  11.94748   120.1315   343.1624   81.68578   0.6223372  0.1174397  0.02957835 -0.3846775 49         28.96120432355572 81.68578   0.2401013  0.2777196  0.344665   2.160971   -40.73828551525136 3146.087700000001
3146.4892  12.05503   120.4195   345.2491   78.64251   0.6252316  0.126368   0.04017998 -0.4300793 49         29.17921853253283 78.64251   0.2318536  0.2664928  0.3254113  2.152595   -35.93698985182164 3146.287677952756
3146.6892  12.12883   120.5295   345.5093   77.41048   0.6513155  0.1744948  0.140771   -0.2706101 49         30.48720472440652 77.41048   0.2268598  0.259079   0.3140655  2.149727   -33.7955604212796 3146.4876 
3146.8892  12.17343   120.4      342.7633   77.31412   0.6531122  0.185727   0.1671222  -0.2359602 49         31.83917168244291 77.31412   0.226469   0.2577619  0.3118855  2.149484   -40.34335545417223 3146.6876 
3147.0892  12.18809   120.28     341.7043   78.02865   0.6535482  0.1941215  0.1867586  -0.2103588 49         32.13772363737697 78.02865   0.2267157  0.257037   0.3087415  2.155029   -40.1012513468509 3146.887600000001
3147.2892  12.18133   122.7275   338.9938   79.12659   0.6582043  0.2101126  0.2261635  -0.1271459 49         31.07619999962938 79.12659   0.2270348  0.256653   0.3056415  2.160235   -39.10466779374053 3147.0876 
3147.4892  12.1834    123.496    338.5374   79.54146   0.6620283  0.2249248  0.2652452  -0.0299764 49         30.0076691735131 79.54146   0.2276128  0.2566     0.3063851  2.155572   -43.25720930725503 3147.2876 
3147.6892  12.22315   123.1308   341.2289   79.44439   0.6611351  0.2334703  0.2947991  0.06433064 49         30.0934819198968 79.44439   0.2276958  0.2562294  0.3084198  2.143031   -40.4662963686968 3147.4876 
3147.8892  12.06564   123.1659   344.4127   78.48859   0.6603761  0.2432879  0.3304159  0.187256   49         30.89597965851227 78.48859   0.225966   0.2532113  0.3011888  2.131445   -37.67544237272066 3147.6876 
3148.0892  12.05344   123.4529   337.7614   74.52073   0.6485884  0.2345697  0.3250243  0.2292715  49         30.45226412495172 74.52073   0.2248281  0.2494717  0.2927569  2.119077   -36.05046143619173 3147.887600000001
3148.2892  12.11544   123.9937   339.0028   74.32314   0.6390181  0.2280618  0.3218175  0.2693287  49         31.67739678931173 74.32314   0.2254094  0.2475653  0.29094    2.11074    -36.35246339933435 3148.0876 
3148.4892  12.12849   123.2956   342.4089   77.58825   0.6328571  0.2274608  0.3324616  0.3454913  49         33.08845532034354 77.58825   0.2261119  0.2464312  0.2888936  2.109553   -39.64458945166781 3148.2876 
3148.6892  12.08465   122.1123   344.1853   79.93976   0.6096882  0.1985074  0.2796466  0.2864943  49         33.89915107867208 79.93976   0.2308193  0.2502207  0.2936596  2.108766   -39.37766076636201 3148.4876 
3148.8892  12.03935   118.067    350.7495   78.63089   0.5905465  0.1737694  0.2303312  0.2127     49         34.14212171299268 78.63089   0.2476064  0.2693274  0.3216439  2.104213   -40.81491383230085 3148.6876 
3149.0892  11.98808   116.682    330.2364   75.2494    0.5759476  0.1519566  0.1780108  0.09678051 49         33.47005751001497 75.2494    0.2699113  0.2936558  0.3537562  2.123275   -50.20741738548735 3148.8876 
3149.2892  11.97526   117.2245   319.3527   74.36047   0.589491   0.1755822  0.2242898  0.1768741  49         33.04656473795565 74.36047   0.2603807  0.2827736  0.3351081  2.145941   -55.76990440949053 3149.0876 
3149.4892  11.95934   117.9991   318.1417   75.21158   0.5905617  0.1841529  0.2486407  0.2443009  49         33.97825748713916 75.21158   0.2363445  0.2553047  0.2964249  2.119459   -44.57428657351697 3149.287509448819
3149.6892  11.9975    122.2706   336.8145   72.34037   0.576389   0.1672508  0.2160716  0.1851088  49         36.32508066132392 72.34037   0.2274724  0.2452037  0.2808754  2.0805     -33.81867909869417 3149.4875 
3149.8892  11.99759   123.6585   354.557    70.40655   0.5846179  0.1859289  0.2597913  0.2768969  49         33.63438180237095 70.40655   0.226406   0.2449767  0.279265   2.091899   -34.31160034219683 3149.687500000001
3150.0892  12.01954   121.1086   417.8436   71.78152   0.5813396  0.1878153  0.2708943  0.315169   49         31.46523954736731 71.78152   0.2274264  0.2456527  0.2800054  2.111268   -34.74854089331709 3149.887500000001
3150.2892  11.98074   120.3738   609.5305   74.06372   0.5773567  0.1887406  0.2803851  0.3532933  49         31.23446345892477 74.06372   0.228947   0.2442671  0.2805845  2.125016   -37.10746716076304 3150.0875 
3150.4892  11.97046   120.1774   605.8021   75.66846   0.5677593  0.1797939  0.2667898  0.3390972  49         32.20273006369035 75.66846   0.232484   0.2428131  0.27947    2.135891   -38.54296705791643 3150.2875 
3150.6892  11.98068   120.141    580.2916   77.61682   0.5598012  0.1724228  0.2539923  0.3166352  49         34.16685080340285 77.61682   0.2444569  0.2457902  0.2785338  2.138463   -38.30135174248208 3150.4875 
