~Version
 VERS              .         2.0                           : CWLS LOG ASCII STANDARD - VERSION 2.0
 WRAP              .         NO                            : ONE LINE PER DEPTH STEP
 DLM               .         SPACE                         : DELIMITING CHARACTER(SPACE TAB OR COMMA)
~Well Information
#_______________________________________________________________________________
#
#PARAMETER_NAME    .UNIT     VALUE                         : DESCRIPTION
#_______________________________________________________________________________
STRT               .m        2430.3999                     : First reference value
STOP               .m        5554.9999                     : Last reference value
STEP               .m        0.2                           : Step increment
NULL               .         -9999                         : Missing value
COMP               .         PETROLEO BRASILEIRO S/A       : Company
WELL               .         1-ESS-186_resample            : Well name
FLD                .                                       : Field
LOC                .                                       : Location
CNTY               .                                       : County
STAT               .         ESPIRITO SANTO                : State
CTRY               .                                       : Country
SRVC               .                                       : Service Company
DATE               .                                       : Date
API                .         342710339400                  : API number
EDF                .M        25.00                         : Elevation Derrick Floor
GDAT               .         SIRGAS2000                    : Geodetic Datum
HZCS               .         UTM                           : Horizontal Coordinate System
LAT                .         -20.356499                    : Latitude
LONG               .         -39.496292                    : Longitude
MC                 .         39 W                          : Meridiano Central
ORIG               .         SIGEO EXPORTACAO PERFIL       : Origem dos dados
WDMS               .M        1798.00                       : Water Depth to Mean Sea Level
XCOORD             .         448202.60                     : Surface X
YCOORD             .         7748989.80                    : Surface Y
~Parameter Information Block
#_______________________________________________________________________________
#
#PARAMETER_NAME    .UNIT     VALUE                         : DESCRIPTION
#_______________________________________________________________________________
SET                .         ESS186_resample               : 
TLFamily_CALI      .         Caliper                       : 
TLFamily_DEPT      .         Measured Depth                : 
TLFamily_DT        .         Compressional Slowness        : 
TLFamily_DTS       .         Shear Slowness                : 
TLFamily_GR        .         Gamma Ray                     : 
TLFamily_INPEFA_1  .                                       : 
TLFamily_INPEFA_2  .                                       : 
TLFamily_INPEFA_3  .                                       : 
TLFamily_INPEFA_4  .                                       : 
TLFamily_LITO      .                                       : 
TLFamily_NPHI      .         Neutron Porosity              : 
TLFamily_OG        .                                       : 
TLFamily_RESD      .         Deep Resistivity              : 
TLFamily_RESM      .         Medium Resistivity            : 
TLFamily_RESS      .         Shallow Resistivity           : 
TLFamily_RHOB      .         Bulk Density                  : 
TLFamily_TVD       .         True Vertical Depth           : 
~Curve Information
#_______________________________________________________________________________
#
#LOGNAME           .UNIT     LOG_ID                        : DESCRIPTION
#_______________________________________________________________________________
DEPT               .m                                      :  
CALI               .in                                     :  
DT                 .us/ft                                  :  
DTS                .us/ft                                  :  
GR                 .gAPI                                   : GAMMA RAY 
INPEFA_1           .                                       :  
INPEFA_2           .                                       :  
INPEFA_3           .                                       :  
INPEFA_4           .                                       :  
LITO               .Sem                                    : Não definido 
NPHI               .%                                      : THERMAL NEUTRON POROSITY (ORIGINAL RATIO METHOD) IN SELECTED LITHOLOGY 
OG                 .                                       :  
RESD               .ohm.m                                  :  
RESM               .ohm.m                                  :  
RESS               .ohm.m                                  :  
RHOB               .g/cm3                                  :  
TVD                .                                       : Vertical Depth 
~Ascii
# ...
3894.9999  -9999      -9999      -9999      65.46742   0.3822008  0.01751836 0.02421055 0.04745055 57         -9999      65.46742   1.497386   1.48466    1.499270926663308 -9999      3894.839476377953
3895.1999  -9999      -9999      -9999      68.68648   0.3775356  0.0118749  0.0172558  0.03516627 57         -9999      68.68648   1.519374   1.487247   1.480601165041807 -9999      3895.0394 
3895.3999  -9999      -9999      -9999      69.54438   0.3825152  0.0207932  0.03355979 0.06460543 57         -9999      69.54438   1.538431   1.537475   1.552776904682631 -9999      3895.2394 
3895.5999  -9999      -9999      -9999      68.95436   0.3899449  0.03690589 0.06725397 0.1471993  57         -9999      68.95436   1.554158   1.638818   1.734764840549676 -9999      3895.439382677166
3895.7999  -9999      -9999      -9999      65.76436   0.3949894  0.04837013 0.09259953 0.2148931  49         -9999      65.76436   1.55628    1.717796   1.923221706321016 -9999      3895.6393 
3895.9999  -9999      -9999      -9999      61.19723   0.3896563  0.04511513 0.0962107  0.2497129  49         -9999      61.19723   1.549213   1.699762   1.900710108873547 -9999      3895.8393 
3896.1999  -9999      -9999      -9999      57.28492   0.3841178  0.03877691 0.09079174 0.2534117  49         -9999      57.28492   1.537237   1.592565   1.661194947947867 -9999      3896.0393 
3896.3999  -9999      -9999      -9999      56.02135   0.374287   0.02619149 0.07495838 0.228925   49         -9999      56.02135   1.503937   1.488517   1.483673822511346 -9999      3896.239257742782
3896.5999  -9999      -9999      -9999      56.46214   0.3754137  0.03093626 0.0877805  0.2593165  49         -9999      56.46214   1.471982   1.445582   1.459034485334396 -9999      3896.4392 
3896.7999  -9999      -9999      -9999      63.80119   0.3569117  0.002324604 0.03970299 0.1370474  49         -9999      63.80119   1.456012   1.434169   1.463459246777624 -9999      3896.6392 
3896.9999  -9999      -9999      -9999      65.66623   0.3929187  0.0623104  0.144275   0.3460924  57         -9999      65.66623   1.44321    1.41939    1.441630296592214 -9999      3896.839164041995
3897.1999  -9999      -9999      -9999      64.80716   0.3766533  0.04260528 0.1203096  0.3088454  57         -9999      64.80716   1.436287   1.409344   1.423515756447385 -9999      3897.0391 
3897.3999  -9999      -9999      -9999      61.33107   0.380877   0.05214482 0.1406983  0.3453929  57         -9999      61.33107   1.433039   1.408098   1.421290601245472 -9999      3897.2391 
3897.5999  -9999      -9999      -9999      62.20384   0.3917727  0.07561422 0.1898943  0.4613899  57         -9999      62.20384   1.426683   1.415899   1.44720211365591 -9999      3897.4391 
3897.7999  -9999      -9999      -9999      66.07431   0.3868842  0.07418187 0.1978354  0.4952059  57         -9999      66.07431   1.423556   1.420613   1.465056011104202 -9999      3897.639039107612
3897.9999  -9999      -9999      -9999      68.82478   0.3944508  0.09221174 0.2382631  0.5989179  57         -9999      68.82478   1.422202   1.421937   1.47102939302432 -9999      3897.839  
3898.1999  -9999      -9999      -9999      69.51305   0.3905362  0.09551559 0.2598863  0.691483   57         -9999      69.51305   1.421057   1.421362   1.468688244394326 -9999      3898.039  
3898.3999  -9999      -9999      -9999      67.52003   0.3054234  -0.03827986 0.03510293 0.210497   57         -9999      67.52003   1.423646   1.417415   1.448510222318522 -9999      3898.238945406824
3898.5999  -9999      -9999      -9999      64.74985   0.3454221  0.01674485 0.1118644  0.2930971  57         -9999      64.74985   1.429219   1.418174   1.44170150781992 -9999      3898.4389 
3898.7999  -9999      -9999      -9999      63.03503   0.3332028  -0.003533131 0.07135932 0.1516597  57         -9999      63.03503   1.435126   1.427118   1.453726631998578 -9999      3898.6389 
3898.9999  -9999      -9999      -9999      64.63296   0.3723747  0.05984367 0.1760987  0.3288606  57         -9999      64.63296   1.448085   1.451009   1.48744537621243 -9999      3898.8389 
3899.1999  -9999      -9999      -9999      67.04368   0.3621483  0.04852451 0.161313   0.2792518  57         -9999      67.04368   1.473941   1.487093   1.529215066668402 -9999      3899.038820472441
3899.3999  -9999      -9999      -9999      69.51528   0.3760187  0.07368261 0.2058407  0.3465794  57         -9999      69.51528   1.496029   1.485177   1.494318331874599 -9999      3899.2388 
3899.5999  -9999      -9999      -9999      69.8187    0.3918433  0.1056239  0.2682597  0.4770299  57         -9999      69.8187    1.512211   1.500166   1.512837560626958 -9999      3899.4388 
3899.7999  -9999      -9999      -9999      71.44995   0.3818884  0.09855954 0.2686533  0.4983776  57         -9999      71.44995   1.523984   1.532415   1.583574884264051 -9999      3899.638726771654
3899.9999  -9999      -9999      -9999      65.72355   0.3747147  0.09406704 0.2712613  0.5243354  57         -9999      65.72355   1.535971   1.550863   1.618498452152982 -9999      3899.8387 
3900.1999  -9999      -9999      -9999      64.92519   0.3266447  0.01888609 0.1439313  0.2397257  57         -9999      64.92519   1.555596   1.543977   1.568540464706677 -9999      3900.0387 
3900.3999  -9999      -9999      -9999      65.44979   0.3146636  -0.004046259 0.09467816 0.07571174 57         -9999      65.44979   1.571486   1.544914   1.549741631947746 -9999      3900.238633070866
3900.5999  -9999      -9999      -9999      64.72604   0.3632502  0.06900144 0.2074683  0.2494208  57         -9999      64.72604   1.584712   1.573303   1.594570987159784 -9999      3900.4386 
3900.7999  -9999      -9999      -9999      64.98865   0.3646143  0.07746821 0.2276405  0.2861308  57         -9999      64.98865   1.593874   1.621882   1.682335877348237 -9999      3900.6386 
3900.9999  -9999      -9999      -9999      64.72735   0.3777554  0.104234   0.2800857  0.4052825  57         -9999      64.72735   1.606071   1.667612   1.75540452968289 -9999      3900.8386 
3901.1999  -9999      -9999      -9999      66.37778   0.3544663  0.07530734 0.2425481  0.3593135  57         -9999      66.37778   1.621135   1.709398   1.788094306958156 -9999      3901.038508136483
3901.3999  -9999      -9999      -9999      81.88165   0.330051   0.03818252 0.1813402  0.2352529  57         -9999      81.88165   1.606231   1.764131   1.954052548061428 -9999      3901.2385 
3901.5999  -9999      -9999      -9999      80.26513   0.2924058  -0.0225636 0.07424941 -0.009523837 57         -9999      80.26513   1.57966    1.737431   1.949452280640904 -9999      3901.4385 
3901.7999  -9999      -9999      -9999      74.55849   0.3018607  -0.01452689 0.07299823 -0.07348633 57         -9999      74.55849   1.567708   1.602207   1.643936689153857 -9999      3901.638414435696
3901.9999  -9999      -9999      -9999      64.5033    0.2882017  -0.04060925 0.01591428 -0.2607441 49         -9999      64.5033    1.536367   1.49928    1.486573806633597 -9999      3901.8384 
3902.1999  -9999      -9999      -9999      63.01244   0.3271315  0.01881953 0.1065247  -0.129644  49         -9999      63.01244   1.504815   1.502304   1.544470483633162 -9999      3902.0384 
3902.3999  -9999      -9999      -9999      62.58885   0.3233815  0.01437136 0.09592866 -0.1874772 49         -9999      62.58885   1.475563   1.527119   1.630601118272014 -9999      3902.2384 
3902.5999  -9999      -9999      -9999      60.65005   0.3331832  0.03068118 0.1195927  -0.1750599 49         -9999      60.65005   1.452606   1.504715   1.594839664257524 -9999      3902.4383 
3902.7999  -9999      -9999      -9999      62.56621   0.3448373  0.05098952 0.1525468  -0.1310938 49         -9999      62.56621   1.430659   1.45424    1.511722262361732 -9999      3902.6383 
3902.9999  -9999      -9999      -9999      66.83392   0.347558   0.06037151 0.1730547  -0.08875926 57         -9999      66.83392   1.407265   1.387981   1.413711664888095 -9999      3902.8383 
