~Version
 VERS              .         2.0                           : CWLS LOG ASCII STANDARD - VERSION 2.0
 WRAP              .         NO                            : ONE LINE PER DEPTH STEP
 DLM               .         SPACE                         : DELIMITING CHARACTER(SPACE TAB OR COMMA)
~Well Information
#_______________________________________________________________________________
#
#PARAMETER_NAME    .UNIT     VALUE                         : DESCRIPTION
#_______________________________________________________________________________
STRT               .m        1880.5999                     : First reference value
STOP               .m        5405.7999                     : Last reference value
STEP               .m        0.2                           : Step increment
NULL               .         -9999                         : Missing value
COMP               .         PETROLEO BRASILEIRO S/A       : Company
WELL               .         1-ESS-86A_resample            : Well name
FLD                .                                       : Field
LOC                .                                       : Location
CNTY               .                                       : County
STAT               .         ESPIRITO SANTO                : State
CTRY               .                                       : Country
SRVC               .                                       : Service Company
DATE               .                                       : Date
API                .         342710051600                  : API number
EDF                .M        14.00                         : Elevation Derrick Floor
GDAT               .         SIRGAS2000                    : Geodetic Datum
HZCS               .         UTM                           : Horizontal Coordinate System
LMF                .         MR                            : Log Measure From
LATI               .         -20_24_56.411                 : Latitude
LONG               .         -39_29_19.989                 : Longitude
MC                 .         39 W                          : Meridiano Central
ORIG               .         SIGEO EXPORTACAO PERFIL       : Origem dos dados
ORIGINALWELLNAME   .         1ESS 0086A ES                 : 
WDMS               .M        1841.00                       : Water Depth to Mean Sea Level
X                  .         448953.89                     : Surface X
Y                  .         7742410.09                    : Surface Y
~Parameter Information Block
#_______________________________________________________________________________
#
#PARAMETER_NAME    .UNIT     VALUE                         : DESCRIPTION
#_______________________________________________________________________________
SET                .         ESS86A_resample               : 
TLFamily_CALI      .         Caliper                       : 
TLFamily_DEPT      .         Measured Depth                : 
TLFamily_DT        .         Compressional Slowness        : 
TLFamily_GR        .         Gamma Ray                     : 
TLFamily_HDRS      .         Deep Resistivity              : 
TLFamily_INPEFA_1  .                                       : 
TLFamily_INPEFA_2  .                                       : 
TLFamily_INPEFA_3  .                                       : 
TLFamily_INPEFA_4  .                                       : 
TLFamily_LITO      .                                       : 
TLFamily_NPHI      .         Neutron Porosity              : 
TLFamily_RHOB      .         Bulk Density                  : 
~Curve Information
#_______________________________________________________________________________
#
#LOGNAME           .UNIT     LOG_ID                        : DESCRIPTION
#_______________________________________________________________________________
DEPT               .m                                      :  
CALI               .in                                     : CALIPER 1 CYLINDERDIAMETER 
DT                 .us/ft                                  : DELTA-T (ALSO CALLED SLOWNESS OR INTERVAL TRANSIT TIME) 
GR                 .gAPI                                   : GAMMA RAY 
HDRS               .ohm.m                                  : INDUCTION DEEP RESISTIVITY 
INPEFA_1           .                                       :  
INPEFA_2           .                                       :  
INPEFA_3           .                                       :  
INPEFA_4           .                                       :  
LITO               .                                       :  
NPHI               .%                                      : THERMAL NEUTRON POROSITY (ORIGINAL RATIO METHOD) IN SELECTED LITHOLOGY 
RHOB               .g/cm3                                  : BULK DENSITY 
~Ascii
# ...
2584.5999  16.6538    131.964    52.8735    1.486700057983398 0.2731744  0.1841429  0.08793253 0.07499753 57         36.0088    2.1701    
2584.7999  16.6281    131.0499   51.0514    1.387899994850159 0.2601724  0.1577019  0.04381355 0.002477841 57         35.7624    2.1661    
2584.9999  16.5852    134.3312   51.1472    1.392099976539612 0.2659025  0.169769   0.0648228  0.04807559 57         36.2938    2.2006    
2585.1999  16.5938    126.9988   47.5831    1.457000017166138 0.2657113  0.1697945  0.06561498 0.05693125 57         36.7606    2.2321    
2585.3999  16.6109    131.1248   47.7266    1.430600047111511 0.2784559  0.1977372  0.1161532  0.1663638  57         34.8012    2.249     
2585.5999  16.6452    117.5586   47.9185    1.531000018119812 0.2763862  0.1962068  0.1185212  0.19483    57         33.2783    2.2495    
2585.7999  16.6966    124.5445   47.8705    1.581300020217896 0.2825844  0.2118876  0.1507475  0.2823009  57         33.3602    2.2347    
2585.9999  16.7137    135.5341   50.3317    1.482200026512146 0.2737196  0.1963886  0.1298286  0.2721396  57         36.3265    2.2123    
2586.1999  16.7051    127.7285   48.7819    1.424800038337708 0.26125    0.1696279  0.08349643 0.1933317  57         36.6498    2.2147    
2586.3999  16.7051    130.3467   48.1103    1.419999957084656 0.2751217  0.1984154  0.1331753  0.2950927  57         34.7035    2.2193    
2586.5999  16.7051    127.9063   46.3684    1.419600009918213 0.2663018  0.1816609  0.1073443  0.2635948  57         37.0506    2.2079    
2586.7999  16.7051    135.1042   45.4091    1.360299944877625 0.262859   0.173058   0.09100725 0.2357411  57         36.5904    2.2219    
2586.9999  16.7137    131.8442   44.4981    1.356899976730347 0.2822282  0.2146218  0.1647902  0.3899523  57         33.7757    2.2156    
2587.1999  16.7051    121.0239   44.0505    1.468199968338013 0.272271   0.1965342  0.138841   0.3676088  57         34.0269    2.2454    
2587.3999  16.6966    125.6573   44.53      1.540799975395203 0.269499   0.1917196  0.1334669  0.3785273  57         34.5546    2.2165    
2587.5999  16.7051    126.5814   44.9934    1.571900010108948 0.2606172  0.1727155  0.10088    0.3268562  57         34.7271    2.241     
2587.7999  16.7137    123.7845   48.7173    1.639400005340576 0.2658048  0.1837365  0.1206792  0.3747625  57         33.8536    2.2649    
2587.9999  16.7051    120.2299   50.0762    1.72189998626709 0.2523178  0.1553279  0.0721478  0.292376   57         33.5192    2.2601    
2588.1999  16.688     123.0168   51.3389    1.68560004234314 0.2526869  0.1547526  0.06946985 0.2881904  57         33.9474    2.2158    
2588.3999  16.6966    130.4169   48.6541    1.544899940490723 0.2380341  0.1208929  0.005875807 0.1534643  57         37.5387    2.194     
2588.5999  16.6966    131.1547   47.1992    1.464400053024292 0.2553067  0.1540084  0.05772879 0.2343165  57         38.0587    2.2128    
2588.7999  16.6966    128.7767   46.3043    1.526299953460693 0.2603415  0.1655079  0.07860316 0.2768845  57         34.3305    2.2337    
2588.9999  16.7051    127.2156   48.8771    1.581500053405762 0.2568026  0.1579746  0.0652305  0.250866   57         34.3694    2.2488    
2589.1999  16.6966    124.4986   53.3047    1.504400014877319 0.2561274  0.1552681  0.05802211 0.2276675  57         36.3022    2.2304    
2589.3999  16.688     132.212    52.9693    1.419999957084656 0.2672732  0.1781952  0.09642875 0.2950269  57         36.5268    2.2075    
2589.5999  16.6966    132.4282   53.8163    1.366299986839294 0.2618077  0.1671143  0.0774793  0.2582605  57         38.2828    2.207     
2589.7999  16.7137    134.3968   52.6818    1.339200019836426 0.2744195  0.1940188  0.1244386  0.3484706  57         38.8343    2.2166    
2589.9999  16.7137    130.4237   49.2774    1.370700001716614 0.2741944  0.195191   0.1289999  0.3661061  57         37.0077    2.2336    
2590.1999  16.7137    126.6111   50.0121    1.449000000953674 0.2688895  0.185445   0.1144196  0.3473156  57         34.8856    2.261     
2590.3999  16.7051    123.9111   50.2362    1.484899997711182 0.2631532  0.1726989  0.09124704 0.3006781  57         34.6531    2.2515    
2590.5999  16.6966    124.3811   53.8799    1.408499956130981 0.2644933  0.1744729  0.09223215 0.2951348  57         39.7267    2.2274    
2590.7999  16.7051    134.9526   55.3827    1.339599967002869 0.2684976  0.1820756  0.1038006  0.311589   57         39.2511    2.1975    
2590.9999  16.7051    133.3783   57.0289    1.331799983978272 0.2630765  0.1703175  0.08244173 0.266859   57         37.1163    2.1987    
2591.1999  16.6966    132.0141   56.8373    1.333500027656555 0.2687133  0.1811478  0.09920149 0.2919106  57         41.1021    2.2166    
2591.3999  16.7137    134.7061   58.8511    1.332800030708313 0.2620531  0.1656209  0.06949543 0.2253845  57         38.4063    2.2353    
2591.5999  16.7051    131.4642   55.6229    1.347499966621399 0.2748568  0.191524   0.1124914  0.3013288  57         36.5559    2.2256    
2591.7999  16.6966    131.5015   51.9307    1.3889000415802 0.2729267  0.1879127  0.1069515  0.2948672  57         37.1261    2.245     
2591.9999  16.7051    125.9411   49.8686    1.484500050544739 0.2720725  0.1857061  0.1026993  0.2883357  57         34.7245    2.2439    
2592.1999  16.7051    120.511    49.7885    1.489799976348877 0.266689   0.1731164  0.07897381 0.2392198  57         34.9028    2.2648    
2592.3999  16.7051    134.8382   50.0123    1.430600047111511 0.2767137  0.1936083  0.1135586  0.3047104  57         36.9736    2.2574    
2592.5999  16.7051    123.9556   50.9553    1.45959997177124 0.2636037  0.1648378  0.06203086 0.2041789  57         34.5671    2.2749    
2592.7999  16.7051    122.6654   49.2293    1.513299942016602 0.2685118  0.1722983  0.07052545 0.2085466  57         35.9918    2.2479    
2592.9999  16.6966    129.22     49.5487    1.447800040245056 0.2728977  0.1803527  0.08262303 0.2278414  57         36.2822    2.2277    
2593.1999  16.7051    133.5686   51.2589    1.374199986457825 0.2688518  0.1708142  0.06475417 0.1926516  57         37.5949    2.2218    
2593.3999  16.7137    132.6626   53.7842    1.367799997329712 0.2751822  0.1831195  0.08488434 0.2312565  57         38.1935    2.2269    
2593.5999  16.7137    130.6439   55.7023    1.40120005607605 0.2708388  0.1728306  0.06566961 0.1942839  57         35.7885    2.2299    
2593.7999  16.6795    128.2032   54.9833    1.42330002784729 0.2769749  0.1851407  0.08648612 0.2366561  57         36.5595    2.2399    
2593.9999  16.6109    129.9922   54.6316    1.413100004196167 0.274666   0.1799847  0.07777415 0.2264594  57         37.8606    2.2198    
2594.1999  16.5852    128.7719   53.2091    1.397699952125549 0.274462   0.1782752  0.07363025 0.2212625  57         37.3115    2.2149    
2594.3999  16.5938    130.8342   54.2319    1.39300000667572 0.2676683  0.1618982  0.04264834 0.1592825  57         36.7905    2.2303    
2594.5999  16.6024    130.7345   52.2183    1.401399970054627 0.27331    0.1721309  0.05831268 0.1870782  57         37.2251    2.2439    
2594.7999  16.5938    127.2127   51.6746    1.383399963378906 0.272158   0.1686268  0.0512334  0.1755085  57         37.1601    2.2318    
2594.9999  16.5852    129.4951   51.7865    1.325000047683716 0.2697333  0.1619589  0.03788428 0.1490914  57         38.7869    2.2379    
2595.1999  16.5852    128.986    53.5125    1.315500020980835 0.2728112  0.1672502  0.04574525 0.163961   57         37.3046    2.2292    
2595.3999  16.551     130.7171   53.4808    1.357699990272522 0.2691679  0.1585766  0.02963734 0.133268   57         36.4983    2.2402    
2595.5999  16.551     132.0922   55.2387    1.365100026130676 0.2671647  0.1527004  0.01718794 0.104612   57         38.0715    2.2261    
2595.7999  16.5852    134.6826   54.7596    1.331200003623962 0.2713418  0.1597888  0.02696186 0.1165468  57         39.018     2.2329    
2595.9999  16.5595    135.2859   54.3119    1.338099956512451 0.2809916  0.1802505  0.06308638 0.1904056  57         37.0901    2.2408    
