~Version
 VERS              .         2.0                           : CWLS LOG ASCII STANDARD - VERSION 2.0
 WRAP              .         NO                            : ONE LINE PER DEPTH STEP
 DLM               .         SPACE                         : DELIMITING CHARACTER(SPACE TAB OR COMMA)
~Well Information
#_______________________________________________________________________________
#
#PARAMETER_NAME    .UNIT     VALUE                         : DESCRIPTION
#_______________________________________________________________________________
STRT               .m        2062.5046                     : First reference value
STOP               .m        6413.5046                     : Last reference value
STEP               .m        0.2                           : Step increment
NULL               .         -9999                         : Missing value
COMP               .         PETROLEO BRASILEIRO S/A       : Company
WELL               .         1-ESS-120_resample            : Well name
FLD                .                                       : Field
LOC                .                                       : Location
CNTY               .                                       : County
STAT               .         ESPIRITO SANTO                : State
CTRY               .                                       : Country
SRVC               .                                       : Service Company
DATE               .                                       : Date
API                .         342710278300                  : API number
EDF                .M        25.00                         : Elevation Derrick Floor
ELEV               .M        25.0000                       : Surface Elev
ELEV_TYPE          .         KB                            : Elev Type
GDAT               .         SIRGAS2000                    : Geodetic Datum
HZCS               .         UTM                           : Horizontal Coordinate System
LAT                .         -20.620145                    : Latitude
LMF                .         MR                            : Log Measure From
LON                .         -39.512655                    : Longitude
LATI               .         -20_37_15.239                 : Latitude
LONG               .         -39_30_38.085                 : Longitude
MC                 .         39 W                          : Meridiano Central
ORIG               .         SIGEO EXPORTACAO PERFIL       : Origem dos dados
ORIGINALWELLNAME   .         1ESS 0120  ES                 : 
WDMS               .M        2003.00                       : Water Depth to Mean Sea Level
X                  .         446729.00                     : Surface X
XCOORD             .         446584.000000                 : Surface X
Y                  .         7719623.00                    : Surface Y
YCOORD             .         7719778.000000                : Surface Y
~Parameter Information Block
#_______________________________________________________________________________
#
#PARAMETER_NAME    .UNIT     VALUE                         : DESCRIPTION
#_______________________________________________________________________________
SET                .         ESS120_resample               : 
TLFamily_CALI      .         Caliper                       : 
TLFamily_DEPT      .         Measured Depth                : 
TLFamily_DTCO      .         Compressional Slowness        : 
TLFamily_GR        .         Gamma Ray                     : 
TLFamily_INPEFA_1  .                                       : 
TLFamily_INPEFA_2  .                                       : 
TLFamily_INPEFA_3  .                                       : 
TLFamily_INPEFA_4  .                                       : 
TLFamily_LITO      .                                       : 
TLFamily_LLD       .         Deep Resistivity              : 
TLFamily_NPHI      .         Neutron Porosity              : 
TLFamily_OG        .                                       : 
TLFamily_RHOB_merge .         Bulk Density                  : 
~Curve Information
#_______________________________________________________________________________
#
#LOGNAME           .UNIT     LOG_ID                        : DESCRIPTION
#_______________________________________________________________________________
DEPT               .m                                      :  
CALI               .in                                     : CALIPER 
DTCO               .us/ft                                  : DELTA-T COMPRESSIONAL 
GR                 .gAPI                                   : GAMMA RAY 
INPEFA_1           .                                       :  
INPEFA_2           .                                       :  
INPEFA_3           .                                       :  
INPEFA_4           .                                       :  
LITO               .                                       :  
LLD                .ohm.m                                  : LATEROLOG DEEP RESISTIVITY 
NPHI               .%                                      : THERMAL NEUTRON POROSITY (ORIGINAL RATIO METHOD) IN SELECTED LITHOLOGY 
OG                 .                                       :  
RHOB_merge         .g/cm3                                  :  
~Ascii
2062.5046  -9999      -9999      30.1365    0.00904816 0.04542962 0.03590281 0.01904463 57         -9999      -9999      30.1365    -9999     
2062.7046  -9999      -9999      31.94041   0.009852738 0.04997214 0.04275102 0.02970192 57         -9999      -9999      31.94041   -9999     
2062.9046  -9999      -9999      31.08434   0.005621487 0.04091876 0.02809858 0.008431681 57         -9999      -9999      31.08434   -9999     
2063.1046  -9999      -9999      27.46704   0.01156543 0.05697291 0.04994923 0.03524575 57         -9999      -9999      27.46704   -9999     
2063.3046  -9999      -9999      25.54523   0.003148508 0.03787266 0.02071598 -0.005604972 57         -9999      -9999      25.54523   -9999     
2063.5046  -9999      -9999      30.65045   0.01192676 0.05996779 0.05001376 0.02695973 57         -9999      -9999      30.65045   -9999     
2063.7046  -9999      -9999      32.84887   0.01610691 0.07508983 0.07547688 0.06991281 57         -9999      -9999      32.84887   -9999     
2063.9046  -9999      -9999      30.41652   0.000875252 0.03837224 0.02015359 -0.004675771 57         -9999      -9999      30.41652   -9999     
2064.1046  -9999      -9999      33.70231   0.01089139 0.06256578 0.05123302 0.02706116 57         -9999      -9999      33.70231   -9999     
2064.3046  -9999      -9999      32.02926   0.00951108 0.06235787 0.0517038  0.03004494 57         -9999      -9999      32.02926   -9999     
2064.5046  -9999      -9999      30.83428   0.01892735 0.08904445 0.0924647  0.09069207 57         -9999      -9999      30.83428   -9999     
2064.7046  -9999      -9999      31.47136   0.005886611 0.06028578 0.05248544 0.04611906 57         -9999      -9999      31.47136   -9999     
2064.9046  -9999      -9999      33.30873   -0.001754033 0.03908486 0.01466666 -0.01727505 57         -9999      -9999      33.30873   -9999     
2065.1046  -9999      -9999      33.46111   0.01072082 0.07091149 0.05843396 0.03373158 57         -9999      -9999      33.46111   -9999     
2065.3046  -9999      -9999      33.51957   -0.001324706 0.04310463 0.01621792 -0.02529965 57         -9999      -9999      33.51957   -9999     
2065.5046  -9999      -9999      31.53107   0.007870214 0.06505946 0.0429392  -0.002670641 57         -9999      -9999      31.53107   -9999     
2065.7046  -9999      -9999      29.51131   0.01189429 0.07900491 0.06502994 0.02969223 57         -9999      -9999      29.51131   -9999     
2065.9046  -9999      -9999      30.83618   0.01126433 0.08008862 0.06710229 0.03533609 57         -9999      -9999      30.83618   -9999     
2066.1046  -9999      -9999      31.22592   0.005214102 0.06702845 0.04695146 0.007414311 57         -9999      -9999      31.22592   -9999     
2066.3046  -9999      -9999      33.00031   0.01038288 0.08088583 0.06521515 0.02838198 57         -9999      -9999      33.00031   -9999     
2066.5046  -9999      -9999      31.99447   0.007401114 0.07631218 0.0587455  0.02173959 57         -9999      -9999      31.99447   -9999     
2066.7046  -9999      -9999      28.55993   0.008374585 0.08089741 0.06530476 0.03232647 57         -9999      -9999      28.55993   -9999     
2066.9046  -9999      -9999      32.30795   -0.001539578 0.05734697 0.02851568 -0.02027149 57         -9999      -9999      32.30795   -9999     
2067.1046  -9999      -9999      34.63742   -0.003358941 0.05130141 0.01296314 -0.05568398 57         -9999      -9999      34.63742   -9999     
2067.3046  -9999      -9999      32.85738   -0.002716939 0.05268807 0.01006102 -0.07241143 57         -9999      -9999      32.85738   -9999     
2067.5046  -9999      -9999      28.24844   -0.006363882 0.04299306 -0.01019379 -0.1156504 57         -9999      -9999      28.24844   -9999     
2067.7046  -9999      -9999      30.76071   0.005628511 0.07382701 0.03172724 -0.06979183 57         -9999      -9999      30.76071   -9999     
2067.9046  -9999      -9999      38.37825   0.00040904 0.06321627 0.01521472 -0.09507066 57         -9999      -9999      38.37825   -9999     
2068.1046  -9999      -9999      37.7551    0.000123543 0.06292848 0.01109985 -0.1103529 57         -9999      -9999      37.7551    -9999     
2068.3046  -9999      -9999      35.91032   0.000564927 0.06441832 0.009349516 -0.1237145 57         -9999      -9999      35.91032   -9999     
2068.5046  -9999      -9999      33.44392   0.00265476 0.07063522 0.01547661 -0.1247518 57         -9999      -9999      33.44392   -9999     
2068.7046  -9999      -9999      29.65012   0.009327316 0.08997495 0.04372276 -0.08889908 57         -9999      -9999      29.65012   -9999     
2068.9046  -9999      -9999      27.85715   0.002897537 0.07610243 0.02269206 -0.1184608 57         -9999      -9999      27.85715   -9999     
2069.1046  -9999      -9999      31.76089   0.002707913 0.07531378 0.01727889 -0.1368229 57         -9999      -9999      31.76089   -9999     
2069.3046  -9999      -9999      33.79932   0.00832872 0.09121013 0.03916207 -0.1132995 57         -9999      -9999      33.79932   -9999     
2069.5046  -9999      -9999      34.06761   0.009110167 0.09594589 0.04647948 -0.103663  57         -9999      -9999      34.06761   -9999     
2069.7046  -9999      -9999      33.96827   0.002353694 0.07963713 0.01949598 -0.1480258 57         -9999      -9999      33.96827   -9999     
2069.9046  -9999      -9999      37.26651   0.01908102 0.1227508  0.08134161 -0.07010974 57         -9999      -9999      37.26651   -9999     
2070.1046  -9999      -9999      40.40277   0.0188151  0.1285839  0.09642408 -0.03430266 57         -9999      -9999      40.40277   -9999     
2070.3046  -9999      -9999      39.96862   0.01025844 0.1097799  0.07000617 -0.06372536 57         -9999      -9999      39.96862   -9999     
2070.5046  -9999      -9999      38.36184   0.01345003 0.1181529  0.08037052 -0.05231365 57         -9999      -9999      38.36184   -9999     
2070.7046  -9999      -9999      33.12838   0.01072002 0.1141232  0.07527014 -0.05591454 57         -9999      -9999      33.12838   -9999     
2070.9046  -9999      -9999      30.35379   0.02023861 0.1405416  0.1158554  0.005636442 57         -9999      -9999      30.35379   -9999     
2071.1046  -9999      -9999      31.94546   0.009103696 0.1168606  0.08467495 -0.02423287 57         -9999      -9999      31.94546   -9999     
2071.3046  -9999      -9999      33.88187   0.01186447 0.1231303  0.09078425 -0.01929179 57         -9999      -9999      33.88187   -9999     
2071.5046  -9999      -9999      33.33417   0.01431665 0.1325764  0.106792   0.009894974 57         -9999      -9999      33.33417   -9999     
2071.7046  -9999      -9999      30.33263   0.01520414 0.1382063  0.1183265  0.03824302 57         -9999      -9999      30.33263   -9999     
2071.9046  -9999      -9999      30.59039   0.007165973 0.1200742  0.09262598 0.011701   57         -9999      -9999      30.59039   -9999     
2072.1046  -9999      -9999      33.02322   0.007816157 0.1223264  0.09490869 0.01725583 57         -9999      -9999      33.02322   -9999     
2072.3046  -9999      -9999      32.66576   0.001773166 0.1088111  0.07492462 -0.006302254 57         -9999      -9999      32.66576   -9999     
2072.5046  -9999      -9999      31.04806   0.003770323 0.1134194  0.07874423 -0.005049725 57         -9999      -9999      31.04806   -9999     
2072.7046  -9999      -9999      33.06569   0.006010312 0.1215639  0.09161875 0.01658379 57         -9999      -9999      33.06569   -9999     
2072.9046  -9999      -9999      29.67157   0.002529716 0.1137595  0.07918285 0.001625804 57         -9999      -9999      29.67157   -9999     
2073.1046  -9999      -9999      25.15818   0.002826146 0.1157412  0.08134004 0.005636703 57         -9999      -9999      25.15818   -9999     
2073.3046  -9999      -9999      28.74019   0.0000241  0.1097197  0.07150174 -0.006872531 57         -9999      -9999      28.74019   -9999     
2073.5046  -9999      -9999      33.54993   -0.003410412 0.1008264  0.05513102 -0.03426472 57         -9999      -9999      33.54993   -9999     
