~Version
 VERS              .         2.0                           : CWLS LOG ASCII STANDARD - VERSION 2.0
 WRAP              .         NO                            : ONE LINE PER DEPTH STEP
 DLM               .         SPACE                         : DELIMITING CHARACTER(SPACE TAB OR COMMA)
~Well Information
#_______________________________________________________________________________
#
#PARAMETER_NAME    .UNIT     VALUE                         : DESCRIPTION
#_______________________________________________________________________________
STRT               .m        2119.8892                     : First reference value
STOP               .m        5043.2892                     : Last reference value
STEP               .m        0.2                           : Step increment
NULL               .         -9999                         : Missing value
COMP               .         PETROLEO BRASILEIRO S/A       : Company
WELL               .         1ESS 0094  ES                 : Well name
FLD                .                                       : Field
LOC                .                                       : Location
CNTY               .                                       : County
STAT               .         ESPIRITO SANTO                : State
CTRY               .                                       : Country
SRVC               .                                       : Service Company
DATE               .                                       : Date
API                .         342710052700                  : API number
EDF                .M        25.00                         : Elevation Derrick Floor
GDAT               .         SIRGAS2000                    : Geodetic Datum
HZCS               .         UTM                           : Horizontal Coordinate System
LAT                .         -20.952076                    : Latitude
LONG               .         -39.451195                    : Longitude
MC                 .         39 W                          : Meridiano Central
ORIG               .         SIGEO EXPORTACAO PERFIL       : Origem dos dados
WDMS               .M        2081.00                       : Water Depth to Mean Sea Level
XCOORD             .         453092.70                     : Surface X
YCOORD             .         7683090.10                    : Surface Y
~Parameter Information Block
#_______________________________________________________________________________
#
#PARAMETER_NAME    .UNIT     VALUE                         : DESCRIPTION
#_______________________________________________________________________________
SET                .         ESS94_resample                : 
TLFamily_CALI      .         Caliper                       : 
TLFamily_DEPT      .         Measured Depth                : 
TLFamily_DT        .         Compressional Slowness        : 
TLFamily_DTS       .         Shear Slowness                : 
TLFamily_GR        .         Gamma Ray                     : 
TLFamily_INPEFA_1  .                                       : 
TLFamily_INPEFA_2  .                                       : 
TLFamily_INPEFA_3  .                                       : 
TLFamily_INPEFA_4  .                                       : 
TLFamily_LITO      .                                       : 
TLFamily_NPHI      .         Neutron Porosity              : 
TLFamily_OG        .                                       : 
TLFamily_RESD      .         Deep Resistivity              : 
TLFamily_RESM      .         Medium Resistivity            : 
TLFamily_RESS      .         Shallow Resistivity           : 
TLFamily_RHOB      .         Bulk Density                  : 
TLFamily_SP        .         Spontaneous Potential         : 
TLFamily_TVD       .         True Vertical Depth           : 
~Curve Information
#_______________________________________________________________________________
#
#LOGNAME           .UNIT     LOG_ID                        : DESCRIPTION
#_______________________________________________________________________________
DEPT               .m                                      :  
CALI               .in                                     :  
DT                 .us/ft                                  :  
DTS                .us/ft                                  :  
GR                 .Sem                                    : GAMMA RAY 
INPEFA_1           .                                       :  
INPEFA_2           .                                       :  
INPEFA_3           .                                       :  
INPEFA_4           .                                       :  
LITO               .Sem                                    : Não definido 
NPHI               .Sem                                    : THERMAL NEUTRON POROSITY (ORIGINAL RATIO METHOD) IN SELECTED LITHOLOGY 
OG                 .                                       :  
RESD               .ohm.m                                  :  
RESM               .ohm.m                                  :  
RESS               .ohm.m                                  :  
RHOB               .g/cm3                                  :  
SP                 .mV                                     : SPONTANEOUS POTENTIAL 
TVD                .m                                      : Vertical Depth 
~Ascii
# ...
4455.689200000001 8.658253   82.07809   157.6303   90.39674   0.0964677  -0.1747234 -0.3537785 -0.2282209 57         25.62218286108903 90.39674   1.128552   1.407745   0.9812617  2.50129    -56.46736062991791 4455.422500000001
4455.8892  8.63948    81.00829   157.2202   93.7578    0.112996   -0.1599675 -0.3392551 -0.2097327 57         25.97368911683027 93.7578    1.140454   1.433469   0.9816601  2.504566   -53.57002965878823 4455.6225 
4456.0892  8.634663   81.62311   156.3709   101.6822   0.1088633  -0.1778631 -0.3942692 -0.3360212 57         26.00655277382277 101.6822   1.125275   1.407767   0.9377947  2.501624   -55.64992099737956 4455.8225 
4456.2892  8.597574   83.00473   156.1423   110.1347   0.09872139 -0.2049556 -0.4704668 -0.5284573 57         23.53655842157354 110.1347   1.155184   1.428643   0.9690858  2.492881   -59.3093803149655 4456.0225 
4456.4892  8.606122   82.63425   155.3495   112.5358   0.1162895  -0.1897335 -0.4594513 -0.5701189 57         18.89285943639506 112.5358   1.239193   1.523262   1.036638   2.487818   -64.58154619422771 4456.2225 
4456.689200000001 8.624567   81.96677   157.2533   105.0506   0.1371086  -0.1654292 -0.4211383 -0.5395851 57         18.5071334838932 105.0506   1.325727   1.631105   1.07808    2.495267   -67.52713333333662 4456.422500000001
4456.8892  8.623972   80.895     157.1954   92.89711   0.1581529  -0.1388371 -0.3729088 -0.4761666 57         19.48353405449307 92.89711   1.425012   1.762942   1.124367   2.504495   -67.60660000000031 4456.6225 
4457.0892  8.616761   78.98981   159.5994   81.18016   0.1704035  -0.1226815 -0.339422  -0.4182771 57         19.46248761374731 81.18016   1.447126   1.765444   1.101833   2.511424   -65.29914461941233 4456.822500000001
4457.2892  8.615298   77.23128   182.7933   75.22243   0.1597519  -0.1443256 -0.390052  -0.5445399 57         19.27352750082394 75.22243   1.402282   1.679941   1.031321   2.515478   -63.14077244094316 4457.022500000001
4457.4892  8.636242   77.10672   213.8896   82.69862   0.1641378  -0.1452615 -0.4036316 -0.630816  57         19.88781870443776 82.69862   1.379305   1.662931   1.047906   2.509294   -62.99509842519484 4457.2225 
4457.689200000001 8.681258   78.58495   220.6631   91.28239   0.2107194  -0.07804488 -0.2677991 -0.4022937 57         20.63338019904306 91.28239   1.36493    1.652818   1.054612   2.505136   -65.6499170603739 4457.422500000001
4457.8892  8.699336   79.35715   190.2792   94.45368   0.2130783  -0.07466834 -0.2551696 -0.3757615 57         20.56624248334641 94.45368   1.344924   1.626945   1.040325   2.506726   -65.20336010499167 4457.622479265091
4458.0892  8.707032   79.92186   170.7935   93.72185   0.2304308  -0.04953532 -0.1988869 -0.2633821 57         19.8160063826186 93.72185   1.344781   1.633715   1.048802   2.509396   -63.90215275590471 4457.8224 
4458.2892  8.706517   80.08228   149.8169   91.08919   0.2281402  -0.0534011 -0.2000015 -0.2443248 57         19.64520452904895 91.08919   1.362229   1.668986   1.063327   2.504225   -62.39585380577383 4458.0224 
4458.4892  8.721996   80.32432   155.9145   93.36132   0.2295163  -0.05573187 -0.2055334 -0.2564903 57         21.45128627586783 93.36132   1.365399   1.67264    1.058863   2.486286   -64.21239107611439 4458.2224 
4458.689200000001 8.714902   79.95592   168.2512   102.41     0.2527091  -0.02197353 -0.1302045 -0.09226686 57         23.86787231325744 102.41     1.334673   1.629153   1.046643   2.465679   -67.41752283465334 4458.4224 
4458.8892  8.708984   80.89792   287.2547   103.5351   0.2744308  0.01361578 -0.04037952 0.1495811  57         23.64779619532508 103.5351   1.258718   1.518182   1.009206   2.456147   -68.57238976377883 4458.622399999999
4459.0892  8.685466   83.20905   318.2847   99.1419    0.275433   0.02016919 -0.002739969 0.3342982  57         23.3438413274548 99.1419    1.167827   1.379834   0.9339988  2.452301   -68.53003175852882 4458.822400000001
4459.2892  8.661319   84.46386   318.2847   96.78475   0.2638385  0.009503665 0.005276632 0.5041955  57         22.01468065216255 96.78475   1.149021   1.33925    0.9137804  2.455897   -68.11276141732243 4459.022400000001
4459.4892  8.649898   82.85862   318.2847   91.93076   0.2021019  -0.08712457 -0.1838455 0.2434948  57         20.61607693749706 91.93076   1.135098   1.324287   0.9301084  2.454505   -67.04362047243806 4459.222400000001
4459.689200000001 8.635306   81.77644   313.4351   84.29943   0.194722   -0.1030777 -0.2128524 0.2672994  57         20.16127122293129 84.29943   1.103903   1.303712   0.93008    2.450197   -64.94828057742008 4459.422400000001
4459.8892  8.622312   79.88127   344.067    77.36539   0.1599618  -0.1626267 -0.3361031 0.1001894  57         20.10545616449973 77.36539   1.090649   1.306956   0.9274372  2.460361   -63.74118503937255 4459.622399999999
4460.0892  8.626193   77.97951   402.6048   74.71925   0.1539389  -0.1873607 -0.407467  -0.0498613 57         20.77594247452541 74.71925   1.145412   1.391084   0.9746965  2.480946   -63.06319291338586 4459.8224 
4460.2892  8.614121   77.35278   403.475    78.81821   0.164175   -0.1791811 -0.397409  -0.01743122 57         21.4447775312605 78.81821   1.211605   1.502324   1.026606   2.499125   -60.26544173228551 4460.0224 
4460.4892  8.603497   77.9553    405.5042   82.84014   0.1738217  -0.1717819 -0.3877716 0.01630935 57         21.96095085144097 82.84014   1.214133   1.523933   1.039221   2.502341   -57.33910000000244 4460.222373228346
4460.689200000001 8.599908   77.5914    406.574    76.39976   0.1702777  -0.184471  -0.4210617 -0.04540806 57         20.57810963106803 76.39976   1.20261    1.505388   1.027028   2.504044   -56.15604803149635 4460.4223 
4460.8892  8.578821   78.26117   406.8719   71.71584   0.1669189  -0.1957284 -0.4507675 -0.1018474 57         19.47198379196304 71.71584   1.215101   1.520979   1.024638   2.513992   -56.44620026246636 4460.6223 
4461.0892  8.576908   77.70667   408.8828   70.60181   0.1656984  -0.2075693 -0.4900687 -0.2050916 57         20.37762332525901 70.60181   1.242081   1.562105   1.042066   2.513651   -55.15947952755525 4460.822300000001
4461.2892  8.580772   77.88426   409.966    74.03743   0.1354228  -0.2671085 -0.638212  -0.5674002 57         20.9867007137916 74.03743   1.246252   1.566873   1.053846   2.502337   -54.89860104987205 4461.022300000001
4461.4892  8.583567   78.42907   409.966    78.35584   0.2101065  -0.1642017 -0.4446875 -0.2652919 57         21.47356337700025 78.35584   1.167112   1.450672   0.9976498  2.487343   -57.96948083989756 4461.2223 
4461.689200000001 8.576276   78.8773    331.1256   77.49062   0.208149   -0.1702231 -0.4594734 -0.3027727 57         21.30526314382102 77.49062   1.097874   1.344118   0.9291706  2.479444   -60.84732362204942 4461.422300000001
4461.8892  8.573236   80.00578   156.2009   73.38852   0.2114691  -0.1695497 -0.4623764 -0.3264981 57         20.53998812978372 73.38852   1.096284   1.348339   0.9196097  2.482587   -60.36226850393773 4461.6223 
4462.0892  8.575469   79.11886   156.2009   73.76884   0.2194578  -0.1652875 -0.4649816 -0.3745237 57         19.30771886269288 73.76884   1.15227    1.428793   0.945805   2.493171   -59.00254986876377 4461.822300000001
4462.2892  8.573405   78.9742    156.2009   81.24993   0.231598   -0.1515471 -0.4420887 -0.3584469 57         19.70541952537871 81.24993   1.239593   1.526114   0.9833233  2.500481   -60.07207165353691 4462.0223 
4462.4892  8.606877   81.48087   156.134    98.20341   0.2447614  -0.1349161 -0.4088419 -0.3090177 57         25.21702574180801 98.20341   1.342973   1.616759   1.040388   2.48257    -64.30932939631883 4462.222299999999
4462.689200000001 8.675068   85.10172   156.6905   108.7539   0.248211   -0.1329954 -0.4056008 -0.3177021 57         28.70062752971972 108.7539   1.37142    1.583338   1.028936   2.447583   -66.8386669291375 4462.4223 
4462.8892  8.685499   88.61465   163.6458   114.1951   0.2545824  -0.1271289 -0.3950571 -0.3188523 57         29.26854005949 114.1951   1.206537   1.344684   0.8759668  2.415658   -66.50398740157276 4462.622299999999
