~Version
 VERS              .         2.0                           : CWLS LOG ASCII STANDARD - VERSION 2.0
 WRAP              .         NO                            : ONE LINE PER DEPTH STEP
 DLM               .         SPACE                         : DELIMITING CHARACTER(SPACE TAB OR COMMA)
~Well Information
#_______________________________________________________________________________
#
#PARAMETER_NAME    .UNIT     VALUE                         : DESCRIPTION
#_______________________________________________________________________________
STRT               .m        2430.3999                     : First reference value
STOP               .m        5554.9999                     : Last reference value
STEP               .m        0.2                           : Step increment
NULL               .         -9999                         : Missing value
COMP               .         PETROLEO BRASILEIRO S/A       : Company
WELL               .         1-ESS-186_resample            : Well name
FLD                .                                       : Field
LOC                .                                       : Location
CNTY               .                                       : County
STAT               .         ESPIRITO SANTO                : State
CTRY               .                                       : Country
SRVC               .                                       : Service Company
DATE               .                                       : Date
API                .         342710339400                  : API number
EDF                .M        25.00                         : Elevation Derrick Floor
GDAT               .         SIRGAS2000                    : Geodetic Datum
HZCS               .         UTM                           : Horizontal Coordinate System
LAT                .         -20.356499                    : Latitude
LONG               .         -39.496292                    : Longitude
MC                 .         39 W                          : Meridiano Central
ORIG               .         SIGEO EXPORTACAO PERFIL       : Origem dos dados
WDMS               .M        1798.00                       : Water Depth to Mean Sea Level
XCOORD             .         448202.60                     : Surface X
YCOORD             .         7748989.80                    : Surface Y
~Parameter Information Block
#_______________________________________________________________________________
#
#PARAMETER_NAME    .UNIT     VALUE                         : DESCRIPTION
#_______________________________________________________________________________
SET                .         ESS186_resample               : 
TLFamily_CALI      .         Caliper                       : 
TLFamily_DEPT      .         Measured Depth                : 
TLFamily_DT        .         Compressional Slowness        : 
TLFamily_DTS       .         Shear Slowness                : 
TLFamily_GR        .         Gamma Ray                     : 
TLFamily_INPEFA_1  .                                       : 
TLFamily_INPEFA_2  .                                       : 
TLFamily_INPEFA_3  .                                       : 
TLFamily_INPEFA_4  .                                       : 
TLFamily_LITO      .                                       : 
TLFamily_NPHI      .         Neutron Porosity              : 
TLFamily_OG        .                                       : 
TLFamily_RESD      .         Deep Resistivity              : 
TLFamily_RESM      .         Medium Resistivity            : 
TLFamily_RESS      .         Shallow Resistivity           : 
TLFamily_RHOB      .         Bulk Density                  : 
TLFamily_TVD       .         True Vertical Depth           : 
~Curve Information
#_______________________________________________________________________________
#
#LOGNAME           .UNIT     LOG_ID                        : DESCRIPTION
#_______________________________________________________________________________
DEPT               .m                                      :  
CALI               .in                                     :  
DT                 .us/ft                                  :  
DTS                .us/ft                                  :  
GR                 .gAPI                                   : GAMMA RAY 
INPEFA_1           .                                       :  
INPEFA_2           .                                       :  
INPEFA_3           .                                       :  
INPEFA_4           .                                       :  
LITO               .Sem                                    : Não definido 
NPHI               .%                                      : THERMAL NEUTRON POROSITY (ORIGINAL RATIO METHOD) IN SELECTED LITHOLOGY 
OG                 .                                       :  
RESD               .ohm.m                                  :  
RESM               .ohm.m                                  :  
RESS               .ohm.m                                  :  
RHOB               .g/cm3                                  :  
TVD                .                                       : Vertical Depth 
~Ascii
# ...
3271.7999  -9999      -9999      -9999      64.68176   -0.1607098 0.140161   0.06509164 0.05646396 57         -9999      64.68176   0.885204   0.8629008  0.8423979136323337 -9999      3271.7467 
3271.9999  -9999      -9999      -9999      63.17661   -0.1582911 0.1471732  0.07895279 0.1066877  57         -9999      63.17661   0.883025   0.8646953  0.845520680528505 -9999      3271.9467 
3272.1999  -9999      -9999      -9999      61.99903   -0.1826885 0.1099647  0.01461118 -0.0211773 57         -9999      61.99903   0.8814244  0.8663597  0.8505343185156901 -9999      3272.1467 
3272.3999  -9999      -9999      -9999      58.08339   -0.1792479 0.1141799  0.01532876 -0.03245556 57         -9999      58.08339   0.8825278  0.8674475  0.8531343625810335 -9999      3272.3467 
3272.5999  -9999      -9999      -9999      60.53017   -0.1725898 0.1257123  0.03179046 -0.000623268 57         -9999      60.53017   0.8814778  0.8688713  0.852024673011754 -9999      3272.5466 
3272.7999  -9999      -9999      -9999      62.99106   -0.1739345 0.1252356  0.02930426 -0.004892812 57         -9999      62.99106   0.8802967  0.8705383  0.8526030307189362 -9999      3272.7466 
3272.9999  -9999      -9999      -9999      62.36215   -0.1676152 0.1374853  0.04938147 0.04174924 57         -9999      62.36215   0.8793771  0.8729425  0.8561361442495269 -9999      3272.9466 
3273.1999  -9999      -9999      -9999      63.91152   -0.186206  0.1080595  -0.004852105 -0.08429611 57         -9999      63.91152   0.8772928  0.8766237  0.8638722922096254 -9999      3273.1466 
3273.3999  -9999      -9999      -9999      62.70197   -0.1679835 0.1368275  0.03858725 -0.009380467 57         -9999      62.70197   0.8719171  0.880986   0.8730099370678287 -9999      3273.346550393701
3273.5999  -9999      -9999      -9999      61.32243   -0.169652  0.1371488  0.03898526 -0.01033565 57         -9999      61.32243   0.8585135  0.8812255  0.8871718645860806 -9999      3273.5465 
3273.7999  -9999      -9999      -9999      61.01852   -0.1759188 0.1262843  0.01410075 -0.08613736 57         -9999      61.01852   0.8464026  0.8745419  0.8931578679664135 -9999      3273.7465 
3273.9999  -9999      -9999      -9999      58.39578   -0.1343482 0.1955836  0.1322713  0.1677434  57         -9999      58.39578   0.8950063  0.9155542  0.9218863373791627 -9999      3273.9465 
3274.1999  -9999      -9999      -9999      58.66586   -0.1569031 0.1650831  0.08604107 0.09563218 57         -9999      58.66586   0.9325567  0.9683474  0.9683031705172269 -9999      3274.1465 
3274.3999  -9999      -9999      -9999      57.00657   -0.1425966 0.1895518  0.1275529  0.1921179  57         -9999      57.00657   0.9167156  0.952251   0.9520569395774108 -9999      3274.3464 
3274.5999  -9999      -9999      -9999      53.87683   -0.1490081 0.1820269  0.1163967  0.1829941  57         -9999      53.87683   0.8984262  0.9284239  0.9297378312034803 -9999      3274.5464 
3274.7999  -9999      -9999      -9999      56.88563   -0.1352009 0.2078073  0.1640759  0.3100366  57         -9999      56.88563   0.8980815  0.9249278  0.9312837814081683 -9999      3274.7464 
3274.9999  -9999      -9999      -9999      60.55234   -0.1473503 0.1919641  0.1414782  0.2920363  57         -9999      60.55234   0.9000984  0.9269958  0.9338994736153972 -9999      3274.9464 
3275.1999  -9999      -9999      -9999      65.87065   -0.1485611 0.1918551  0.1427279  0.3131953  57         -9999      65.87065   0.912477   0.9175103  0.9109673177640922 -9999      3275.146369291339
3275.3999  -9999      -9999      -9999      66.6432    -0.1323508 0.2222598  0.200629   0.4739313  57         -9999      66.6432    0.9202283  0.9105522  0.9092464609024625 -9999      3275.3463 
3275.5999  -9999      -9999      -9999      64.12138   -0.1609633 0.1796279  0.1322699  0.3597742  57         -9999      64.12138   0.9241922  0.9180381  0.9203755435461695 -9999      3275.5463 
3275.7999  -9999      -9999      -9999      62.7596    -0.1437404 0.2082215  0.1814491  0.4803308  57         -9999      62.7596    0.9277952  0.9250581  0.9240954893279532 -9999      3275.7463 
3275.9999  -9999      -9999      -9999      61.64778   -0.1326    0.2320953  0.2312012  0.6370615  57         -9999      61.64778   0.9293455  0.9218836  0.9174542165074306 -9999      3275.9463 
3276.1999  -9999      -9999      -9999      63.91898   -0.1623555 0.1892913  0.1659918  0.5491272  57         -9999      63.91898   0.9321847  0.9168109  0.9063150468161954 -9999      3276.1463 
3276.3999  -9999      -9999      -9999      62.10448   -0.164861  0.1856332  0.1600434  0.561062   57         -9999      62.10448   0.9345523  0.9175245  0.9053411634305579 -9999      3276.3462 
3276.5999  -9999      -9999      -9999      60.726     -0.1890711 0.1467734  0.09209982 0.4295233  57         -9999      60.726     0.9398509  0.928005   0.9174400543286804 -9999      3276.5462 
3276.7999  -9999      -9999      -9999      61.45129   -0.2121028 0.1064978  0.01481959 0.245828   57         -9999      61.45129   0.9498018  0.9571339  0.9554800542302362 -9999      3276.7462 
3276.9999  -9999      -9999      -9999      55.97985   -0.1755131 0.1596219  0.09305513 0.375561   57         -9999      55.97985   0.9541242  0.9711764  0.9843527280270674 -9999      3276.946199999999
3277.1999  -9999      -9999      -9999      57.62831   -0.1884912 0.1406635  0.05922505 0.2998334  57         -9999      57.62831   0.9553694  0.9680671  0.9768199807991551 -9999      3277.14615695538
3277.3999  -9999      -9999      -9999      58.76398   -0.1870387 0.1414794  0.05413267 0.2660863  57         -9999      58.76398   0.9532397  0.9557939  0.946448888570987 -9999      3277.3461 
3277.5999  -9999      -9999      -9999      60.56122   -0.1856313 0.1422443  0.04835174 0.2244469  57         -9999      60.56122   0.951896   0.9415406  0.92188343691199 -9999      3277.5461 
3277.7999  -9999      -9999      -9999      59.48777   -0.1620923 0.181309   0.1128632  0.3522522  57         -9999      59.48777   0.9441956  0.9329646  0.9228478833528949 -9999      3277.7461 
3277.9999  -9999      -9999      -9999      61.26091   -0.1934049 0.1321663  0.02646499 0.1534029  57         -9999      61.26091   0.9354764  0.9300678  0.9250680010269847 -9999      3277.9461 
3278.1999  -9999      -9999      -9999      62.84624   -0.180026  0.1498443  0.04555471 0.1457982  57         -9999      62.84624   0.9277447  0.9278118  0.9221235917041862 -9999      3278.146000787401
3278.3999  -9999      -9999      -9999      60.86421   -0.1582072 0.1854232  0.1023063  0.2429697  57         -9999      60.86421   0.9239359  0.9299642  0.9255654990296226 -9999      3278.346  
3278.5999  -9999      -9999      -9999      64.22676   -0.1819457 0.1472169  0.03210804 0.06338832 57         -9999      64.22676   0.9146049  0.9314745  0.9390867878458881 -9999      3278.546  
3278.7999  -9999      -9999      -9999      63.89346   -0.1524493 0.1917577  0.09906156 0.160256   57         -9999      63.89346   0.8969548  0.9162108  0.9360084467855053 -9999      3278.746  
3278.9999  -9999      -9999      -9999      61.3638    -0.1279068 0.2362992  0.179907   0.3387201  57         -9999      61.3638    0.8785261  0.8864278  0.9148444075311842 -9999      3278.945975853018
3279.1999  -9999      -9999      -9999      65.28678   -0.1442064 0.2168989  0.1557704  0.3143002  57         -9999      65.28678   0.8642452  0.8440143  0.8491144162564649 -9999      3279.1459 
3279.3999  -9999      -9999      -9999      68.56356   -0.1443341 0.2190095  0.1619646  0.3343481  57         -9999      68.56356   0.8566609  0.7902447  0.7434713601537372 -9999      3279.3459 
3279.5999  -9999      -9999      -9999      72.46254   -0.1499065 0.2130379  0.155084   0.3299794  57         -9999      72.46254   0.8590822  0.7953183  0.7687985362140559 -9999      3279.5459 
3279.7999  -9999      -9999      -9999      76.03213   -0.156842  0.2042685  0.1426699  0.312303   57         -9999      76.03213   0.8653075  0.8656812  0.8853300273609618 -9999      3279.7459 
