~Version
 VERS              .         2.0                           : CWLS LOG ASCII STANDARD - VERSION 2.0
 WRAP              .         NO                            : ONE LINE PER DEPTH STEP
 DLM               .         SPACE                         : DELIMITING CHARACTER(SPACE TAB OR COMMA)
~Well Information
#_______________________________________________________________________________
#
#PARAMETER_NAME    .UNIT     VALUE                         : DESCRIPTION
#_______________________________________________________________________________
STRT               .m        2430.3999                     : First reference value
STOP               .m        5554.9999                     : Last reference value
STEP               .m        0.2                           : Step increment
NULL               .         -9999                         : Missing value
COMP               .         PETROLEO BRASILEIRO S/A       : Company
WELL               .         1-ESS-186_resample            : Well name
FLD                .                                       : Field
LOC                .                                       : Location
CNTY               .                                       : County
STAT               .         ESPIRITO SANTO                : State
CTRY               .                                       : Country
SRVC               .                                       : Service Company
DATE               .                                       : Date
API                .         342710339400                  : API number
EDF                .M        25.00                         : Elevation Derrick Floor
GDAT               .         SIRGAS2000                    : Geodetic Datum
HZCS               .         UTM                           : Horizontal Coordinate System
LAT                .         -20.356499                    : Latitude
LONG               .         -39.496292                    : Longitude
MC                 .         39 W                          : Meridiano Central
ORIG               .         SIGEO EXPORTACAO PERFIL       : Origem dos dados
WDMS               .M        1798.00                       : Water Depth to Mean Sea Level
XCOORD             .         448202.60                     : Surface X
YCOORD             .         7748989.80                    : Surface Y
~Parameter Information Block
#_______________________________________________________________________________
#
#PARAMETER_NAME    .UNIT     VALUE                         : DESCRIPTION
#_______________________________________________________________________________
SET                .         ESS186_resample               : 
TLFamily_CALI      .         Caliper                       : 
TLFamily_DEPT      .         Measured Depth                : 
TLFamily_DT        .         Compressional Slowness        : 
TLFamily_DTS       .         Shear Slowness                : 
TLFamily_GR        .         Gamma Ray                     : 
TLFamily_INPEFA_1  .                                       : 
TLFamily_INPEFA_2  .                                       : 
TLFamily_INPEFA_3  .                                       : 
TLFamily_INPEFA_4  .                                       : 
TLFamily_LITO      .                                       : 
TLFamily_NPHI      .         Neutron Porosity              : 
TLFamily_OG        .                                       : 
TLFamily_RESD      .         Deep Resistivity              : 
TLFamily_RESM      .         Medium Resistivity            : 
TLFamily_RESS      .         Shallow Resistivity           : 
TLFamily_RHOB      .         Bulk Density                  : 
TLFamily_TVD       .         True Vertical Depth           : 
~Curve Information
#_______________________________________________________________________________
#
#LOGNAME           .UNIT     LOG_ID                        : DESCRIPTION
#_______________________________________________________________________________
DEPT               .m                                      :  
CALI               .in                                     :  
DT                 .us/ft                                  :  
DTS                .us/ft                                  :  
GR                 .gAPI                                   : GAMMA RAY 
INPEFA_1           .                                       :  
INPEFA_2           .                                       :  
INPEFA_3           .                                       :  
INPEFA_4           .                                       :  
LITO               .Sem                                    : Não definido 
NPHI               .%                                      : THERMAL NEUTRON POROSITY (ORIGINAL RATIO METHOD) IN SELECTED LITHOLOGY 
OG                 .                                       :  
RESD               .ohm.m                                  :  
RESM               .ohm.m                                  :  
RESS               .ohm.m                                  :  
RHOB               .g/cm3                                  :  
TVD                .                                       : Vertical Depth 
~Ascii
# ...
5335.5999  12.23644   65.51928   120.9305   45.59871   0.0556056  0.2298345  0.3561752  0.3094164  6          4.083405   45.59871   5.472176   5.471073   5.557862104471767 2.632417   5334.1299 
5335.7999  12.25315   60.99857   113.4229   36.7468    0.1264568  0.3583152  0.5968811  0.8396409  6          4.176241   36.7468    6.671506   6.788918   6.771031754248964 2.637783   5334.3299 
5335.999900000001 12.2551    59.19292   109.0755   31.8841    0.06105844 0.2845516  0.5214862  0.8191552  6          4.182003   31.8841    9.303167   9.785535   10.13113990115865 2.648613   5334.529900000001
5336.1999  12.26458   58.7255    108.237    29.98185   -0.02910391 0.151385   0.3155977  0.435505   6          3.893406   29.98185   13.0825    13.61936   16.07140313264348 2.655817   5334.7299 
5336.3999  12.24856   57.51064   107.1111   33.36142   -0.03741885 0.1379276  0.2931407  0.3697955  6          2.963359   33.36142   16.09275   16.90822   21.27587282369969 2.657907   5334.929900000001
5336.5999  12.21614   57.82398   108.4282   39.51667   -0.02430438 0.1671124  0.3558966  0.535473   6          2.385046   39.51667   20.10981   22.52364   25.45901786340258 2.663251   5335.1299 
5336.7999  12.21544   65.23646   120.2762   55.44103   -0.08555087 0.07545474 0.210407   0.2559621  57         3.546731   55.44103   21.69207   26.15524   26.21682379072555 2.654453   5335.329813385826
5336.999900000001 12.25529   73.93686   131.4583   79.01108   -0.1276024 0.003892667 0.07984848 -0.065319  57         11.31789   79.01108   14.25228   15.32932   15.42241913058793 2.616782   5335.5298 
5337.1999  12.2968    72.65112   128.1927   80.91097   -0.05519929 0.1124899  0.2510131  0.234507   57         15.82926   80.91097   8.622512   8.558434   8.185928324614485 2.584454   5335.729799999999
5337.3999  12.33978   66.88989   121.8636   61.93724   -0.02316038 0.1756641  0.3767558  0.5576917  57         11.24155   61.93724   9.239391   9.121592   8.794446935584672 2.592193   5335.9298 
5337.5999  12.3477    68.77026   125.2238   61.7502    -0.1137906 0.05026587 0.1958334  0.2976453  57         6.471944   61.7502    12.90526   13.06853   13.73245398104941 2.620808   5336.1298 
5337.7999  12.36075   70.25144   128.5942   73.64618   -0.2317471 -0.1424369 -0.1378057 -0.4206426 57         10.8369    73.64618   11.53826   12.06283   13.31177047801176 2.614571   5336.3298 
5337.999900000001 12.38131   66.2456    125.7112   66.20206   -0.204854  -0.120371  -0.1373454 -0.5625378 57         11.2316    66.20206   11.58511   11.47987   12.10462035750378 2.603064   5336.529800000001
5338.1999  12.20234   66.39659   125.2445   63.39266   -0.1028557 0.03143211 0.09749039 -0.1774046 57         8.578628   63.39266   18.2659    17.17752   16.55724631271513 2.601453   5336.7298 
5338.3999  12.24964   69.01932   128.0896   74.97153   -0.06017477 0.1056045  0.2291361  0.08764293 57         12.99263   74.97153   18.14542   17.52213   16.66571511034646 2.588718   5336.929800000001
5338.5999  12.25998   63.7231    117.0227   66.32281   -0.1261757 0.02212209 0.1200896  -0.04837752 57         13.03569   66.32281   15.06786   14.75521   14.97532797744112 2.569628   5337.129800000001
5338.7999  12.36825   58.69191   111.3964   44.62111   -0.1870205 -0.08168396 -0.06547603 -0.4877048 57         5.050724   44.62111   17.93379   18.65697   18.28487413037603 2.584419   5337.3298 
5338.999900000001 12.38548   64.84793   123.1315   51.59736   -0.151266  -0.03524646 -0.006372882 -0.4712945 57         3.191975   51.59736   17.30598   17.89556   17.06491604670106 2.611006   5337.5298 
5339.1999  12.43719   74.15624   134.0333   79.19899   -0.04995965 0.1301743  0.2798425  0.1087241  57         10.41299   79.19899   10.05582   9.931135   9.932611880535577 2.59552    5337.729799999999
5339.3999  12.79467   76.23541   135.2194   89.6869    -0.05682065 0.1370228  0.3231979  0.2764154  57         18.10991   89.6869    7.420779   7.335871   7.247035478183013 2.557337   5337.9298 
5339.5999  12.77237   74.29392   134.2964   81.64709   -0.1250919 0.05394413 0.2293357  0.2281048  57         16.60398   81.64709   9.011631   8.814514   8.683727615508101 2.550342   5338.1298 
5339.7999  12.72124   77.16502   139.0011   83.08247   -0.2114312 -0.08363514 0.005422896 -0.2068062 57         12.86651   83.08247   8.711528   8.60447    9.073333318849752 2.55157    5338.3298 
5339.999900000001 12.73571   77.8781    140.4193   89.75101   -0.226262  -0.1110966 -0.04137857 -0.3049599 57         16.63208   89.75101   7.851405   7.858902   8.099155958369245 2.554191   5338.5298 
5340.1999  12.73771   70.13129   128.4767   73.60706   -0.2243547 -0.125132  -0.08667243 -0.4849192 57         17.84046   73.60706   10.04799   9.888575   10.22569797076122 2.560545   5338.7298 
5340.3999  12.72949   66.25022   122.8987   55.68136   -0.1661499 -0.03481222 0.06628796 -0.1784169 57         12.03444   55.68136   15.39527   15.82778   17.18952859449398 2.582072   5338.929800000001
5340.5999  12.61858   74.47278   134.7274   70.17329   -0.1566948 -0.01909884 0.1023778  -0.07392763 57         10.64515   70.17329   19.71411   20.38096   21.09249073257417 2.606188   5339.129800000001
5340.7999  12.58907   81.93549   147.2186   101.3035   -0.1841545 -0.0625821 0.03747486 -0.1952246 57         19.53887   101.3035   13.99453   14.58747   15.07180134581601 2.589915   5339.3298 
5340.999900000001 12.57704   73.99945   135.7553   99.97804   -0.1580519 -0.01903453 0.123023   0.007259249 57         22.72146   99.97804   10.91442   11.05039   11.31633189787626 2.549551   5339.529800000001
5341.1999  12.47351   60.86292   113.0539   65.70428   -0.1293085 0.0360943  0.2432402  0.3543041  6          14.96705   65.70428   12.82091   13.26385   14.15572551388456 2.546144   5339.7298 
5341.3999  12.25331   58.76466   110.4348   41.42399   -0.1742125 -0.02294757 0.1781556  0.3550092  6          6.335826   41.42399   20.90051   23.12842   24.50641211180946 2.587507   5339.9298 
5341.5999  12.29884   68.6529    124.454    56.10892   -0.2816007 -0.1906599 -0.08717322 -0.1268716 6          6.315487   56.10892   22.93914   25.14205   25.75473386345394 2.60887    5340.1298 
5341.7999  12.31254   73.43077   131.5042   78.03669   -0.2409361 -0.1414651 -0.01582236 -0.01115532 6          12.91019   78.03669   14.36693   14.72435   14.99634204391955 2.587922   5340.3298 
5341.999900000001 12.31971   66.52605   122.0212   74.35365   -0.2016783 -0.07599223 0.1117108  0.3217812  6          15.7445    74.35365   11.33839   11.55916   11.43130299958188 2.562621   5340.5298 
5342.1999  12.32562   57.76556   110.0586   47.92255   -0.2634499 -0.1640255 -0.007519444 0.188828   6          8.857146   47.92255   18.18027   20.19506   22.07384915582163 2.586216   5340.729799999999
5342.3999  12.29333   61.58279   114.0487   39.41816   -0.337902  -0.2881861 -0.2145032 -0.224024  6          3.492892   39.41816   22.34343   24.72961   30.47990555787503 2.626758   5340.9298 
5342.5999  12.28489   70.85011   127.6597   60.1843    -0.3079229 -0.2581021 -0.1820086 -0.2178189 6          3.934889   60.1843    17.23967   17.64615   20.90250222413913 2.641941   5341.129800000001
5342.7999  12.25831   76.72948   136.4721   87.70364   -0.3198785 -0.2829241 -0.2262012 -0.3263063 57         11.02565   87.70364   13.15654   13.4047    13.76943506190524 2.622724   5341.3298 
5342.999900000001 12.31876   73.68852   132.3098   96.70687   -0.3142489 -0.282121  -0.2293991 -0.3610265 57         15.74431   96.70687   12.59902   12.8221    13.38768152267813 2.597585   5341.529800000001
5343.1999  12.30312   66.66837   121.706    85.53842   -0.2833764 -0.2401875 -0.161445  -0.2493089 57         14.33199   85.53842   13.90971   13.92626   15.09089752172352 2.593403   5341.7298 
5343.3999  12.30166   64.41278   118.2379   64.09675   -0.2636336 -0.2069262 -0.09351794 -0.08560074 57         9.703567   64.09675   15.84534   16.32131   16.92474273459229 2.613342   5341.929782677166
5343.5999  12.20517   66.91824   122.3607   53.9198    -0.3112625 -0.2848579 -0.219899  -0.3591574 57         6.817633   53.9198    12.8048    13.30484   14.02657370954065 2.63489    5342.1297 
