~Version
 VERS              .         2.0                           : CWLS LOG ASCII STANDARD - VERSION 2.0
 WRAP              .         NO                            : ONE LINE PER DEPTH STEP
 DLM               .         SPACE                         : DELIMITING CHARACTER(SPACE TAB OR COMMA)
~Well Information
#_______________________________________________________________________________
#
#PARAMETER_NAME    .UNIT     VALUE                         : DESCRIPTION
#_______________________________________________________________________________
STRT               .m        2119.8892                     : First reference value
STOP               .m        5043.2892                     : Last reference value
STEP               .m        0.2                           : Step increment
NULL               .         -9999                         : Missing value
COMP               .         PETROLEO BRASILEIRO S/A       : Company
WELL               .         1ESS 0094  ES                 : Well name
FLD                .                                       : Field
LOC                .                                       : Location
CNTY               .                                       : County
STAT               .         ESPIRITO SANTO                : State
CTRY               .                                       : Country
SRVC               .                                       : Service Company
DATE               .                                       : Date
API                .         342710052700                  : API number
EDF                .M        25.00                         : Elevation Derrick Floor
GDAT               .         SIRGAS2000                    : Geodetic Datum
HZCS               .         UTM                           : Horizontal Coordinate System
LAT                .         -20.952076                    : Latitude
LONG               .         -39.451195                    : Longitude
MC                 .         39 W                          : Meridiano Central
ORIG               .         SIGEO EXPORTACAO PERFIL       : Origem dos dados
WDMS               .M        2081.00                       : Water Depth to Mean Sea Level
XCOORD             .         453092.70                     : Surface X
YCOORD             .         7683090.10                    : Surface Y
~Parameter Information Block
#_______________________________________________________________________________
#
#PARAMETER_NAME    .UNIT     VALUE                         : DESCRIPTION
#_______________________________________________________________________________
SET                .         ESS94_resample                : 
TLFamily_CALI      .         Caliper                       : 
TLFamily_DEPT      .         Measured Depth                : 
TLFamily_DT        .         Compressional Slowness        : 
TLFamily_DTS       .         Shear Slowness                : 
TLFamily_GR        .         Gamma Ray                     : 
TLFamily_INPEFA_1  .                                       : 
TLFamily_INPEFA_2  .                                       : 
TLFamily_INPEFA_3  .                                       : 
TLFamily_INPEFA_4  .                                       : 
TLFamily_LITO      .                                       : 
TLFamily_NPHI      .         Neutron Porosity              : 
TLFamily_OG        .                                       : 
TLFamily_RESD      .         Deep Resistivity              : 
TLFamily_RESM      .         Medium Resistivity            : 
TLFamily_RESS      .         Shallow Resistivity           : 
TLFamily_RHOB      .         Bulk Density                  : 
TLFamily_SP        .         Spontaneous Potential         : 
TLFamily_TVD       .         True Vertical Depth           : 
~Curve Information
#_______________________________________________________________________________
#
#LOGNAME           .UNIT     LOG_ID                        : DESCRIPTION
#_______________________________________________________________________________
DEPT               .m                                      :  
CALI               .in                                     :  
DT                 .us/ft                                  :  
DTS                .us/ft                                  :  
GR                 .Sem                                    : GAMMA RAY 
INPEFA_1           .                                       :  
INPEFA_2           .                                       :  
INPEFA_3           .                                       :  
INPEFA_4           .                                       :  
LITO               .Sem                                    : Não definido 
NPHI               .Sem                                    : THERMAL NEUTRON POROSITY (ORIGINAL RATIO METHOD) IN SELECTED LITHOLOGY 
OG                 .                                       :  
RESD               .ohm.m                                  :  
RESM               .ohm.m                                  :  
RESS               .ohm.m                                  :  
RHOB               .g/cm3                                  :  
SP                 .mV                                     : SPONTANEOUS POTENTIAL 
TVD                .m                                      : Vertical Depth 
~Ascii
# ...
2152.6892  -9999      -9999      -9999      21.311     0.3772783  0.1645205  0.09685518 0.2713276  56         -9999      21.311     -9999      -9999      -9999      -9999      -9999      2152.6876 
2152.8892  -9999      -9999      -9999      22.59167   0.3449772  0.1109998  -0.01664054 0.09604005 56         -9999      22.59167   -9999      -9999      -9999      -9999      -9999      2152.887546456693
2153.0892  -9999      -9999      -9999      25.66516   0.3460303  0.107094   -0.03105813 0.09107395 49         -9999      25.66516   -9999      -9999      -9999      -9999      -9999      2153.0875 
2153.2892  -9999      -9999      -9999      29.89347   0.3338119  0.08172709 -0.09310137 -0.01920423 49         -9999      29.89347   -9999      -9999      -9999      -9999      -9999      2153.2875 
2153.4892  -9999      -9999      -9999      30.7526    0.3408785  0.08868708 -0.08284932 0.02132389 49         -9999      30.7526    -9999      -9999      -9999      -9999      -9999      2153.4875 
2153.6892  -9999      -9999      -9999      30.73061   0.3296126  0.06641532 -0.1352398 -0.06859046 49         -9999      30.73061   -9999      -9999      -9999      -9999      -9999      2153.6875 
2153.8892  -9999      -9999      -9999      28.8134    0.3408717  0.08004221 -0.1107357 -0.005593486 49         -9999      28.8134    -9999      -9999      -9999      -9999      -9999      2153.887490288714
2154.0892  -9999      -9999      -9999      28.09608   0.3264855  0.05485706 -0.1657169 -0.09199972 49         -9999      28.09608   -9999      -9999      -9999      -9999      -9999      2154.0874 
2154.2892  -9999      -9999      -9999      28.61723   0.3196819  0.0384283  -0.2088442 -0.1855549 49         -9999      28.61723   -9999      -9999      -9999      -9999      -9999      2154.2874 
2154.4892  -9999      -9999      -9999      30.0065    0.3171619  0.02990024 -0.2340315 -0.2490174 49         -9999      30.0065    -9999      -9999      -9999      -9999      -9999      2154.4874 
2154.6892  -9999      -9999      -9999      33.12663   0.3136476  0.01872027 -0.2676675 -0.3447025 49         -9999      33.12663   -9999      -9999      -9999      -9999      -9999      2154.687365354331
2154.8892  -9999      -9999      -9999      38.61315   0.3210169  0.02455691 -0.2655339 -0.3802863 49         -9999      38.61315   -9999      -9999      -9999      -9999      -9999      2154.8873 
2155.0892  -9999      -9999      -9999      44.42895   0.3334204  0.04125454 -0.2344976 -0.3424953 49         -9999      44.42895   -9999      -9999      -9999      -9999      -9999      2155.0873 
2155.2892  -9999      126.261    -9999      45.16302   0.3418714  0.05262523 -0.2117641 -0.3121647 49         -9999      45.16302   0.7236207  1.819393   1.327725   -9999      -9999      2155.2873 
2155.4892  -9999      125.1901   -9999      45.87149   0.3419841  0.05317049 -0.2074731 -0.304977  49         -9999      45.87149   0.8401277  1.57086    1.168363   -9999      -9999      2155.4873 
2155.6892  -9999      132.213    -9999      45.93062   0.3361769  0.04144368 -0.2351565 -0.3836364 49         -9999      45.93062   0.8398087  1.281558   1.114249   -9999      -9999      2155.687209186352
2155.8892  -9999      142.3011   -9999      49.76799   0.3432939  0.05098153 -0.2165488 -0.3701528 49         -9999      49.76799   0.9115983  1.157388   1.120297   -9999      -9999      2155.8872 
2156.0892  -9999      146.811    -9999      50.32345   0.3475631  0.05687062 -0.2035013 -0.360296  49         -9999      50.32345   1.050346   1.189395   1.143905   -9999      -9999      2156.0872 
2156.2892  -9999      148.5764   -9999      48.67292   0.3528976  0.06531879 -0.1829209 -0.3258022 49         -9999      48.67292   1.178227   1.254647   1.175446   -9999      -9999      2156.2872 
2156.4892  -9999      147.8914   -9999      44.72631   0.353496   0.06638598 -0.1773872 -0.3161077 49         -9999      44.72631   1.223846   1.289847   1.200276   -9999      -9999      2156.487184251968
2156.6892  -9999      147.2777   -9999      42.68666   0.3502102  0.06049307 -0.1885413 -0.3431262 49         -9999      42.68666   1.239368   1.300147   1.206003   -9999      -9999      2156.6871 
2156.8892  -9999      147.055    -9999      39.73241   0.351696   0.06172559 -0.1851189 -0.3430189 49         -9999      39.73241   1.234382   1.274219   1.180351   -9999      -9999      2156.8871 
2157.0892  -9999      145.8881   -9999      39.88021   0.3480053  0.05485281 -0.19902   -0.3780453 49         -9999      39.88021   1.203515   1.202822   1.117663   -9999      -9999      2157.0871 
2157.2892  -9999      144.7445   -9999      41.38275   0.3615254  0.07603589 -0.1504638 -0.2767647 49         -9999      41.38275   1.170541   1.137994   1.061136   -9999      -9999      2157.287059317585
2157.4892  -9999      143.7808   -9999      41.41846   0.356835   0.06955918 -0.1581224 -0.275483  49         -9999      41.41846   1.142843   1.10148    1.026316   -9999      -9999      2157.487  
2157.6892  -9999      143.1292   -9999      40.51635   0.3613494  0.07734821 -0.1355695 -0.2107082 49         -9999      40.51635   1.126417   1.08704    1.007192   -9999      -9999      2157.687  
2157.8892  -9999      142.35     -9999      37.29738   0.3538328  0.0656271  -0.1554759 -0.2311585 49         -9999      37.29738   1.119251   1.085475   1.000112   -9999      -9999      2157.887  
2158.0892  -9999      140.332    -9999      32.77665   0.3547435  0.06644113 -0.1503714 -0.2066218 49         -9999      32.77665   1.112359   1.082782   0.9966334  -9999      -9999      2158.086934383202
2158.2892  -9999      140.8035   -9999      28.91962   0.3564791  0.0688123  -0.1411311 -0.1692032 49         -9999      28.91962   1.099742   1.067344   0.9857166  -9999      -9999      2158.286900000001
2158.4892  -9999      141.6752   -9999      28.68194   0.3618675  0.07791349 -0.1151099 -0.08383647 49         -9999      28.68194   1.088612   1.052465   0.9731855  -9999      -9999      2158.4869 
2158.6892  -9999      138.4182   -9999      30.84179   0.3592981  0.07463083 -0.1140467 -0.04032186 49         -9999      30.84179   1.083647   1.049808   0.966935   -9999      -9999      2158.6869 
2158.8892  -9999      136.4069   -9999      31.62281   0.3582561  0.07391469 -0.1068875 0.01995579 49         -9999      31.62281   1.083924   1.052945   0.966      -9999      -9999      2158.886809448819
2159.0892  -9999      136.0009   -9999      30.7088    0.3569797  0.07330496 -0.09770382 0.09070448 49         -9999      30.7088    1.081818   1.052364   0.9646257  -9999      -9999      2159.0868 
2159.2892  -9999      136.8378   -9999      29.45046   0.3492376  0.0617843  -0.1134094 0.1068453  49         -9999      29.45046   1.073146   1.050376   0.964636   -9999      -9999      2159.2868 
2159.4892  -9999      137.6573   -9999      29.23033   0.3444759  0.05442582 -0.1214166 0.1312065  49         -9999      29.23033   1.062615   1.048989   0.965874   -9999      -9999      2159.4868 
2159.6892  -9999      135.0782   -9999      30.49815   0.3418878  0.05062525 -0.1218334 0.1681917  49         -9999      30.49815   1.055757   1.043555   0.9615551  -9999      -9999      2159.686700000001
2159.8892  -9999      133.7346   -9999      31.40027   0.331729   0.0348833  -0.1480228 0.1454557  49         -9999      31.40027   1.051865   1.037629   0.9545046  -9999      -9999      2159.8867 
2160.0892  -9999      135.0829   -9999      32.25441   0.3330701  0.03591844 -0.1416985 0.1708078  49         -9999      32.25441   1.050176   1.034331   0.9477463  -9999      -9999      2160.0867 
2160.2892  -9999      141.0231   -9999      30.59214   0.3336258  0.03774567 -0.1301327 0.2123431  49         -9999      30.59214   1.05       1.03814    0.9488667  -9999      -9999      2160.286690813648
2160.4892  -9999      144.3107   -9999      30.14833   0.3340461  0.03955351 -0.1181072 0.253656   49         -9999      30.14833   1.05       1.044115   0.9535904  -9999      -9999      2160.4866 
