~Version
 VERS              .         2.0                           : CWLS LOG ASCII STANDARD - VERSION 2.0
 WRAP              .         NO                            : ONE LINE PER DEPTH STEP
 DLM               .         SPACE                         : DELIMITING CHARACTER(SPACE TAB OR COMMA)
~Well Information
#_______________________________________________________________________________
#
#PARAMETER_NAME    .UNIT     VALUE                         : DESCRIPTION
#_______________________________________________________________________________
STRT               .m        2430.3999                     : First reference value
STOP               .m        5554.9999                     : Last reference value
STEP               .m        0.2                           : Step increment
NULL               .         -9999                         : Missing value
COMP               .         PETROLEO BRASILEIRO S/A       : Company
WELL               .         1-ESS-186_resample            : Well name
FLD                .                                       : Field
LOC                .                                       : Location
CNTY               .                                       : County
STAT               .         ESPIRITO SANTO                : State
CTRY               .                                       : Country
SRVC               .                                       : Service Company
DATE               .                                       : Date
API                .         342710339400                  : API number
EDF                .M        25.00                         : Elevation Derrick Floor
GDAT               .         SIRGAS2000                    : Geodetic Datum
HZCS               .         UTM                           : Horizontal Coordinate System
LAT                .         -20.356499                    : Latitude
LONG               .         -39.496292                    : Longitude
MC                 .         39 W                          : Meridiano Central
ORIG               .         SIGEO EXPORTACAO PERFIL       : Origem dos dados
WDMS               .M        1798.00                       : Water Depth to Mean Sea Level
XCOORD             .         448202.60                     : Surface X
YCOORD             .         7748989.80                    : Surface Y
~Parameter Information Block
#_______________________________________________________________________________
#
#PARAMETER_NAME    .UNIT     VALUE                         : DESCRIPTION
#_______________________________________________________________________________
SET                .         ESS186_resample               : 
TLFamily_CALI      .         Caliper                       : 
TLFamily_DEPT      .         Measured Depth                : 
TLFamily_DT        .         Compressional Slowness        : 
TLFamily_DTS       .         Shear Slowness                : 
TLFamily_GR        .         Gamma Ray                     : 
TLFamily_INPEFA_1  .                                       : 
TLFamily_INPEFA_2  .                                       : 
TLFamily_INPEFA_3  .                                       : 
TLFamily_INPEFA_4  .                                       : 
TLFamily_LITO      .                                       : 
TLFamily_NPHI      .         Neutron Porosity              : 
TLFamily_OG        .                                       : 
TLFamily_RESD      .         Deep Resistivity              : 
TLFamily_RESM      .         Medium Resistivity            : 
TLFamily_RESS      .         Shallow Resistivity           : 
TLFamily_RHOB      .         Bulk Density                  : 
TLFamily_TVD       .         True Vertical Depth           : 
~Curve Information
#_______________________________________________________________________________
#
#LOGNAME           .UNIT     LOG_ID                        : DESCRIPTION
#_______________________________________________________________________________
DEPT               .m                                      :  
CALI               .in                                     :  
DT                 .us/ft                                  :  
DTS                .us/ft                                  :  
GR                 .gAPI                                   : GAMMA RAY 
INPEFA_1           .                                       :  
INPEFA_2           .                                       :  
INPEFA_3           .                                       :  
INPEFA_4           .                                       :  
LITO               .Sem                                    : Não definido 
NPHI               .%                                      : THERMAL NEUTRON POROSITY (ORIGINAL RATIO METHOD) IN SELECTED LITHOLOGY 
OG                 .                                       :  
RESD               .ohm.m                                  :  
RESM               .ohm.m                                  :  
RESS               .ohm.m                                  :  
RHOB               .g/cm3                                  :  
TVD                .                                       : Vertical Depth 
~Ascii
# ...
5123.3999  12.2727    70.87075   133.6236   50.65978   -0.3318272 -0.3013491 -0.146183  0.1127682  6          8.510657   50.65978   4.134697   4.419364   4.656893517768515 2.664877   5121.929900000001
5123.5999  12.24813   67.22716   129.3381   51.54557   -0.3372003 -0.315117  -0.1742765 0.04866165 6          6.580865   51.54557   4.658525   5.075692   4.995205870011039 2.665333   5122.129900000001
5123.7999  12.21396   64.66438   123.253    48.67593   -0.3573969 -0.3557564 -0.2543445 -0.1544297 6          6.616661   48.67593   6.53599    7.299172   7.422693299293631 2.67203    5122.329900000001
5123.999900000001 12.21762   63.9695    120.1704   46.44211   -0.3177966 -0.3014323 -0.1743736 -0.02895145 6          3.736716   46.44211   6.585341   7.571972   8.541113813529139 2.686121   5122.529900000001
5124.1999  12.21699   59.53325   112.2142   44.87766   -0.2959132 -0.2663734 -0.112162  0.109338   6          1.244715   44.87766   7.415183   9.159101   11.90231552599755 2.70641    5122.729899999999
5124.3999  12.23534   55.43943   104.2742   41.90871   -0.2968735 -0.2672961 -0.1093387 0.1281477  6          1.333334   41.90871   12.90711   17.77796   27.08919632029604 2.706335   5122.9299 
5124.5999  12.24628   56.03161   104.7426   36.90057   -0.2875438 -0.2480423 -0.06588196 0.2602344  6          3.056028   36.90057   16.409     24.78216   28.22266949884963 2.682506   5123.1299 
5124.7999  12.2296    59.15708   110.8437   33.40983   -0.2936033 -0.2546147 -0.06672535 0.3057066  6          5.512049   33.40983   12.77543   15.90535   16.16601442112082 2.655991   5123.3299 
5124.999900000001 12.20904   61.89226   116.288    31.88483   -0.2998752 -0.2612036 -0.06692429 0.3616202  6          6.293609   31.88483   11.776     12.82286   11.80731236552849 2.655628   5123.529900000001
5125.1999  12.22866   62.74006   118.303    34.74908   -0.3184321 -0.2886145 -0.1040777 0.3416392  6          5.699875   34.74908   10.04284   10.88005   9.717884677282278 2.670257   5123.729899999999
5125.3999  12.23812   63.68619   119.7792   36.89389   -0.3504819 -0.3417518 -0.1922413 0.1910735  6          6.573688   36.89389   8.168536   8.577238   8.851348084533633 2.672356   5123.9299 
5125.5999  12.26294   65.49417   122.8217   36.16673   -0.3721753 -0.3806993 -0.2613753 0.06231348 6          9.595295   36.16673   6.419746   6.349339   7.193700778997501 2.66245    5124.1299 
5125.7999  12.23826   69.75179   131.8004   36.34625   -0.3758198 -0.3978778 -0.3057881 -0.06489827 6          14.24984   36.34625   5.375733   5.543426   5.729183259125426 2.649644   5124.329900000001
5125.999900000001 12.2358    75.07682   143.6949   43.10458   -0.3688512 -0.3927895 -0.306759  -0.09461059 6          15.25169   43.10458   4.739357   4.823159   4.662980393671825 2.639343   5124.529900000001
5126.1999  12.2358    76.21173   148.4394   53.25234   -0.3543223 -0.374038  -0.2821374 -0.06239809 6          11.29584   53.25234   3.877813   3.654793   3.841540364106328 2.642689   5124.7299 
5126.3999  12.25052   71.76431   140.3247   51.48201   -0.3577865 -0.3848815 -0.3094721 -0.1491401 6          7.791681   51.48201   3.648584   3.786118   4.208165028831246 2.660094   5124.929900000001
5126.5999  12.24406   65.93182   126.8125   46.06005   -0.3338242 -0.3524607 -0.2645305 -0.08764211 8          5.066616   46.06005   4.601071   5.070117   5.663936715565762 2.663156   5125.1299 
5126.7999  12.2435    61.89068   117.0237   45.06162   -0.3072352 -0.3127152 -0.2009202 0.03982422 8          3.235132   45.06162   6.038626   7.175574   7.856387369957883 2.655115   5125.3299 
5126.999900000001 12.21666   59.77368   112.5884   37.34332   -0.2996446 -0.2987004 -0.1722268 0.1293941  8          3.814614   37.34332   7.897517   10.80265   11.84964941867548 2.651841   5125.529900000001
5127.1999  12.23254   60.05122   112.8506   28.81028   -0.302226  -0.2987924 -0.1625134 0.2041302  8          4.668687   28.81028   9.869052   13.44485   14.8476640125543 2.660727   5125.729899999999
5127.3999  12.22996   61.61286   115.2201   27.33248   -0.3100537 -0.309677  -0.173747  0.2316473  8          5.958408   27.33248   10.04091   11.7263    13.3225990988155 2.6647     5125.9299 
5127.5999  12.21577   63.40771   118.7915   29.99303   -0.336757  -0.3528716 -0.2442066 0.1168309  57         8.08976    29.99303   8.147758   8.649961   10.68958542115725 2.661515   5126.1299 
5127.7999  12.25578   65.93551   124.4141   34.12796   -0.3369776 -0.3553146 -0.2485599 0.1306064  57         10.32027   34.12796   6.655482   6.552172   7.644155603321553 2.655755   5126.3299 
5127.999900000001 12.24802   69.15604   132.3876   37.83276   -0.3585812 -0.3917106 -0.3109933 0.01743371 57         14.05395   37.83276   6.268561   5.903515   6.251558964369512 2.649692   5126.529900000001
5128.1999  12.2558    72.48874   139.1095   42.32984   -0.3804254 -0.433376  -0.3918111 -0.1752658 57         17.48866   42.32984   4.868387   4.746521   4.849851382629478 2.63861    5126.7299 
5128.3999  12.24482   74.86384   143.1777   48.44954   -0.3516297 -0.3959919 -0.3424286 -0.1139108 57         14.88549   48.44954   3.668327   3.645544   3.750117706279826 2.643851   5126.929900000001
5128.5999  12.25473   72.78202   140.6014   52.78882   -0.3347269 -0.3693291 -0.2983222 -0.01848608 57         9.794233   52.78882   3.785363   3.937296   4.182830573566031 2.665036   5127.129900000001
5128.7999  12.24595   67.44286   131.4635   50.54003   -0.3377155 -0.3739493 -0.3051258 -0.01603733 57         6.886123   50.54003   4.861524   5.280833   6.091381720290363 2.674481   5127.329900000001
5128.999900000001 12.24591   63.71993   121.9309   44.84077   -0.3556512 -0.4057368 -0.3634045 -0.1413092 57         5.403472   44.84077   6.084809   6.947453   8.074552286068236 2.675588   5127.529900000001
5129.1999  12.24749   61.31145   115.2267   38.10498   -0.3417239 -0.3884075 -0.3415676 -0.1108949 6          4.05166    38.10498   7.614292   8.564651   10.09928473764876 2.672509   5127.729899999999
5129.3999  12.24252   59.14166   112.0824   35.18892   -0.3339821 -0.3766849 -0.3224122 -0.06128155 6          3.301527   35.18892   10.28709   11.29316   13.0045689617098 2.669855   5127.9299 
5129.5999  12.28389   57.75749   109.1416   30.87522   -0.3525177 -0.4089701 -0.3809229 -0.183127  6          3.761124   30.87522   15.45657   18.04281   19.89993674107548 2.667701   5128.1299 
5129.7999  12.246     59.55792   110.2723   25.35816   -0.3609921 -0.4291633 -0.4258572 -0.305944  6          5.482187   25.35816   14.87199   16.37553   18.32444270021683 2.66914    5128.3299 
5129.999900000001 12.21964   62.92852   116.5372   24.24712   -0.3350281 -0.3938603 -0.3763191 -0.236414  6          6.547801   24.24712   11.03943   12.03986   13.2012183542721 2.667643   5128.529900000001
5130.1999  12.21585   64.89468   122.0618   28.03448   -0.3045387 -0.3436103 -0.2885046 -0.03870412 6          7.056363   28.03448   9.501879   10.2181    10.74378635490039 2.667467   5128.729899999999
5130.3999  12.24208   63.9123    122.6647   33.18099   -0.3180208 -0.3606198 -0.3087417 -0.04218138 6          5.582269   33.18099   7.949733   8.444656   9.094277787531587 2.668182   5128.9299 
5130.5999  12.33989   62.59736   121.1611   40.36854   -0.3328044 -0.3838199 -0.3458468 -0.1031823 6          5.39444    40.36854   7.389692   7.913008   9.228170118351819 2.66682    5129.129900000001
5130.7999  12.27871   65.68002   126.7124   42.84292   -0.3397135 -0.3965512 -0.3696558 -0.1543252 6          9.2413     42.84292   7.653374   8.230927   9.161930404273756 2.663356   5129.329900000001
5130.999900000001 12.2455    68.91718   132.5787   44.69954   -0.3595442 -0.4317889 -0.4359956 -0.3154717 6          10.08224   44.69954   5.871527   6.194741   6.556786168019497 2.658894   5129.529900000001
5131.1999  12.24884   66.94838   127.5397   46.69476   -0.34353   -0.4135209 -0.4181046 -0.3259927 6          6.302029   46.69476   5.217329   5.3816     5.662395698271061 2.656158   5129.7299 
5131.3999  12.23638   61.73292   116.2322   40.09472   -0.3412775 -0.4133641 -0.4257448 -0.3775488 6          4.110238   40.09472   7.365924   7.928307   8.574080196712394 2.661115   5129.9299 
