~Version
 VERS              .         2.0                           : CWLS LOG ASCII STANDARD - VERSION 2.0
 WRAP              .         NO                            : ONE LINE PER DEPTH STEP
 DLM               .         SPACE                         : DELIMITING CHARACTER(SPACE TAB OR COMMA)
~Well Information
#_______________________________________________________________________________
#
#PARAMETER_NAME    .UNIT     VALUE                         : DESCRIPTION
#_______________________________________________________________________________
STRT               .m        2062.5046                     : First reference value
STOP               .m        6413.5046                     : Last reference value
STEP               .m        0.2                           : Step increment
NULL               .         -9999                         : Missing value
COMP               .         PETROLEO BRASILEIRO S/A       : Company
WELL               .         1-ESS-120_resample            : Well name
FLD                .                                       : Field
LOC                .                                       : Location
CNTY               .                                       : County
STAT               .         ESPIRITO SANTO                : State
CTRY               .                                       : Country
SRVC               .                                       : Service Company
DATE               .                                       : Date
API                .         342710278300                  : API number
EDF                .M        25.00                         : Elevation Derrick Floor
ELEV               .M        25.0000                       : Surface Elev
ELEV_TYPE          .         KB                            : Elev Type
GDAT               .         SIRGAS2000                    : Geodetic Datum
HZCS               .         UTM                           : Horizontal Coordinate System
LAT                .         -20.620145                    : Latitude
LMF                .         MR                            : Log Measure From
LON                .         -39.512655                    : Longitude
LATI               .         -20_37_15.239                 : Latitude
LONG               .         -39_30_38.085                 : Longitude
MC                 .         39 W                          : Meridiano Central
ORIG               .         SIGEO EXPORTACAO PERFIL       : Origem dos dados
ORIGINALWELLNAME   .         1ESS 0120  ES                 : 
WDMS               .M        2003.00                       : Water Depth to Mean Sea Level
X                  .         446729.00                     : Surface X
XCOORD             .         446584.000000                 : Surface X
Y                  .         7719623.00                    : Surface Y
YCOORD             .         7719778.000000                : Surface Y
~Parameter Information Block
#_______________________________________________________________________________
#
#PARAMETER_NAME    .UNIT     VALUE                         : DESCRIPTION
#_______________________________________________________________________________
SET                .         ESS120_resample               : 
TLFamily_CALI      .         Caliper                       : 
TLFamily_DEPT      .         Measured Depth                : 
TLFamily_DTCO      .         Compressional Slowness        : 
TLFamily_GR        .         Gamma Ray                     : 
TLFamily_INPEFA_1  .                                       : 
TLFamily_INPEFA_2  .                                       : 
TLFamily_INPEFA_3  .                                       : 
TLFamily_INPEFA_4  .                                       : 
TLFamily_LITO      .                                       : 
TLFamily_LLD       .         Deep Resistivity              : 
TLFamily_NPHI      .         Neutron Porosity              : 
TLFamily_OG        .                                       : 
TLFamily_RHOB_merge .         Bulk Density                  : 
~Curve Information
#_______________________________________________________________________________
#
#LOGNAME           .UNIT     LOG_ID                        : DESCRIPTION
#_______________________________________________________________________________
DEPT               .m                                      :  
CALI               .in                                     : CALIPER 
DTCO               .us/ft                                  : DELTA-T COMPRESSIONAL 
GR                 .gAPI                                   : GAMMA RAY 
INPEFA_1           .                                       :  
INPEFA_2           .                                       :  
INPEFA_3           .                                       :  
INPEFA_4           .                                       :  
LITO               .                                       :  
LLD                .ohm.m                                  : LATEROLOG DEEP RESISTIVITY 
NPHI               .%                                      : THERMAL NEUTRON POROSITY (ORIGINAL RATIO METHOD) IN SELECTED LITHOLOGY 
OG                 .                                       :  
RHOB_merge         .g/cm3                                  :  
~Ascii
# ...
3838.3046  -9999      102.2264   97.83251   0.05525912 0.0360843  0.06287507 -0.03210009 57         -9999      35.57866   97.83251   2.436206  
3838.5046  -9999      102.4355   97.73988   0.05609783 0.03870976 0.06917414 -0.01101195 57         -9999      32.5954    97.73988   2.446542  
3838.7046  -9999      102.3371   104.0727   0.05284823 0.02969353 0.05670165 -0.01815582 57         -9999      30.76806   104.0727   2.415887  
3838.9046  -9999      102.1324   111.2614   0.05506786 0.0335502  0.06208074 -0.004519869 57         -9999      32.69016   111.2614   2.406285  
3839.104600000001 -9999      101.9773   110.5323   0.05430815 0.0312941  0.06015679 0.003213393 57         -9999      31.18138   110.5323   2.438456  
3839.3046  -9999      102.0364   102.7544   0.05232427 0.0256701  0.05341864 0.004592329 57         -9999      29.90113   102.7544   2.448995  
3839.5046  -9999      102.0317   101.4342   0.04672687 0.009335983 0.02776325 -0.02746354 57         -9999      33.71506   101.4342   2.437739  
3839.7046  -9999      102.3963   99.73635   0.05893445 0.03886518 0.07204074 0.03903862 57         -9999      35.24002   99.73635   2.424598  
3839.9046  -9999      103.1494   98.22281   0.04990977 0.01702659 0.04279926 0.01292123 57         -9999      33.64404   98.22281   2.452896  
3840.104600000001 -9999      104.1229   101.8003   0.05667664 0.03231315 0.06564193 0.05164395 57         -9999      31.81062   101.8003   2.437743  
3840.3046  -9999      104.507    111.9857   0.04893832 0.01243054 0.0377805  0.02405751 57         -9999      32.05023   111.9857   2.432959  
3840.5046  -9999      104.1945   110.3291   0.05893029 0.03593284 0.07293498 0.07929388 57         -9999      33.69555   110.3291   2.424043  
3840.7046  -9999      103.3334   103.9731   0.06165176 0.04594742 0.09519651 0.1347499  57         -9999      36.75082   103.9731   2.435252  
3840.9046  -9999      102.2193   105.0277   0.04587863 0.007132655 0.0419566  0.08405714 57         -9999      37.38572   105.0277   2.426339  
3841.104600000001 -9999      101.7949   108.7326   0.03485925 -0.02561866 -0.01107335 0.01210356 57         -9999      36.15373   108.7326   2.417114  
3841.3046  -9999      102.2236   105.7476   0.03483739 -0.02930117 -0.02024496 -0.001919888 57         -9999      36.05785   105.7476   2.415605  
3841.5046  -9999      102.5503   101.3753   0.03879718 -0.02218917 -0.011548  0.01254934 57         -9999      36.42641   101.3753   2.431233  
3841.7046  -9999      102.6327   102.11     0.0273979  -0.05231248 -0.05701344 -0.04554092 57         -9999      32.11398   102.11     2.435028  
3841.9046  -9999      102.4815   104.4455   0.02466252 -0.06585763 -0.08528236 -0.09850224 57         -9999      31.07125   104.4455   2.411389  
3842.104600000001 -9999      102.0822   105.5269   0.0301434  -0.0554272 -0.07460798 -0.0944474 57         -9999      32.24968   105.5269   2.445046  
3842.3046  -9999      101.7906   106.1409   0.0235726  -0.07508796 -0.1081402 -0.1490827 57         -9999      31.17378   106.1409   2.450986  
3842.5046  -9999      101.795    108.1569   0.02982768 -0.06458547 -0.1000391 -0.1545799 57         -9999      31.49657   108.1569   2.446663  
3842.7046  -9999      101.6596   105.1149   0.02898519 -0.06868636 -0.1089671 -0.1739793 57         -9999      31.32532   105.1149   2.421953  
3842.9046  -9999      101.3572   104.0638   0.01816657 -0.101042  -0.1646272 -0.269107  57         -9999      29.3014    104.0638   2.423736  
3843.104600000001 -9999      101.2665   103.7654   0.02949915 -0.07831428 -0.1400083 -0.2616801 57         -9999      28.5645    103.7654   2.408485  
3843.3046  -9999      101.5555   105.9594   0.0405744  -0.0513536 -0.1019179 -0.2190042 57         -9999      28.1728    105.9594   2.404983  
3843.5046  -9999      102.0708   104.8808   0.04039936 -0.05239539 -0.1040394 -0.2263415 57         -9999      26.92879   104.8808   2.426626  
3843.7046  -9999      102.4437   101.952    0.03856476 -0.05822128 -0.1145884 -0.2477429 57         -9999      29.94451   101.952    2.438581  
3843.9046  -9999      102.3739   106.913    0.03678761 -0.06701662 -0.1335874 -0.2893203 57         -9999      34.4036    106.913    2.407696  
3844.104600000001 -9999      102.6596   117.5352   0.0434372  -0.05256306 -0.1156241 -0.2774173 57         -9999      36.13916   117.5352   2.43901   
3844.3046  -9999      103.2151   121.7156   0.04702803 -0.04440296 -0.1042669 -0.2677137 57         -9999      36.00791   121.7156   2.451453  
3844.5046  -9999      103.7298   115.9975   0.05709557 -0.01908517 -0.06583693 -0.2161048 57         -9999      34.10246   115.9975   2.401694  
3844.7046  -9999      104.0138   113.3553   0.05361172 -0.0257424 -0.07142292 -0.2143853 57         -9999      33.81099   113.3553   2.413702  
3844.9046  -9999      103.9439   114.8657   0.04291674 -0.05459904 -0.1154149 -0.2767016 57         -9999      35.54122   114.8657   2.442683  
3845.104600000001 -9999      103.7441   112.9416   0.04437238 -0.05413123 -0.1185246 -0.2923043 57         -9999      36.63031   112.9416   2.427631  
3845.3046  -9999      103.9158   110.9173   0.04529803 -0.05382357 -0.1204647 -0.3040716 57         -9999      34.17342   110.9173   2.406389  
3845.5046  -9999      104.2895   108.5468   0.04713586 -0.05238235 -0.1223805 -0.3198765 57         -9999      31.70731   108.5468   2.429495  
3845.7046  -9999      104.4744   106.8322   0.04907227 -0.04914301 -0.1196395 -0.3264391 57         -9999      35.81537   106.8322   2.425174  
3845.9046  -9999      104.14     109.8407   0.06025891 -0.02240938 -0.08105738 -0.2807542 57         -9999      35.76767   109.8407   2.426977  
3846.104600000001 -9999      103.3679   108.5321   0.0634935  -0.01308338 -0.06407089 -0.2540043 57         -9999      31.62408   108.5321   2.417619  
3846.3046  -9999      102.3803   100.3405   0.07153513 0.007932609 -0.02947833 -0.200777  57         -9999      31.88869   100.3405   2.427071  
3846.5046  -9999      101.0634   95.99751   0.06910602 0.005689477 -0.02482679 -0.1763977 57         -9999      29.38266   95.99751   2.437287  
3846.7046  -9999      99.72182   99.75135   0.0637082  -0.009350336 -0.04591268 -0.2005515 57         -9999      29.63436   99.75135   2.425914  
3846.9046  -9999      99.23346   104.6208   0.06596213 -0.003431375 -0.03460897 -0.1798494 57         -9999      30.71087   104.6208   2.414245  
3847.104600000001 -9999      98.88258   104.1755   0.06082432 -0.01708013 -0.05304634 -0.2002367 57         -9999      33.37405   104.1755   2.423363  
3847.3046  -9999      99.11644   100.8796   0.07048923 0.006668297 -0.01581754 -0.1453096 57         -9999      33.95395   100.8796   2.436467  
3847.5046  -9999      100.4905   96.36289   0.07135369 0.01185183 -0.000694588 -0.1062133 57         -9999      33.17656   96.36289   2.459692  
3847.7046  -9999      101.7599   96.33527   0.06375805 -0.006942135 -0.02440247 -0.1243039 57         -9999      29.68503   96.33527   2.437693  
3847.9046  -9999      103.2468   103.5388   0.06037271 -0.01680925 -0.03734151 -0.1344009 57         -9999      25.70339   103.5388   2.4263    
3848.104600000001 -9999      104.0467   109.1745   0.06061473 -0.01586963 -0.03177115 -0.1146597 57         -9999      26.14077   109.1745   2.437315  
3848.3046  -9999      103.8371   108.4665   0.03358436 -0.08693127 -0.1389511 -0.2634943 57         -9999      30.20473   108.4665   2.446148  
3848.5046  -9999      103.422    104.5904   0.06341472 -0.01959715 -0.04705384 -0.1595785 57         -9999      34.2041    104.5904   2.444785  
3848.7046  -9999      102.989    101.5604   0.06438027 -0.01043479 -0.02161531 -0.1014881 57         -9999      37.29975   101.5604   2.447894  
3848.9046  -9999      102.909    96.3866    0.04909758 -0.0502196 -0.0784869 -0.1725063 57         -9999      34.41035   96.3866    2.413341  
3849.104600000001 -9999      103.1436   92.00961   0.05216825 -0.04711727 -0.07756769 -0.183477  57         -9999      33.39313   92.00961   2.415261  
