~Version
 VERS              .         2.0                           : CWLS LOG ASCII STANDARD - VERSION 2.0
 WRAP              .         NO                            : ONE LINE PER DEPTH STEP
 DLM               .         SPACE                         : DELIMITING CHARACTER(SPACE TAB OR COMMA)
~Well Information
#_______________________________________________________________________________
#
#PARAMETER_NAME    .UNIT     VALUE                         : DESCRIPTION
#_______________________________________________________________________________
STRT               .m        1880.5999                     : First reference value
STOP               .m        5405.7999                     : Last reference value
STEP               .m        0.2                           : Step increment
NULL               .         -9999                         : Missing value
COMP               .         PETROLEO BRASILEIRO S/A       : Company
WELL               .         1-ESS-86A_resample            : Well name
FLD                .                                       : Field
LOC                .                                       : Location
CNTY               .                                       : County
STAT               .         ESPIRITO SANTO                : State
CTRY               .                                       : Country
SRVC               .                                       : Service Company
DATE               .                                       : Date
API                .         342710051600                  : API number
EDF                .M        14.00                         : Elevation Derrick Floor
GDAT               .         SIRGAS2000                    : Geodetic Datum
HZCS               .         UTM                           : Horizontal Coordinate System
LMF                .         MR                            : Log Measure From
LATI               .         -20_24_56.411                 : Latitude
LONG               .         -39_29_19.989                 : Longitude
MC                 .         39 W                          : Meridiano Central
ORIG               .         SIGEO EXPORTACAO PERFIL       : Origem dos dados
ORIGINALWELLNAME   .         1ESS 0086A ES                 : 
WDMS               .M        1841.00                       : Water Depth to Mean Sea Level
X                  .         448953.89                     : Surface X
Y                  .         7742410.09                    : Surface Y
~Parameter Information Block
#_______________________________________________________________________________
#
#PARAMETER_NAME    .UNIT     VALUE                         : DESCRIPTION
#_______________________________________________________________________________
SET                .         ESS86A_resample               : 
TLFamily_CALI      .         Caliper                       : 
TLFamily_DEPT      .         Measured Depth                : 
TLFamily_DT        .         Compressional Slowness        : 
TLFamily_GR        .         Gamma Ray                     : 
TLFamily_HDRS      .         Deep Resistivity              : 
TLFamily_INPEFA_1  .                                       : 
TLFamily_INPEFA_2  .                                       : 
TLFamily_INPEFA_3  .                                       : 
TLFamily_INPEFA_4  .                                       : 
TLFamily_LITO      .                                       : 
TLFamily_NPHI      .         Neutron Porosity              : 
TLFamily_RHOB      .         Bulk Density                  : 
~Curve Information
#_______________________________________________________________________________
#
#LOGNAME           .UNIT     LOG_ID                        : DESCRIPTION
#_______________________________________________________________________________
DEPT               .m                                      :  
CALI               .in                                     : CALIPER 1 CYLINDERDIAMETER 
DT                 .us/ft                                  : DELTA-T (ALSO CALLED SLOWNESS OR INTERVAL TRANSIT TIME) 
GR                 .gAPI                                   : GAMMA RAY 
HDRS               .ohm.m                                  : INDUCTION DEEP RESISTIVITY 
INPEFA_1           .                                       :  
INPEFA_2           .                                       :  
INPEFA_3           .                                       :  
INPEFA_4           .                                       :  
LITO               .                                       :  
NPHI               .%                                      : THERMAL NEUTRON POROSITY (ORIGINAL RATIO METHOD) IN SELECTED LITHOLOGY 
RHOB               .g/cm3                                  : BULK DENSITY 
~Ascii
# ...
5141.7999  8.6602     66.1797    67.6326    4.3846     -0.2679023 -0.0586818 -0.1176117 -0.1527268 6          11.1411    2.5805    
5141.9999  8.6602     69.9743    67.0041    4.052500000000001 -0.2713323 -0.06962911 -0.1359655 -0.1790499 6          11.7169    2.597     
5142.199900000001 8.6596     69.6797    65.7349    4.383000000006494 -0.2722349 -0.07774634 -0.1528469 -0.2128277 6          8.9648     2.6119    
5142.3999  8.6596     64.9828    68.3185    6.607900000000001 -0.2691881 -0.07839617 -0.1580742 -0.2290505 6          6.7856     2.6226    
5142.5999  8.6619     62.5591    70.3912    6.9918     -0.2588086 -0.06214197 -0.1315419 -0.1763904 6          7.8957     2.6196    
5142.7999  8.6636     63.2094    70.2553    6.569099999999999 -0.2669151 -0.08365718 -0.1684663 -0.2380684 6          9.4101     2.6199    
5142.9999  8.6653     62.4057    69.892     5.862899999999999 -0.2636834 -0.08293385 -0.169197  -0.2385731 6          10.6515    2.6111    
5143.199900000001 8.6653     66.1375    70.9329    5.439800000000832 -0.271859  -0.1063082 -0.2123628 -0.3255856 6          12.3541    2.6206    
5143.3999  8.6647     67.026     73.6383    5.838599999999999 -0.2707518 -0.1101923 -0.2222035 -0.3537009 6          12.5056    2.6248    
5143.5999  8.6636     67.0115    76.9543    5.7585     -0.2653439 -0.1061808 -0.2200736 -0.3662186 6          12.3622    2.6251    
5143.7999  8.6602     69.0406    77.7111    5.779499999999999 -0.2608854 -0.1040433 -0.221571  -0.3911188 6          13.0766    2.6321    
5143.9999  8.6557     70.8478    79.6664    5.6205     -0.2422672 -0.06851424 -0.1599143 -0.281107  6          11.7896    2.6401    
5144.199900000001 8.6319     68.4547    77.9718    6.012900000004774 -0.2377656 -0.0621971 -0.1474881 -0.2594918 6          8.9365     2.6401    
5144.3999  8.5819     61.2845    72.5085    7.783099999999999 -0.225128  -0.04047273 -0.1108466 -0.2009723 6          5.7995     2.6472    
5144.5999  8.5491     57.3922    66.3003    10.1625    -0.1963664 0.01918708 -0.002424972 0.01298133 6          5.8587     2.6507    
5144.7999  8.5451     58.3016    60.6749    7.7722     -0.1942642 0.03020197 0.0339907  0.13277    6          8.9279     2.6506    
5144.9999  8.5446     62.6968    61.1184    7.3295     -0.2243624 -0.03016186 -0.05757153 -0.0000647 6          8.3535     2.6492    
5145.199900000001 8.5446     71.0672    63.5078    9.625100000006038 -0.2257584 -0.03766866 -0.06930914 -0.01928844 6          6.6886     2.6495    
5145.3999  8.5457     64.4798    65.1464    9.6084     -0.2337259 -0.05445691 -0.09103837 -0.04213612 6          6.5165     2.6545    
5145.5999  8.548      56.7939    64.0659    7.750999999999999 -0.2379255 -0.06711014 -0.1104408 -0.07389121 6          7.3528     2.6514    
5145.7999  8.5491     64.0453    64.5355    6.6094     -0.2446324 -0.0858743 -0.1425253 -0.1405295 6          8.5767     2.6451    
5145.9999  8.5485     64.7368    64.5146    7.1675     -0.2331372 -0.0637883 -0.1002935 -0.05656857 6          8.8769     2.6358    
5146.199900000001 8.5474     61.8406    67.0609    7.889200000001161 -0.2375226 -0.07444245 -0.1127297 -0.06739903 6          8.0624     2.6469    
5146.3999  8.5485     61.3939    68.0048    7.3601     -0.2360557 -0.07531264 -0.1117592 -0.06314012 6          7.043      2.6575    
5146.5999  8.5536     65.8498    66.288     8.5777     -0.2477504 -0.09964528 -0.1458993 -0.1120968 6          5.9825     2.6613    
5146.7999  8.5565     61.8234    63.4643    9.1311     -0.2592998 -0.1276055 -0.1917725 -0.2003266 6          5.5947     2.6507    
5146.9999  8.5559     58.632     57.9184    8.923299999999999 -0.2737488 -0.1659503 -0.2627032 -0.3628554 6          5.1581     2.6572    
5147.199900000001 8.5536     62.5047    54.8942    9.557999999999147 -0.2653608 -0.1581923 -0.2580878 -0.4033358 6          4.9294     2.6698    
5147.3999  8.5548     62.0853    51.914     8.8536     -0.2454347 -0.1205502 -0.1936145 -0.3087421 6          5.6549     2.6769    
5147.5999  8.5633     59.8692    47.3519    7.711400000000001 -0.2436077 -0.1201796 -0.191628  -0.3257078 6          6.3024     2.6726    
5147.7999  8.5746     63.2062    47.6487    7.028999999999999 -0.2446261 -0.1276036 -0.2064856 -0.3898156 6          7.6913     2.6668    
5147.9999  8.5927     65.3419    56.0533    7.690100000000001 -0.2296215 -0.1019716 -0.166014  -0.361609  6          9.9495     2.667     
5148.199900000001 8.6222     58.9625    64.6631    9.226900000007911 -0.2047768 -0.05187854 -0.0775083 -0.2271518 6          9.6547     2.667     
5148.3999  8.6443     58.2162    72.411     8.332700000000001 -0.1857913 -0.01133362 -0.000686525 -0.09886169 6          9.7743     2.6569    
5148.5999  8.6534     65.0758    72.395     6.3965     -0.1924782 -0.02447874 -0.01684146 -0.1511092 6          9.7632     2.6477    
5148.7999  8.6585     65.9156    70.3013    7.0982     -0.1655835 0.03065852 0.08174769 0.002118731 6          9.5821     2.6475    
5148.9999  8.6642     65.7742    66.4725    8.7181     -0.1452953 0.07805735 0.1768435  0.1810956  6          9.2815     2.6561    
5149.199900000001 8.6732     60.5406    64.0518    7.965399999993813 -0.1421619 0.09184523 0.2186025  0.2780901  6          8.3442     2.6654    
5149.3999  8.6863     59.893     61.7442    6.965      -0.1403229 0.1040659  0.2599929  0.3849964  6          7.5746     2.671     
5149.5999  8.6931     64.2084    64.0834    8.2385     -0.1582164 0.0717736  0.2201896  0.3260859  6          7.0356     2.6694    
5149.7999  8.6942     59.325     68.0045    9.004099999999999 -0.144597  0.1048716  0.2926622  0.4796907  6          7.8058     2.6725    
5149.9999  8.6942     61.1202    71.808     7.4949     -0.1431762 0.1183395  0.340982   0.6227801  6          9.4205     2.673     
5150.199900000001 8.6931     62.5031    69.9205    8.727400000001023 -0.169443  0.07147972 0.2827622  0.5624224  6          9.6832     2.6737    
5150.3999  8.6902     56.6019    62.3595    8.6372     -0.2004825 0.01023193 0.1925676  0.417926   6          10.2857    2.6706    
5150.5999  8.6897     61.3019    55.8835    11.0417    -0.2142347 -0.01595169 0.1604251  0.3729941  6          9.0091     2.6695    
5150.7999  8.6902     64.6984    53.2186    12.3884    -0.2242046 -0.04005189 0.12308    0.2899791  6          6.7526     2.6756    
5150.9999  8.6885     56.8919    52.1565    11.8102    -0.2143506 -0.02017188 0.1646029  0.3629876  6          5.9235     2.7095    
5151.199900000001 8.688      55.6359    48.4984    10.55189999999221 -0.2241309 -0.03748674 0.1479588  0.3452956  6          5.3661     2.7024    
5151.3999  8.6863     61.8775    42.9203    9.914300000000001 -0.2424514 -0.07630955 0.08909731 0.2332817  6          5.2333     2.6888    
5151.5999  8.6857     62.3938    43.1487    10.0212    -0.2486258 -0.09566644 0.05425746 0.1342195  6          4.8302     2.6569    
5151.7999  8.6874     58.8859    42.1935    9.070600000000001 -0.2353346 -0.07113712 0.09928778 0.1964219  6          4.9857     2.6566    
5151.9999  8.6908     60.3781    41.9987    13.8092    -0.2318739 -0.06306587 0.1230633  0.2441596  6          5.3755     2.6598    
5152.199900000001 8.6936     56.8063    42.4863    16.74199999998669 -0.2431016 -0.08930358 0.08284549 0.1580563  6          4.0204     2.6665    
5152.3999  8.6942     52.2602    45.4084    12.9363    -0.2401654 -0.08576541 0.09330943 0.1621203  6          5.2961     2.6616    
5152.5999  8.6903     55.3429    54.8024    10.0647    -0.2352462 -0.07565484 0.1188675  0.2060574  6          7.5614     2.6559    
5152.7999  8.6557     57.3609    58.4572    9.273799999999998 -0.2381174 -0.08258642 0.1144128  0.1930278  6          5.894      2.6515    
5152.9999  8.607      60.7724    60.3461    9.8422     -0.2345217 -0.07587102 0.1333773  0.2232522  6          5.5325     2.6523    
5153.199900000001 8.5752     63.7875    64.5034    9.964200000003464 -0.2271511 -0.05837627 0.1754007  0.3119555  6          6.8181     2.6573    
5153.3999  8.5445     58.7698    72.4789    11.4046    -0.2428148 -0.09050041 0.1303194  0.2335411  6          8.2445     2.6634    
