~Version
 VERS              .         2.0                           : CWLS LOG ASCII STANDARD - VERSION 2.0
 WRAP              .         NO                            : ONE LINE PER DEPTH STEP
 DLM               .         SPACE                         : DELIMITING CHARACTER(SPACE TAB OR COMMA)
~Well Information
#_______________________________________________________________________________
#
#PARAMETER_NAME    .UNIT     VALUE                         : DESCRIPTION
#_______________________________________________________________________________
STRT               .m        2119.8892                     : First reference value
STOP               .m        5043.2892                     : Last reference value
STEP               .m        0.2                           : Step increment
NULL               .         -9999                         : Missing value
COMP               .         PETROLEO BRASILEIRO S/A       : Company
WELL               .         1ESS 0094  ES                 : Well name
FLD                .                                       : Field
LOC                .                                       : Location
CNTY               .                                       : County
STAT               .         ESPIRITO SANTO                : State
CTRY               .                                       : Country
SRVC               .                                       : Service Company
DATE               .                                       : Date
API                .         342710052700                  : API number
EDF                .M        25.00                         : Elevation Derrick Floor
GDAT               .         SIRGAS2000                    : Geodetic Datum
HZCS               .         UTM                           : Horizontal Coordinate System
LAT                .         -20.952076                    : Latitude
LONG               .         -39.451195                    : Longitude
MC                 .         39 W                          : Meridiano Central
ORIG               .         SIGEO EXPORTACAO PERFIL       : Origem dos dados
WDMS               .M        2081.00                       : Water Depth to Mean Sea Level
XCOORD             .         453092.70                     : Surface X
YCOORD             .         7683090.10                    : Surface Y
~Parameter Information Block
#_______________________________________________________________________________
#
#PARAMETER_NAME    .UNIT     VALUE                         : DESCRIPTION
#_______________________________________________________________________________
SET                .         ESS94_resample                : 
TLFamily_CALI      .         Caliper                       : 
TLFamily_DEPT      .         Measured Depth                : 
TLFamily_DT        .         Compressional Slowness        : 
TLFamily_DTS       .         Shear Slowness                : 
TLFamily_GR        .         Gamma Ray                     : 
TLFamily_INPEFA_1  .                                       : 
TLFamily_INPEFA_2  .                                       : 
TLFamily_INPEFA_3  .                                       : 
TLFamily_INPEFA_4  .                                       : 
TLFamily_LITO      .                                       : 
TLFamily_NPHI      .         Neutron Porosity              : 
TLFamily_OG        .                                       : 
TLFamily_RESD      .         Deep Resistivity              : 
TLFamily_RESM      .         Medium Resistivity            : 
TLFamily_RESS      .         Shallow Resistivity           : 
TLFamily_RHOB      .         Bulk Density                  : 
TLFamily_SP        .         Spontaneous Potential         : 
TLFamily_TVD       .         True Vertical Depth           : 
~Curve Information
#_______________________________________________________________________________
#
#LOGNAME           .UNIT     LOG_ID                        : DESCRIPTION
#_______________________________________________________________________________
DEPT               .m                                      :  
CALI               .in                                     :  
DT                 .us/ft                                  :  
DTS                .us/ft                                  :  
GR                 .Sem                                    : GAMMA RAY 
INPEFA_1           .                                       :  
INPEFA_2           .                                       :  
INPEFA_3           .                                       :  
INPEFA_4           .                                       :  
LITO               .Sem                                    : Não definido 
NPHI               .Sem                                    : THERMAL NEUTRON POROSITY (ORIGINAL RATIO METHOD) IN SELECTED LITHOLOGY 
OG                 .                                       :  
RESD               .ohm.m                                  :  
RESM               .ohm.m                                  :  
RESS               .ohm.m                                  :  
RHOB               .g/cm3                                  :  
SP                 .mV                                     : SPONTANEOUS POTENTIAL 
TVD                .m                                      : Vertical Depth 
~Ascii
# ...
4092.8892  8.352066   96.12873   392.2342   130.8653   0.482432   0.08345584 0.2113923  0.0500751  57         28.7730390643839 130.8653   0.657189   0.7335825  0.6306127  2.439009   -97.44610498687631 4092.6363 
4093.0892  8.35861    96.3299    358.3123   123.3727   0.4856421  0.08981548 0.2275226  0.1160109  57         30.08116226997391 123.3727   0.6468001  0.7182481  0.6201121  2.434292   -96.91857559055026 4092.8363 
4093.2892  8.35745    97.80146   283.2164   118.5682   0.4447621  0.02453792 0.08452447 -0.1725447 57         30.3292171748603 118.5682   0.630699   0.6935505  0.6039405  2.436157   -97.34957086614233 4093.0363 
4093.4892  8.350675   98.30856   190.5071   118.1658   0.490367   0.0905088  0.210751   0.03179175 57         30.33713631617435 118.1658   0.6118113  0.6700566  0.5923656  2.430455   -97.5612939632546 4093.2363 
4093.6892  8.357041   98.18844   190.5071   119.0359   0.5224034  0.147392   0.3431812  0.3353682  57         29.31296568842876 119.0359   0.6056826  0.6680368  0.5977421  2.422027   -98.34513307087028 4093.4363 
4093.8892  8.356256   98.31367   190.2136   119.5957   0.5071382  0.1296441  0.3178943  0.3319525  57         28.53836619760021 119.5957   0.6160215  0.6887644  0.613726   2.423231   -100.3812149606319 4093.6363 
4094.0892  8.349687   98.49028   188.5449   123.9742   0.5200598  0.1601397  0.4033201  0.5818272  57         27.68485114830919 123.9742   0.6152737  0.6972893  0.616004   2.433484   -99.76904146981057 4093.8363 
4094.2892  8.35497    98.36158   188.3666   129.872    0.4953853  0.1287187  0.3527504  0.5610562  57         28.06298614361795 129.872    0.5939597  0.6765906  0.5979922  2.432651   -97.75029999999987 4094.0363 
4094.4892  8.350756   98.71188   183.6711   128.2085   0.4611766  0.07806285 0.2506667  0.3966241  57         29.42772973428525 128.2085   0.5775704  0.6590619  0.581274   2.418885   -96.46724173228382 4094.2363 
4094.6892  8.348204   98.555     226.7325   119.4805   0.4861869  0.1169116  0.3316046  0.5747836  57         28.77921850349574 119.4805   0.5687847  0.643963   0.5723994  2.413927   -98.12129527559004 4094.4363 
4094.8892  8.350361   98.16543   405.1824   114.1729   0.4739741  0.1047712  0.3186716  0.6196116  57         28.40304994958609 114.1729   0.5688372  0.6407868  0.5764909  2.42072    -97.32402178477541 4094.6363 
4095.0892  8.350729   97.82338   403.7654   114.8863   0.4381268  0.04936014 0.2011977  0.4115256  57         28.59607783640501 114.8863   0.596944   0.6742253  0.6034565  2.42483    -95.09894566928534 4094.8363 
4095.2892  8.353906   97.63945   394.2848   121.0695   0.449037   0.06640485 0.2341537  0.4861398  57         29.13846723801955 121.0695   0.633629   0.7246863  0.6349085  2.426331   -93.31864330708366 4095.0363 
4095.4892  8.347933   97.24618   393.7191   128.7439   0.439929   0.05549315 0.2145249  0.4831872  57         29.99612843771291 128.7439   0.6279389  0.7275779  0.6319078  2.425298   -94.21965958004938 4095.236274540682
4095.6892  8.352545   97.33855   392.1741   135.7259   0.4229448  0.03057223 0.1616032  0.4063661  57         29.80006515322648 135.7259   0.6162938  0.7196977  0.6281556  2.416535   -97.83033779527878 4095.4362 
4095.8892  8.351671   96.08514   385.9098   138.7225   0.3886552  -0.0266999 0.02750281 0.1154466  57         29.09627701166085 138.7225   0.6091416  0.7193671  0.6344212  2.411529   -101.5343102362217 4095.6362 
4096.0892  8.352427   95.15474   394.0328   136.5995   0.3841735  -0.03980805 -0.02121427 -0.04462657 57         28.97800667830335 136.5995   0.6067723  0.7225738  0.6391209  2.421041   -105.0746847769028 4095.8362 
4096.2892  8.352456   95.76463   394.0328   139.662    0.4258288  0.01903105 0.0831174  0.09782838 57         28.72572741170642 139.662    0.6081044  0.7252015  0.6404463  2.42791    -103.9084433070893 4096.0362 
4096.4892  8.355975   95.85388   394.0328   132.1357   0.4290224  0.02668774 0.09704347 0.1166777  57         28.39109812258414 132.1357   0.6096793  0.7226235  0.6343621  2.428284   -100.8478535433107 4096.236199999999
4096.689200000001 8.352614   95.93678   386.6274   118.7692   0.4362251  0.03917589 0.1198651  0.1501294  57         28.38808303993208 118.7692   0.6169924  0.7163     0.6319939  2.42957    -97.84513595799969 4096.4362 
4096.8892  8.352308   96.14342   369.36     115.7506   0.444905   0.05688199 0.1598108  0.2404191  57         28.34151083277943 115.7506   0.6321578  0.7176213  0.6547118  2.431841   -96.1009070866169 4096.6362 
4097.0892  8.346972   95.67824   369.36     118.3874   0.4385453  0.05206561 0.1549154  0.2603917  57         28.25821319840395 118.3874   0.6304988  0.7037269  0.685908   2.429312   -94.21099002624271 4096.836200000001
4097.2892  8.342725   94.94298   378.2228   125.8513   0.4266601  0.0358231  0.1205482  0.2082305  57         28.40218637621698 125.8513   0.6030913  0.6714453  0.6698882  2.423021   -92.81555590551254 4097.036200000001
4097.4892  8.338649   95.4155    404.8751   136.7106   0.4076149  0.007044216 0.05548496 0.07796314 57         29.0984610610125 136.7106   0.5765582  0.6471658  0.6291676  2.414726   -93.536815748032 4097.2362 
4097.689200000001 8.321143   95.6838    404.8751   136.0745   0.4345288  0.04908628 0.1391051  0.2445415  57         29.88401842993773 136.0745   0.6243534  0.7281253  0.6894695  2.411817   -95.66445748032984 4097.436200000001
4097.8892  8.267344   94.55989   377.2219   134.1451   0.4211982  0.03208782 0.1058238  0.2146772  57         29.06027524052621 134.1451   0.7322423  0.9822969  1.014104   2.423403   -99.87785380577314 4097.6362 
4098.0892  8.210451   93.57774   211.0705   139.9572   0.432138   0.05202824 0.1502514  0.3418941  57         17.4745318194659 139.9572   0.7774318  1.323077   1.518449   2.481928   -101.7367409448838 4097.836168503937
4098.2892  8.229926   84.29416   143.6346   141.5635   0.4140007  0.02935266 0.1102051  0.3273821  57         10.14377999492169 141.5635   0.7399697  1.326993   1.451823   2.547108   -100.5366209973661 4098.0361 
4098.4892  8.211608   70.47293   136.449    140.191    0.4006943  0.009767952 0.06749135 0.2809193  57         9.332094392750383 140.191    0.7193841  1.176091   1.18529    2.539646   -96.17381837271236 4098.236099999999
4098.689200000001 8.186503   67.50948   104.7865   140.9302   0.3902326  -0.004875267 0.03506164 0.2580147  57         9.997870873278263 140.9302   0.763887   1.259168   1.235162   2.463644   -95.15051417323109 4098.436100000001
4098.8892  8.187587   67.27032   105.4888   145.8194   0.3719137  -0.03379324 -0.03234885 0.1546628  57         9.390418105241993 145.8194   0.8092747  1.284042   1.251933   2.436342   -96.15082519684907 4098.6361 
4099.0892  8.227913   71.492     110.4825   146.98     0.3591549  -0.05691608 -0.09433899 0.03827755 57         8.019362357030769 146.98     0.7113315  0.9686003  0.9460324  2.466088   -95.68866561679715 4098.8361 
4099.2892  8.307006   75.52922   117.2218   135.3483   0.3797296  -0.02573214 -0.03663231 0.1824141  57         12.11901407167129 135.3483   0.5989556  0.7202148  0.694636   2.488463   -95.35266692913389 4099.0361 
4099.4892  8.322414   81.16145   139.5287   125.5497   0.3726724  -0.03492988 -0.0570614 0.2013115  57         25.0769049526797 125.5497   0.5968918  0.6706091  0.6306121  2.477279   -96.48903359579981 4099.2361 
4099.689200000001 8.325541   91.53119   171.6457   122.1994   0.3418503  -0.07923891 -0.1489149 0.09403314 57         31.06433072929707 122.1994   0.6201487  0.6679715  0.6209676  2.455956   -98.94818845145194 4099.436100000001
4099.8892  8.324886   95.27603   189.0343   122.3152   0.2986667  -0.152733  -0.3234061 -0.2501189 57         31.94028872392373 122.3152   0.6483364  0.7030915  0.6508608  2.445012   -96.71777874016044 4099.6361 
4100.0892  8.323004   96.24446   189.1461   125.5247   0.2897827  -0.1720905 -0.3854326 -0.3984633 57         31.00026519154128 125.5247   0.6821882  0.747807   0.6861542  2.446504   -95.06577952755771 4099.8361 
4100.2892  8.324152   97.36181   227.9495   130.4349   0.305487   -0.1601779 -0.396456  -0.5087397 57         30.17069357023451 130.4349   0.6570472  0.7190846  0.6656892  2.448149   -93.8056866141693 4100.0361 
