~Version
 VERS              .         2.0                           : CWLS LOG ASCII STANDARD - VERSION 2.0
 WRAP              .         NO                            : ONE LINE PER DEPTH STEP
 DLM               .         SPACE                         : DELIMITING CHARACTER(SPACE TAB OR COMMA)
~Well Information
#_______________________________________________________________________________
#
#PARAMETER_NAME    .UNIT     VALUE                         : DESCRIPTION
#_______________________________________________________________________________
STRT               .m        2119.8892                     : First reference value
STOP               .m        5043.2892                     : Last reference value
STEP               .m        0.2                           : Step increment
NULL               .         -9999                         : Missing value
COMP               .         PETROLEO BRASILEIRO S/A       : Company
WELL               .         1ESS 0094  ES                 : Well name
FLD                .                                       : Field
LOC                .                                       : Location
CNTY               .                                       : County
STAT               .         ESPIRITO SANTO                : State
CTRY               .                                       : Country
SRVC               .                                       : Service Company
DATE               .                                       : Date
API                .         342710052700                  : API number
EDF                .M        25.00                         : Elevation Derrick Floor
GDAT               .         SIRGAS2000                    : Geodetic Datum
HZCS               .         UTM                           : Horizontal Coordinate System
LAT                .         -20.952076                    : Latitude
LONG               .         -39.451195                    : Longitude
MC                 .         39 W                          : Meridiano Central
ORIG               .         SIGEO EXPORTACAO PERFIL       : Origem dos dados
WDMS               .M        2081.00                       : Water Depth to Mean Sea Level
XCOORD             .         453092.70                     : Surface X
YCOORD             .         7683090.10                    : Surface Y
~Parameter Information Block
#_______________________________________________________________________________
#
#PARAMETER_NAME    .UNIT     VALUE                         : DESCRIPTION
#_______________________________________________________________________________
SET                .         ESS94_resample                : 
TLFamily_CALI      .         Caliper                       : 
TLFamily_DEPT      .         Measured Depth                : 
TLFamily_DT        .         Compressional Slowness        : 
TLFamily_DTS       .         Shear Slowness                : 
TLFamily_GR        .         Gamma Ray                     : 
TLFamily_INPEFA_1  .                                       : 
TLFamily_INPEFA_2  .                                       : 
TLFamily_INPEFA_3  .                                       : 
TLFamily_INPEFA_4  .                                       : 
TLFamily_LITO      .                                       : 
TLFamily_NPHI      .         Neutron Porosity              : 
TLFamily_OG        .                                       : 
TLFamily_RESD      .         Deep Resistivity              : 
TLFamily_RESM      .         Medium Resistivity            : 
TLFamily_RESS      .         Shallow Resistivity           : 
TLFamily_RHOB      .         Bulk Density                  : 
TLFamily_SP        .         Spontaneous Potential         : 
TLFamily_TVD       .         True Vertical Depth           : 
~Curve Information
#_______________________________________________________________________________
#
#LOGNAME           .UNIT     LOG_ID                        : DESCRIPTION
#_______________________________________________________________________________
DEPT               .m                                      :  
CALI               .in                                     :  
DT                 .us/ft                                  :  
DTS                .us/ft                                  :  
GR                 .Sem                                    : GAMMA RAY 
INPEFA_1           .                                       :  
INPEFA_2           .                                       :  
INPEFA_3           .                                       :  
INPEFA_4           .                                       :  
LITO               .Sem                                    : Não definido 
NPHI               .Sem                                    : THERMAL NEUTRON POROSITY (ORIGINAL RATIO METHOD) IN SELECTED LITHOLOGY 
OG                 .                                       :  
RESD               .ohm.m                                  :  
RESM               .ohm.m                                  :  
RESS               .ohm.m                                  :  
RHOB               .g/cm3                                  :  
SP                 .mV                                     : SPONTANEOUS POTENTIAL 
TVD                .m                                      : Vertical Depth 
~Ascii
# ...
2352.6892  -9999      149.8257   -9999      21.60448   -0.4183029 -0.1785222 -0.2793024 -0.03464567 57         -9999      21.60448   1.072866   1.033949   0.9287032  -9999      -9999      2352.6217 
2352.8892  -9999      154.1917   -9999      21.32275   -0.411286  -0.166826  -0.2520446 0.01683722 57         -9999      21.32275   1.037505   0.9881823  0.8859894  -9999      -9999      2352.821612860892
2353.0892  -9999      155.0997   -9999      21.99739   -0.4031022 -0.1520178 -0.2150676 0.1016197  57         -9999      21.99739   1.019944   0.9717532  0.8725296  -9999      -9999      2353.021581627296
2353.2892  -9999      153.1299   -9999      22.43692   -0.403942  -0.151455  -0.2080075 0.1293685  57         -9999      22.43692   1.010917   0.968      0.868759   -9999      -9999      2353.2215 
2353.4892  -9999      149.3126   -9999      23.30289   -0.3974311 -0.1391446 -0.1753983 0.2121309  57         -9999      23.30289   1.004418   0.96897    0.8653166  -9999      -9999      2353.421419160105
2353.6892  -9999      147.8803   -9999      24.46403   -0.3951825 -0.1321437 -0.1508154 0.2934693  57         -9999      24.46403   0.9965798  0.9698551  0.8627034  -9999      -9999      2353.6214 
2353.8892  -9999      147.8692   -9999      25.48424   -0.4127276 -0.158772  -0.2033454 0.2023483  57         -9999      25.48424   0.9919333  0.9668486  0.862      -9999      -9999      2353.821356692914
2354.0892  -9999      147.3638   -9999      25.64325   -0.40993   -0.1546606 -0.194047  0.2190132  57         -9999      25.64325   0.9902036  0.9616898  0.8611054  -9999      -9999      2354.022045406824
2354.2892  -9999      146.5444   -9999      23.74678   -0.4112283 -0.1577538 -0.2018921 0.1937478  57         -9999      23.74678   0.9913154  0.9641143  0.8640453  -9999      -9999      2354.223569291339
2354.4892  -9999      145.3688   -9999      22.81269   -0.3986711 -0.1368367 -0.1541935 0.2935221  57         -9999      22.81269   0.99442    0.9747727  0.8727993  -9999      -9999      2354.425144094488
2354.6892  -9999      143.9407   -9999      23.82373   -0.4083191 -0.1505981 -0.1794222 0.2496147  57         -9999      23.82373   0.9992279  0.9853543  0.8815771  -9999      -9999      2354.626718897638
2354.8892  -9999      144.3098   -9999      27.69119   -0.4039439 -0.1434728 -0.1630241 0.2771243  57         -9999      27.69119   1.004479   0.99287    0.8876764  -9999      -9999      2354.828293700788
2355.0892  -9999      145.8609   -9999      24.96725   -0.4082027 -0.1496966 -0.1749986 0.2452309  57         -9999      24.96725   1.010461   0.999711   0.8940762  -9999      -9999      2355.029169291338
2355.2892  -9999      145.8994   -9999      22.71839   -0.4073973 -0.1484202 -0.172563  0.2331892  57         -9999      22.71839   1.018365   1.009792   0.9046825  -9999      -9999      2355.2291 
2355.4892  -9999      142.9695   -9999      23.36615   -0.4041358 -0.1434855 -0.1630856 0.2311244  57         -9999      23.36615   1.025344   1.012779   0.9079454  -9999      -9999      2355.4291 
2355.6892  -9999      144.5715   -9999      24.48759   -0.3986743 -0.1338711 -0.1412237 0.2607105  57         -9999      24.48759   1.027707   1.002273   0.8971702  -9999      -9999      2355.629  
2355.8892  -9999      143.9182   -9999      23.82142   -0.3973733 -0.1308538 -0.1333289 0.2622122  57         -9999      23.82142   1.023624   0.992705   0.8876259  -9999      -9999      2355.828944356956
2356.0892  -9999      140.7442   -9999      22.09432   -0.3878906 -0.1142413 -0.09495583 0.3316548  57         -9999      22.09432   1.017363   0.9911475  0.8852394  -9999      -9999      2356.0289 
2356.2892  -9999      139.2264   -9999      21.78732   -0.3827794 -0.1036206 -0.06700455 0.3926545  57         -9999      21.78732   1.014872   0.9917825  0.8873448  -9999      -9999      2356.2288 
2356.4892  -9999      138.0979   -9999      21.73992   -0.3920521 -0.1157323 -0.08796448 0.3568169  57         -9999      21.73992   1.017418   0.9898126  0.8885919  -9999      -9999      2356.428750656168
2356.6892  -9999      138.5567   -9999      22.16975   -0.397239  -0.1244678 -0.1084019 0.2986526  57         -9999      22.16975   1.021553   0.9921024  0.8918581  -9999      -9999      2356.6287 
2356.8892  -9999      147.0429   -9999      25.83975   -0.3997626 -0.1289799 -0.1209954 0.2484467  57         -9999      25.83975   1.022      1.00553    0.8994068  -9999      -9999      2356.8286 
2357.0892  -9999      160.1426   -9999      27.92811   -0.3829776 -0.1026934 -0.06679773 0.3384843  57         -9999      27.92811   1.022      1.012069   0.9035442  -9999      -9999      2357.028556955381
2357.2892  -9999      172.8569   -9999      27.52379   -0.3935884 -0.1180328 -0.09840737 0.2673827  57         -9999      27.52379   1.022891   1.007635   0.9031085  -9999      -9999      2357.2285 
2357.4892  -9999      176.2737   -9999      24.73063   -0.3814807 -0.09911733 -0.05984398 0.3301164  57         -9999      24.73063   1.026583   0.9989289  0.9007559  -9999      -9999      2357.428494488189
2357.6892  -9999      176.5987   -9999      24.67299   -0.3844281 -0.1022509 -0.06470662 0.3191372  57         -9999      24.67299   1.028      0.996      0.8995588  -9999      -9999      2357.6284 
2357.8892  -9999      176.481    -9999      25.03364   -0.3833518 -0.09998982 -0.06006929 0.3222037  57         -9999      25.03364   1.028      0.996      0.8982561  -9999      -9999      2357.828332020998
2358.0892  -9999      176.32     -9999      25.55664   -0.3816715 -0.09629755 -0.05132894 0.337367   57         -9999      25.55664   1.029191   0.9984803  0.9004803  -9999      -9999      2358.0283 
2358.2892  -9999      168.4787   -9999      25.66321   -0.3857256 -0.1025476 -0.06619742 0.3005821  57         -9999      25.66321   1.03       1.003296   0.9049316  -9999      -9999      2358.2282 
2358.4892  -9999      150.5459   -9999      24.88966   -0.3907363 -0.1114379 -0.0893521 0.2357687  57         -9999      24.88966   1.03074    1.012043   0.91235    -9999      -9999      2358.42813832021
2358.6892  -9999      147.1893   -9999      23.61926   -0.3829191 -0.09953225 -0.06727262 0.2624959  57         -9999      23.61926   1.036495   1.024995   0.9238806  -9999      -9999      2358.6281 
2358.8892  -9999      154.1767   -9999      23.02392   -0.3840457 -0.1008086 -0.07146912 0.2437471  57         -9999      23.02392   1.047642   1.046754   0.9370403  -9999      -9999      2358.828  
2359.0892  -9999      157.5599   -9999      21.75706   -0.3861592 -0.104573  -0.08322232 0.2026489  57         -9999      21.75706   1.053994   1.05195    0.9358946  -9999      -9999      2359.027944619422
2359.2892  -9999      156.8058   -9999      20.70995   -0.387133  -0.1071594 -0.09418004 0.1561327  57         -9999      20.70995   1.055893   1.042274   0.9254068  -9999      -9999      2359.2279 
2359.4892  -9999      154.1892   -9999      23.03749   -0.3858059 -0.1059926 -0.09722693 0.1228615  57         -9999      23.03749   1.051442   1.025216   0.9149877  -9999      -9999      2359.427882152231
2359.6892  -9999      154.2265   -9999      26.06936   -0.3825262 -0.10152   -0.092963  0.1047043  57         -9999      26.06936   1.044354   1.016764   0.911634   -9999      -9999      2359.6278 
2359.8892  -9999      151.8938   -9999      27.60574   -0.3766894 -0.09221392 -0.07674211 0.1189327  57         -9999      27.60574   1.0366     1.016      0.9146678  -9999      -9999      2359.82771968504
2360.0892  -9999      147.2662   -9999      24.55149   -0.3799697 -0.09716585 -0.09046582 0.07615753 57         -9999      24.55149   1.029895   1.014279   0.9128979  -9999      -9999      2360.027688451443
2360.2892  -9999      149.2539   -9999      23.95202   -0.3941523 -0.121713  -0.1520832 -0.08596089 57         -9999      23.95202   1.023842   1.002992   0.9015064  -9999      -9999      2360.2276 
2360.4892  -9999      152.8005   -9999      22.9773    -0.37501   -0.09416087 -0.10362   -0.03182366 57         -9999      22.9773    1.014269   0.9809121  0.8816706  -9999      -9999      2360.427525984252
