~Version
 VERS              .         2.0                           : CWLS LOG ASCII STANDARD - VERSION 2.0
 WRAP              .         NO                            : ONE LINE PER DEPTH STEP
 DLM               .         SPACE                         : DELIMITING CHARACTER(SPACE TAB OR COMMA)
~Well Information
#_______________________________________________________________________________
#
#PARAMETER_NAME    .UNIT     VALUE                         : DESCRIPTION
#_______________________________________________________________________________
STRT               .m        2430.3999                     : First reference value
STOP               .m        5554.9999                     : Last reference value
STEP               .m        0.2                           : Step increment
NULL               .         -9999                         : Missing value
COMP               .         PETROLEO BRASILEIRO S/A       : Company
WELL               .         1-ESS-186_resample            : Well name
FLD                .                                       : Field
LOC                .                                       : Location
CNTY               .                                       : County
STAT               .         ESPIRITO SANTO                : State
CTRY               .                                       : Country
SRVC               .                                       : Service Company
DATE               .                                       : Date
API                .         342710339400                  : API number
EDF                .M        25.00                         : Elevation Derrick Floor
GDAT               .         SIRGAS2000                    : Geodetic Datum
HZCS               .         UTM                           : Horizontal Coordinate System
LAT                .         -20.356499                    : Latitude
LONG               .         -39.496292                    : Longitude
MC                 .         39 W                          : Meridiano Central
ORIG               .         SIGEO EXPORTACAO PERFIL       : Origem dos dados
WDMS               .M        1798.00                       : Water Depth to Mean Sea Level
XCOORD             .         448202.60                     : Surface X
YCOORD             .         7748989.80                    : Surface Y
~Parameter Information Block
#_______________________________________________________________________________
#
#PARAMETER_NAME    .UNIT     VALUE                         : DESCRIPTION
#_______________________________________________________________________________
SET                .         ESS186_resample               : 
TLFamily_CALI      .         Caliper                       : 
TLFamily_DEPT      .         Measured Depth                : 
TLFamily_DT        .         Compressional Slowness        : 
TLFamily_DTS       .         Shear Slowness                : 
TLFamily_GR        .         Gamma Ray                     : 
TLFamily_INPEFA_1  .                                       : 
TLFamily_INPEFA_2  .                                       : 
TLFamily_INPEFA_3  .                                       : 
TLFamily_INPEFA_4  .                                       : 
TLFamily_LITO      .                                       : 
TLFamily_NPHI      .         Neutron Porosity              : 
TLFamily_OG        .                                       : 
TLFamily_RESD      .         Deep Resistivity              : 
TLFamily_RESM      .         Medium Resistivity            : 
TLFamily_RESS      .         Shallow Resistivity           : 
TLFamily_RHOB      .         Bulk Density                  : 
TLFamily_TVD       .         True Vertical Depth           : 
~Curve Information
#_______________________________________________________________________________
#
#LOGNAME           .UNIT     LOG_ID                        : DESCRIPTION
#_______________________________________________________________________________
DEPT               .m                                      :  
CALI               .in                                     :  
DT                 .us/ft                                  :  
DTS                .us/ft                                  :  
GR                 .gAPI                                   : GAMMA RAY 
INPEFA_1           .                                       :  
INPEFA_2           .                                       :  
INPEFA_3           .                                       :  
INPEFA_4           .                                       :  
LITO               .Sem                                    : Não definido 
NPHI               .%                                      : THERMAL NEUTRON POROSITY (ORIGINAL RATIO METHOD) IN SELECTED LITHOLOGY 
OG                 .                                       :  
RESD               .ohm.m                                  :  
RESM               .ohm.m                                  :  
RESS               .ohm.m                                  :  
RHOB               .g/cm3                                  :  
TVD                .                                       : Vertical Depth 
~Ascii
# ...
4922.1999  12.59737   67.72793   123.14     29.82332   -0.5050389 -0.3226615 -0.08838231 0.3220963  6          10.88976   29.82332   4.198291   4.398071   5.361433517255283 2.584374   4920.941842519685
4922.3999  12.53101   67.71436   123.3482   36.86728   -0.5123353 -0.3345411 -0.1075348 0.308346   6          10.92812   36.86728   3.837292   4.049029   4.898805682463469 2.612386   4921.141317585302
4922.5999  12.49276   66.42547   121.2044   36.95642   -0.5133108 -0.3365492 -0.1112338 0.3231153  6          11.13979   36.95642   4.024837   4.292329   5.242389610212108 2.629533   4921.340794488189
4922.7999  12.52557   66.08839   120.4632   33.74743   -0.5204046 -0.3488031 -0.1338045 0.290934   6          11.24615   33.74743   4.051822   4.348701   5.377958516706601 2.628258   4921.540367716536
4922.999900000001 12.54787   66.31905   120.4787   32.16101   -0.5182452 -0.3469065 -0.1343567 0.296571   6          10.2245    32.16101   3.883619   4.188435   5.147063599411148 2.613483   4921.739842782154
4923.1999  12.57805   65.08487   118.0686   30.45091   -0.5193048 -0.3493631 -0.1418929 0.2877779  6          9.620906   30.45091   3.922749   4.23622    5.161787297186486 2.601726   4921.939317847769
4923.3999  12.57946   63.97621   116.7717   28.42297   -0.5289396 -0.3673336 -0.1798496 0.1951316  6          9.762163   28.42297   3.974543   4.277052   5.295313855310711 2.599566   4922.138892913387
4923.5999  12.56057   64.21536   117.5295   30.84353   -0.5199818 -0.356632  -0.1723495 0.182213   6          9.963329   30.84353   4.018724   4.282789   5.340411886485789 2.607766   4922.338367979004
4923.7999  12.53732   65.3963    119.191    35.27171   -0.5057356 -0.3344302 -0.1411533 0.2320547  6          10.64165   35.27171   4.039865   4.314924   5.355517034452439 2.617782   4922.537843044619
4923.999900000001 12.52659   66.71371   121.1229   37.05352   -0.5105657 -0.3425672 -0.1620218 0.1682567  6          11.86512   37.05352   4.00052    4.26264    5.234436291505188 2.627527   4922.737338582677
4924.1999  12.53612   67.39243   122.6668   37.39138   -0.5172485 -0.35714   -0.2009053 0.03734836 6          12.38078   37.39138   3.944503   4.193419   5.108991341146762 2.627611   4922.936893175853
4924.3999  12.52377   68.33108   124.3341   37.7056    -0.5014635 -0.3370227 -0.1841817 0.007370023 6          12.27103   37.7056    3.909348   4.144385   5.010068006260487 2.614722   4923.13636824147
4924.5999  12.5318    68.84089   125.1623   35.52077   -0.4762157 -0.298244  -0.1304355 0.07369716 6          11.67821   35.52077   3.857464   4.098374   4.908654948339551 2.615502   4923.335857480315
4924.7999  12.48535   67.35107   122.8051   32.95326   -0.4535711 -0.2609706 -0.07423798 0.1663416  6          10.49221   32.95326   3.922088   4.201942   5.037726529838646 2.617524   4923.535418372704
4924.999900000001 12.49019   65.03252   118.7539   31.66838   -0.4474975 -0.2474754 -0.05378767 0.2033806  6          9.812492   31.66838   4.053505   4.371525   5.32345030558454 2.614119   4923.734893438322
4925.1999  12.50322   64.70964   117.9977   33.38504   -0.4416116 -0.2350814 -0.03605368 0.2359228  6          10.39557   33.38504   4.091183   4.402284   5.383076073166249 2.612558   4923.934368503938
4925.3999  12.54818   66.09018   120.35     36.36213   -0.4311908 -0.2148467 -0.004098344 0.3050528  6          11.32593   36.36213   4.091486   4.408375   5.245015327786799 2.613481   4924.133882677166
4925.5999  12.55459   67.10643   122.5111   37.88653   -0.4369062 -0.2209667 -0.01810141 0.2762217  6          11.23803   37.88653   4.113843   4.440027   5.275710516299108 2.625519   4924.333418635171
4925.7999  12.55291   67.43134   123.2331   38.99174   -0.4301432 -0.2088443 -0.004116198 0.3015705  6          10.65286   38.99174   4.206702   4.503591   5.320560056916145 2.642716   4924.532893700788
4925.999900000001 12.56419   66.10312   121.212    38.83852   -0.4315637 -0.2096451 -0.01191834 0.285617   6          10.00807   38.83852   4.491041   4.751246   5.599961506389136 2.63891    4924.732401574805
4926.1999  12.5559    64.9872    119.2346   38.66331   -0.4320737 -0.209684  -0.01984306 0.2664787  6          10.4627    38.66331   4.691226   4.912453   5.813458120043981 2.627115   4924.931943832021
4926.3999  12.54576   65.11513   119.5859   39.64465   -0.4242564 -0.1954643 -0.002209918 0.3105614  6          9.743895   39.64465   4.662261   4.8235     5.633499756389292 2.630097   4925.131418897638
4926.5999  12.57348   65.64891   120.7572   38.24961   -0.4286593 -0.2007245 -0.01751994 0.2914631  6          6.728261   38.24961   4.821564   4.853703   5.590521909281061 2.635923   4925.330893963254
4926.7999  12.58095   66.01562   121.6864   34.91423   -0.467118  -0.2654401 -0.1436949 -0.00133418 6          6.372098   34.91423   4.652668   4.693027   5.339253640682265 2.636736   4925.530426771653
4926.999900000001 12.6343    67.40058   123.6829   34.6707    -0.4480477 -0.2425889 -0.1299854 -0.03533996 6          8.841304   34.6707    4.136611   4.233619   4.758006151042879 2.650045   4925.729944094488
4927.1999  12.52806   67.66331   124.0462   36.40478   -0.4253294 -0.2093806 -0.0920528 0.002620799 6          9.650002   36.40478   4.427703   4.523369   4.970508638390078 2.656916   4925.929419160104
4927.3999  12.5383    64.75137   119.3441   34.17915   -0.4169384 -0.1967817 -0.08497938 -0.006740473 6          7.816828   34.17915   5.245038   5.383925   6.215723043561003 2.636891   4926.128945669291
4927.5999  12.54792   61.18993   113.0316   28.5983    -0.3973654 -0.1660536 -0.04583935 0.05957247 6          6.199256   28.5983    6.386604   6.577909   8.238097547470309 2.613768   4926.328469291339
4927.7999  12.55497   59.06565   108.8996   23.79887   -0.3952508 -0.1599129 -0.042772  0.07379595 6          5.369401   23.79887   7.414528   7.734767   9.877993150967201 2.614349   4926.527944356955
4927.999900000001 12.54238   59.41862   109.0564   24.09179   -0.3969544 -0.1633396 -0.06085314 0.02856398 6          6.455292   24.09179   6.987365   7.264121   8.960519308047337 2.625905   4926.727238845146
4928.1999  12.53875   61.8583    112.9593   26.63342   -0.3884624 -0.1497318 -0.04929312 0.04751582 6          9.047066   26.63342   6.010302   6.148437   7.36150639724922 2.634612   4926.92595984252
4928.3999  12.52895   63.66212   116.353    27.91648   -0.3837306 -0.140978  -0.04392629 0.06237715 6          11.33376   27.91648   5.430216   5.537367   6.52697556649531 2.641789   4927.124416272966
4928.5999  12.51403   63.9434    117.5899   30.25985   -0.3911778 -0.1538846 -0.07905389 -0.02239128 6          11.60343   30.25985   5.083766   5.321412   6.312871863195217 2.642464   4927.322933858268
4928.7999  12.49904   64.10973   118.2688   31.23847   -0.3853441 -0.1466123 -0.08228417 -0.05052756 6          10.22953   31.23847   4.765983   5.190778   6.156839904298863 2.62931    4927.521429133858
4928.999900000001 12.50873   65.93961   120.9531   32.34672   -0.3911475 -0.1581226 -0.118274  -0.1551545 6          10.84449   32.34672   4.602111   4.983377   5.973649108289584 2.61638    4927.719894750656
4929.1999  12.52354   66.34195   121.3696   33.45705   -0.3832017 -0.1496634 -0.1239824 -0.2137178 6          11.7703    33.45705   4.533173   4.876719   5.795617858115004 2.615388   4927.919402362204
4929.3999  12.49557   65.55957   119.8397   33.16966   -0.3831981 -0.1531364 -0.1496828 -0.3221523 6          10.1883    33.16966   4.307225   4.728683   5.471782974319473 2.614168   4928.11894488189
4929.5999  12.50337   66.15056   120.4045   34.01442   -0.3608721 -0.1201002 -0.1120343 -0.2974196 57         9.948426   34.01442   3.844419   4.202157   4.985493348851737 2.603684   4928.318419947506
4929.7999  12.52068   67.30392   122.58     40.90548   -0.3465259 -0.09700136 -0.08633308 -0.2833489 57         11.27598   40.90548   4.092327   4.420062   5.216118098960611 2.601393   4928.517895013123
4929.999900000001 12.50825   66.16318   121.1567   40.09685   -0.3380619 -0.0832615 -0.07594895 -0.3022209 57         11.25974   40.09685   4.713027   5.132154   6.090254198780199 2.609303   4928.717427559056
