~Version
 VERS              .         2.0                           : CWLS LOG ASCII STANDARD - VERSION 2.0
 WRAP              .         NO                            : ONE LINE PER DEPTH STEP
 DLM               .         SPACE                         : DELIMITING CHARACTER(SPACE TAB OR COMMA)
~Well Information
#_______________________________________________________________________________
#
#PARAMETER_NAME    .UNIT     VALUE                         : DESCRIPTION
#_______________________________________________________________________________
STRT               .m        2062.5046                     : First reference value
STOP               .m        6413.5046                     : Last reference value
STEP               .m        0.2                           : Step increment
NULL               .         -9999                         : Missing value
COMP               .         PETROLEO BRASILEIRO S/A       : Company
WELL               .         1-ESS-120_resample            : Well name
FLD                .                                       : Field
LOC                .                                       : Location
CNTY               .                                       : County
STAT               .         ESPIRITO SANTO                : State
CTRY               .                                       : Country
SRVC               .                                       : Service Company
DATE               .                                       : Date
API                .         342710278300                  : API number
EDF                .M        25.00                         : Elevation Derrick Floor
ELEV               .M        25.0000                       : Surface Elev
ELEV_TYPE          .         KB                            : Elev Type
GDAT               .         SIRGAS2000                    : Geodetic Datum
HZCS               .         UTM                           : Horizontal Coordinate System
LAT                .         -20.620145                    : Latitude
LMF                .         MR                            : Log Measure From
LON                .         -39.512655                    : Longitude
LATI               .         -20_37_15.239                 : Latitude
LONG               .         -39_30_38.085                 : Longitude
MC                 .         39 W                          : Meridiano Central
ORIG               .         SIGEO EXPORTACAO PERFIL       : Origem dos dados
ORIGINALWELLNAME   .         1ESS 0120  ES                 : 
WDMS               .M        2003.00                       : Water Depth to Mean Sea Level
X                  .         446729.00                     : Surface X
XCOORD             .         446584.000000                 : Surface X
Y                  .         7719623.00                    : Surface Y
YCOORD             .         7719778.000000                : Surface Y
~Parameter Information Block
#_______________________________________________________________________________
#
#PARAMETER_NAME    .UNIT     VALUE                         : DESCRIPTION
#_______________________________________________________________________________
SET                .         ESS120_resample               : 
TLFamily_CALI      .         Caliper                       : 
TLFamily_DEPT      .         Measured Depth                : 
TLFamily_DTCO      .         Compressional Slowness        : 
TLFamily_GR        .         Gamma Ray                     : 
TLFamily_INPEFA_1  .                                       : 
TLFamily_INPEFA_2  .                                       : 
TLFamily_INPEFA_3  .                                       : 
TLFamily_INPEFA_4  .                                       : 
TLFamily_LITO      .                                       : 
TLFamily_LLD       .         Deep Resistivity              : 
TLFamily_NPHI      .         Neutron Porosity              : 
TLFamily_OG        .                                       : 
TLFamily_RHOB_merge .         Bulk Density                  : 
~Curve Information
#_______________________________________________________________________________
#
#LOGNAME           .UNIT     LOG_ID                        : DESCRIPTION
#_______________________________________________________________________________
DEPT               .m                                      :  
CALI               .in                                     : CALIPER 
DTCO               .us/ft                                  : DELTA-T COMPRESSIONAL 
GR                 .gAPI                                   : GAMMA RAY 
INPEFA_1           .                                       :  
INPEFA_2           .                                       :  
INPEFA_3           .                                       :  
INPEFA_4           .                                       :  
LITO               .                                       :  
LLD                .ohm.m                                  : LATEROLOG DEEP RESISTIVITY 
NPHI               .%                                      : THERMAL NEUTRON POROSITY (ORIGINAL RATIO METHOD) IN SELECTED LITHOLOGY 
OG                 .                                       :  
RHOB_merge         .g/cm3                                  :  
~Ascii
# ...
2655.7046  -9999      116.8129   73.48911   -0.02137776 0.1272878  -0.007861263 -0.1828797 49         -9999      20.31786   73.48911   2.373732  
2655.9046  -9999      119.1533   70.95358   -0.02060259 0.1303943  -0.002166219 -0.1682198 49         -9999      21.7584    70.95358   2.349434  
2656.1046  -9999      123.8066   76.79243   -0.01552144 0.1445052  0.02053777 -0.1273972 49         -9999      30.34008   76.79243   2.254154  
2656.3046  -9999      127.5652   77.29887   -0.02448175 0.1248326  -0.004491218 -0.1450928 49         -9999      36.65902   77.29887   2.198712  
2656.5046  -9999      129.0194   75.98811   -0.0313996 0.1045529  -0.03854624 -0.193485  49         -9999      36.18899   75.98811   2.178676  
2656.7046  -9999      126.4252   71.01163   -0.02753849 0.1137355  -0.02639323 -0.1767869 49         -9999      30.42699   71.01163   2.206898  
2656.9046  -9999      123.8188   72.71255   -0.02230896 0.1281984  -0.003020644 -0.1360268 49         -9999      27.81854   72.71255   2.251755  
2657.1046  -9999      121.7837   75.78197   -0.03330346 0.1011598  -0.04256881 -0.1831    49         -9999      29.2849    75.78197   2.228889  
2657.3046  -9999      120.3646   74.38164   -0.02558192 0.1192031  -0.01767504 -0.1487402 49         -9999      30.4427    74.38164   2.184593  
2657.5046  -9999      121.7391   72.95102   -0.03437557 0.09780588 -0.04891855 -0.1859839 49         -9999      31.31831   72.95102   2.147073  
2657.7046  -9999      124.1614   68.74245   -0.02890091 0.11018    -0.03261835 -0.1644258 49         -9999      32.53329   68.74245   2.193364  
2657.9046  -9999      128.2264   69.49838   -0.02671624 0.1178009  -0.01832134 -0.1344336 49         -9999      32.14993   69.49838   2.227968  
2658.1046  -9999      130.9264   70.09917   -0.03104541 0.1073612  -0.03278828 -0.1460302 49         -9999      30.38723   70.09917   2.235058  
2658.3046  -9999      128.7102   71.10986   -0.03843074 0.08743628 -0.06437794 -0.1896216 49         -9999      32.08188   71.10986   2.165928  
2658.5046  -9999      125.0309   70.6421    -0.03317568 0.09947205 -0.04843091 -0.170282  49         -9999      30.40446   70.6421    2.145692  
2658.7046  -9999      125.0885   68.87683   -0.03008847 0.1084613  -0.03363915 -0.1443054 49         -9999      20.87833   68.87683   2.340256  
2658.9046  -9999      124.4198   67.22353   -0.03585206 0.09414399 -0.0545279 -0.1685194 49         -9999      16.80219   67.22353   2.479504  
2659.1046  -9999      124.9905   66.05092   -0.0325804 0.1018133  -0.04385695 -0.152644  49         -9999      20.10698   66.05092   2.402746  
2659.3046  -9999      124.2591   69.5787    -0.03592767 0.09423204 -0.0536267 -0.1606931 49         -9999      25.00117   69.5787    2.252252  
2659.5046  -9999      123.5086   75.94082   -0.03457657 0.0971836  -0.04988927 -0.1553219 49         -9999      28.94468   75.94082   2.166128  
2659.7046  -9999      125.5434   77.28219   -0.03917539 0.08546934 -0.067563  -0.1794945 49         -9999      31.29188   77.28219   2.176975  
2659.9046  -9999      124.5823   72.23024   -0.02944569 0.1091777  -0.0334163 -0.1350683 49         -9999      28.96973   72.23024   2.271934  
2660.1046  -9999      120.4647   71.85871   -0.02594892 0.1218953  -0.008451135 -0.08626327 49         -9999      27.08427   71.85871   2.285309  
2660.3046  -9999      118.4898   71.93188   -0.03833057 0.09171591 -0.05083162 -0.1361819 49         -9999      27.06814   71.93188   2.293782  
2660.5046  -9999      118.2317   73.21606   -0.03109904 0.1079844  -0.02905565 -0.1118696 49         -9999      27.99291   73.21606   2.264721  
2660.7046  -9999      118.1143   72.70626   -0.020916  0.1371209  0.01989799 -0.03251839 49         -9999      32.56728   72.70626   2.231695  
2660.9046  -9999      119.1543   70.45264   -0.02386072 0.1332432  0.02066037 -0.01372935 49         -9999      33.2289    70.45264   2.203129  
2661.1046  -9999      121.9489   70.01429   -0.02168575 0.1417329  0.03948596 0.02954199 49         -9999      31.76816   70.01429   2.212767  
2661.3046  -9999      124.2001   73.87186   -0.0269224 0.1310977  0.02929733 0.03262102 49         -9999      29.00389   73.87186   2.230312  
2661.5046  -9999      124.1442   74.74293   -0.03099118 0.1217893  0.01833637 0.0274302  49         -9999      27.32944   74.74293   2.236894  
2661.7046  -9999      122.5903   71.47439   -0.03272347 0.1183189  0.01560568 0.03142751 49         -9999      27.75143   71.47439   2.237263  
2661.9046  -9999      121.526    70.73047   -0.03001296 0.1256665  0.02850477 0.05568899 49         -9999      32.02105   70.73047   2.221089  
2662.1046  -9999      123.0436   71.16658   -0.0348906 0.1153614  0.01686654 0.04970797 49         -9999      33.98261   71.16658   2.236912  
2662.3046  -9999      121.9189   71.78188   -0.02634094 0.1381491  0.05406463 0.1107725  49         -9999      33.28428   71.78188   2.271219  
2662.5046  -9999      121.0038   71.89439   -0.03321568 0.1239928  0.03893222 0.1070525  49         -9999      29.57182   71.89439   2.238306  
2662.7046  -9999      120.284    73.20533   -0.03166995 0.1294197  0.05081423 0.1362332  49         -9999      27.95004   73.20533   2.243909  
2662.9046  -9999      113.8928   70.41859   -0.04391386 0.09957553 0.009067838 0.08929257 49         -9999      28.95915   70.41859   2.251592  
2663.1046  -9999      109.6993   65.73498   -0.05007567 0.08164442 -0.02065339 0.04453535 49         -9999      29.67015   65.73498   2.252122  
2663.3046  -9999      103.8277   68.4699    -0.04324802 0.09665766 -0.001015359 0.06566966 49         -9999      25.73132   68.4699    2.298835  
2663.5046  -9999      96.39362   71.29499   -0.04755868 0.08773856 -0.01173524 0.05640899 49         -9999      18.54631   71.29499   2.429523  
2663.7046  -9999      98.01411   66.86149   -0.04093961 0.1032486  0.01056568 0.08614663 49         -9999      15.42339   66.86149   2.517429  
2663.9046  -9999      109.766    63.69625   -0.04274731 0.1013082  0.01160621 0.09671334 49         -9999      18.73568   63.69625   2.466468  
2664.1046  -9999      122.9967   65.11524   -0.05054218 0.08171475 -0.01680532 0.06104225 49         -9999      25.42862   65.11524   2.278309  
2664.3046  -9999      129.1859   69.21742   -0.04970353 0.08213916 -0.01836678 0.05377235 49         -9999      31.79454   69.21742   2.172503  
2664.5046  -9999      130.0234   73.42098   -0.04834187 0.08582595 -0.0125361 0.06092995 49         -9999      35.05741   73.42098   2.209313  
2664.7046  -9999      125.8125   75.60395   -0.04133539 0.105339   0.01945377 0.1108482  49         -9999      30.08417   75.60395   2.288293  
2664.9046  -9999      119.8868   73.75152   -0.04922994 0.08734722 -0.00399033 0.08778473 49         -9999      24.24605   73.75152   2.29513   
2665.1046  -9999      119.8858   72.76299   -0.05573107 0.06987724 -0.03110846 0.04873194 49         -9999      23.54873   72.76299   2.246744  
2665.3046  -9999      121.7325   69.88944   -0.05680768 0.06604791 -0.03863915 0.03268231 49         -9999      26.30563   69.88944   2.197618  
2665.5046  -9999      121.8375   69.36872   -0.05868647 0.06019031 -0.04943426 0.01045698 49         -9999      28.37428   69.36872   2.147209  
2665.7046  -9999      122.372    71.11848   -0.05923259 0.05776156 -0.05546232 -0.007082281 49         -9999      27.46772   71.11848   2.312613  
2665.9046  -9999      123.6698   76.81316   -0.05276295 0.0742164  -0.03141754 0.02095307 49         -9999      26.73525   76.81316   2.219956  
2666.1046  -9999      124.5751   82.21146   -0.07245676 0.02347007 -0.1096726 -0.09709468 49         -9999      27.5385    82.21146   2.207828  
2666.3046  -9999      124.2662   79.28605   -0.04754074 0.08283985 -0.02737816 -0.004781078 49         -9999      29.065     79.28605   2.192541  
2666.5046  -9999      122.949    74.66152   -0.0590039 0.0587468  -0.05763802 -0.03938117 49         -9999      30.73957   74.66152   2.169062  
2666.7046  -9999      124.3947   70.77312   -0.05933215 0.05543403 -0.06651109 -0.0651365 49         -9999      31.18353   70.77312   2.184803  
