~Version
 VERS              .         2.0                           : CWLS LOG ASCII STANDARD - VERSION 2.0
 WRAP              .         NO                            : ONE LINE PER DEPTH STEP
 DLM               .         SPACE                         : DELIMITING CHARACTER(SPACE TAB OR COMMA)
~Well Information
#_______________________________________________________________________________
#
#PARAMETER_NAME    .UNIT     VALUE                         : DESCRIPTION
#_______________________________________________________________________________
STRT               .m        1880.5999                     : First reference value
STOP               .m        5405.7999                     : Last reference value
STEP               .m        0.2                           : Step increment
NULL               .         -9999                         : Missing value
COMP               .         PETROLEO BRASILEIRO S/A       : Company
WELL               .         1-ESS-86A_resample            : Well name
FLD                .                                       : Field
LOC                .                                       : Location
CNTY               .                                       : County
STAT               .         ESPIRITO SANTO                : State
CTRY               .                                       : Country
SRVC               .                                       : Service Company
DATE               .                                       : Date
API                .         342710051600                  : API number
EDF                .M        14.00                         : Elevation Derrick Floor
GDAT               .         SIRGAS2000                    : Geodetic Datum
HZCS               .         UTM                           : Horizontal Coordinate System
LMF                .         MR                            : Log Measure From
LATI               .         -20_24_56.411                 : Latitude
LONG               .         -39_29_19.989                 : Longitude
MC                 .         39 W                          : Meridiano Central
ORIG               .         SIGEO EXPORTACAO PERFIL       : Origem dos dados
ORIGINALWELLNAME   .         1ESS 0086A ES                 : 
WDMS               .M        1841.00                       : Water Depth to Mean Sea Level
X                  .         448953.89                     : Surface X
Y                  .         7742410.09                    : Surface Y
~Parameter Information Block
#_______________________________________________________________________________
#
#PARAMETER_NAME    .UNIT     VALUE                         : DESCRIPTION
#_______________________________________________________________________________
SET                .         ESS86A_resample               : 
TLFamily_CALI      .         Caliper                       : 
TLFamily_DEPT      .         Measured Depth                : 
TLFamily_DT        .         Compressional Slowness        : 
TLFamily_GR        .         Gamma Ray                     : 
TLFamily_HDRS      .         Deep Resistivity              : 
TLFamily_INPEFA_1  .                                       : 
TLFamily_INPEFA_2  .                                       : 
TLFamily_INPEFA_3  .                                       : 
TLFamily_INPEFA_4  .                                       : 
TLFamily_LITO      .                                       : 
TLFamily_NPHI      .         Neutron Porosity              : 
TLFamily_RHOB      .         Bulk Density                  : 
~Curve Information
#_______________________________________________________________________________
#
#LOGNAME           .UNIT     LOG_ID                        : DESCRIPTION
#_______________________________________________________________________________
DEPT               .m                                      :  
CALI               .in                                     : CALIPER 1 CYLINDERDIAMETER 
DT                 .us/ft                                  : DELTA-T (ALSO CALLED SLOWNESS OR INTERVAL TRANSIT TIME) 
GR                 .gAPI                                   : GAMMA RAY 
HDRS               .ohm.m                                  : INDUCTION DEEP RESISTIVITY 
INPEFA_1           .                                       :  
INPEFA_2           .                                       :  
INPEFA_3           .                                       :  
INPEFA_4           .                                       :  
LITO               .                                       :  
NPHI               .%                                      : THERMAL NEUTRON POROSITY (ORIGINAL RATIO METHOD) IN SELECTED LITHOLOGY 
RHOB               .g/cm3                                  : BULK DENSITY 
~Ascii
# ...
4917.3999  8.5213     76.4497    87.0477    5.0391     0.6211673  0.4042063  0.4211802  0.3220666  57         15.7687    2.5253    
4917.5999  8.5202     78.1242    86.4338    4.611      0.6152229  0.3969935  0.409164   0.295919   57         13.2529    2.5496    
4917.7999  8.5213     78.9422    84.8182    5.258600000000001 0.6268765  0.4291179  0.4695412  0.4246038  57         10.7757    2.5691    
4917.9999  8.5179     76.4771    80.3423    5.991100000000001 0.620188   0.4231032  0.4658337  0.4436528  57         10.6723    2.5804    
4918.199900000001 8.5185     71.4953    88.2061    6.538400000000302 0.6039746  0.3931602  0.4152166  0.359266   57         10.6676    2.5752    
4918.3999  8.5225     67.2701    95.5396    6.4168     0.578553   0.3436732  0.3296511  0.201769   57         12.0622    2.5672    
4918.5999  8.5242     65.9311    98.1851    6.134999999999999 0.5707382  0.3294271  0.3027465  0.1488965  57         14.7414    2.5718    
4918.7999  8.5242     70.6047    93.7963    5.9612     0.5836869  0.3527979  0.3324664  0.1788568  57         13.0769    2.5806    
4918.9999  8.5242     76.4242    89.0891    5.814699999999999 0.5709561  0.3293713  0.2906066  0.09633785 57         11.2427    2.5846    
4919.199900000001 8.5242     69.0234    93.8621    6.704900000002775 0.5865526  0.3677891  0.3603405  0.2442427  57         11.6989    2.5808    
4919.3999  8.5247     67.3425    106.0373   7.1332     0.5739692  0.3439821  0.3188474  0.1736509  57         13.1318    2.5647    
4919.5999  8.5242     71.3804    122.7088   7.6178     0.5862296  0.3706287  0.3616784  0.2534673  57         14.7327    2.5384    
4919.7999  8.5236     72.95      126.4053   7.4396     0.6030163  0.4152915  0.448977   0.4626572  57         17.147     2.528     
4919.9999  8.5219     76.4754    113.2204   7.665399999999999 0.5969683  0.4134706  0.4603265  0.5527414  57         15.9664    2.5431    
4920.199900000001 8.5196     84.9688    91.6236    6.992799999992381 0.5505968  0.3245402  0.3176754  0.3439866  57         12.4418    2.5726    
4920.3999  8.5174     85.1847    74.1018    5.7289     0.5302734  0.2819755  0.2420431  0.2199843  57         11.138     2.6061    
4920.5999  8.5168     71.6355    72.7858    5.799199999999999 0.5253654  0.2744995  0.2308915  0.2302096  57         10.6711    2.6108    
4920.7999  8.5168     63.0266    78.2601    6.515799999999999 0.513584   0.2478374  0.1804859  0.1517971  57         10.9255    2.6041    
4920.9999  8.5202     65.8187    87.1452    6.5422     0.4869889  0.189382   0.07271655 -0.04781901 57         12.8827    2.5853    
4921.199900000001 8.523      69.8313    95.3587    5.505199999999159 0.486133   0.1823831  0.04938518 -0.105034  57         15.4185    2.5761    
4921.3999  8.5242     74.9205    104.7432   5.2986     0.4948147  0.1948706  0.05910385 -0.1023176 57         15.2349    2.5624    
4921.5999  8.5247     76.5331    110.6883   5.330699999999999 0.4890451  0.1774579  0.01734589 -0.1998843 57         14.2285    2.5639    
4921.7999  8.5247     76.0531    106.9169   5.8074     0.4971523  0.1896899  0.02679925 -0.2051119 57         13.8985    2.5619    
4921.9999  8.5242     74.6973    103.6437   6.215700000000001 0.5257263  0.2456058  0.1135762  -0.05647331 57         13.9133    2.5659    
4922.199900000001 8.5242     71.5094    97.0274    6.69459999999933 0.5469908  0.2888184  0.1836389  0.08103894 57         13.6887    2.5714    
4922.3999  8.5242     74.1671    97.2705    6.4858     0.5481721  0.2984281  0.2088634  0.1768551  57         12.7472    2.5761    
4922.5999  8.5242     73.1005    94.9803    6.4672     0.4978479  0.19793    0.04097057 -0.10216   57         11.2761    2.5884    
4922.7999  8.5242     67.8266    91.2764    6.2141     0.5039594  0.2037085  0.03862725 -0.1244239 57         11.0094    2.5968    
4922.9999  8.523      65.7033    91.6938    6.1088     0.516774   0.2262451  0.0685683  -0.07967802 57         11.6107    2.6062    
4923.199900000001 8.5219     68.3969    102.3144   5.840200000001834 0.5399331  0.2730115  0.1447097  0.06622074 57         12.9269    2.5867    
4923.3999  8.5202     68.5942    114.5731   6.1378     0.5672217  0.3354811  0.259646   0.3267204  57         13.9831    2.5539    
4923.5999  8.5202     67.1098    121.4783   6.208      0.5299163  0.2703851  0.1672207  0.2395509  57         13.5141    2.5282    
4923.7999  8.523      69.95      119.8067   6.7037     0.4749578  0.1576432  -0.02370031 -0.08689816 57         14.8942    2.5098    
4923.9999  8.5242     78.8443    117.4134   8.9476     0.4702444  0.1431588  -0.05748643 -0.1615989 57         17.6029    2.5112    
4924.199900000001 8.5242     80.6219    114.8015   9.957399999999094 0.5087425  0.2149201  0.05100511 0.009378625 57         17.2732    2.5117    
4924.3999  8.5242     81.9489    110.1964   10.7092    0.5204856  0.2445258  0.1074979  0.1455493  57         15.1271    2.5248    
4924.5999  8.5253     83.8798    104.9038   12.3613    0.5313304  0.2715276  0.1603182  0.2863718  57         14.9243    2.5327    
4924.7999  8.5259     79.1578    98.4092    12.5232    0.5114529  0.2388989  0.1179632  0.2764442  57         14.0265    2.5398    
4924.9999  8.5247     71.754     90.9049    11.6238    0.4682092  0.1513692  -0.02685752 0.05315644 57         14.1387    2.5435    
4925.199900000001 8.5242     75.875     83.4927    10.82019999999377 0.4321832  0.07139799 -0.1709765 -0.2112581 57         14.6999    2.5609    
4925.3999  8.5225     75.8305    81.8351    8.4831     0.4292033  0.05960959 -0.2002073 -0.2719658 57         13.2346    2.5736    
4925.5999  8.5196     71.0951    95.9661    6.591      0.4374811  0.06617678 -0.2057274 -0.3161653 57         11.8516    2.5832    
4925.7999  8.5191     67.9312    106.6331   5.8436     0.4358205  0.0606182  -0.2205351 -0.3490195 57         14.4778    2.5726    
4925.9999  8.5191     69.9773    109.5493   5.0457     0.4084886  -0.001909863 -0.3388956 -0.5981908 57         15.56      2.5717    
4926.199900000001 8.5185     78.0938    99.6091    5.135000000001925 0.4326727  0.0356973  -0.2967823 -0.5876957 57         11.4077    2.576     
4926.3999  8.5202     82.3616    86.4442    5.4622     0.4672352  0.1007185  -0.1995154 -0.4544584 57         11.3741    2.5899    
4926.5999  8.5236     73.2375    91.7356    6.467099999999999 0.5028865  0.1781559  -0.06476098 -0.1979589 57         11.9483    2.5804    
4926.7999  8.5242     65.8375    109.3127   7.690100000000001 0.4947966  0.162145   -0.09296756 -0.2513517 57         13.1224    2.5532    
4926.9999  8.5242     66.0341    123.1478   9.280400000000002 0.4905982  0.1578345  -0.09562126 -0.2396742 57         16.868     2.5342    
4927.199900000001 8.5242     73.8797    116.8698   10.54230000000417 0.4932817  0.1629051  -0.08831599 -0.2247811 57         18.7077    2.5253    
4927.3999  8.5242     83.5448    101.1619   11.1876    0.4745408  0.1231214  -0.1594015 -0.366404  57         16.8469    2.5483    
4927.5999  8.5242     84.0711    86.8221    9.427099999999999 0.4629984  0.09834665 -0.2057449 -0.4710444 57         12.2791    2.5851    
4927.7999  8.5242     82.1297    90.6117    7.578800000000001 0.4878314  0.1436378  -0.1404833 -0.3970545 57         12.048     2.6105    
4927.9999  8.5236     70.15      107.2648   9.3094     0.4956664  0.1604517  -0.1147983 -0.3750767 57         15.442     2.5985    
4928.199900000001 8.5213     66.5734    124.2964   10.86390000000704 0.5124299  0.2001864  -0.04277303 -0.2439435 57         16.7185    2.5592    
4928.3999  8.5202     73.2003    131.5494   11.0663    0.5307944  0.2410965  0.0288903  -0.1182942 57         16.7579    2.5402    
4928.5999  8.5185     83.5142    123.6716   8.764099999999999 0.559673   0.3049436  0.1416152  0.08964925 57         15.8126    2.5535    
4928.7999  8.5168     82.2188    111.9577   7.4423     0.5739374  0.3504486  0.2416346  0.3358771  57         14.6926    2.5542    
4928.9999  8.5179     80.9271    107.9174   6.333599999999999 0.5367739  0.2875453  0.1553099  0.2404564  57         13.9531    2.5361    
