~Version
 VERS              .         2.0                           : CWLS LOG ASCII STANDARD - VERSION 2.0
 WRAP              .         NO                            : ONE LINE PER DEPTH STEP
 DLM               .         SPACE                         : DELIMITING CHARACTER(SPACE TAB OR COMMA)
~Well Information
#_______________________________________________________________________________
#
#PARAMETER_NAME    .UNIT     VALUE                         : DESCRIPTION
#_______________________________________________________________________________
STRT               .m        2425                          : First reference value
STOP               .m        4697.8                        : Last reference value
STEP               .m        0.2                           : Step increment
NULL               .         -9999                         : Missing value
COMP               .         PETROLEO BRASILEIRO S/A       : Company
WELL               .         3-ESS-131_resample            : Well name
FLD                .         GOLFINHO                      : Field
LOC                .                                       : Location
CNTY               .                                       : County
STAT               .         ESPIRITO SANTO                : State
CTRY               .                                       : Country
SRVC               .                                       : Service Company
DATE               .                                       : Date
API                .         342710287600                  : API number
EDF                .M        25.00                         : Elevation Derrick Floor
GDAT               .         SIRGAS2000                    : Geodetic Datum
HZCS               .         UTM                           : Horizontal Coordinate System
LAT                .         -20.005487                    : Latitude
LONG               .         -39.535744                    : Longitude
MC                 .         39 W                          : Meridiano Central
ORIG               .         SIGEO EXPORTACAO PERFIL       : Origem dos dados
WDMS               .M        1383.00                       : Water Depth to Mean Sea Level
XCOORD             .         443959.60                     : Surface X
YCOORD             .         7787821.90                    : Surface Y
~Parameter Information Block
#_______________________________________________________________________________
#
#PARAMETER_NAME    .UNIT     VALUE                         : DESCRIPTION
#_______________________________________________________________________________
SET                .         ESS131_resample               : 
TLFamily_CALI      .         Caliper                       : 
TLFamily_DEPT      .         Measured Depth                : 
TLFamily_DT        .         Compressional Slowness        : 
TLFamily_DTS       .         Shear Slowness                : 
TLFamily_GR        .         Gamma Ray                     : 
TLFamily_INPEFA_1  .                                       : 
TLFamily_INPEFA_2  .                                       : 
TLFamily_INPEFA_3  .                                       : 
TLFamily_INPEFA_4  .                                       : 
TLFamily_LITO      .                                       : 
TLFamily_NPHI      .         Neutron Porosity              : 
TLFamily_OG        .                                       : 
TLFamily_RESD      .         Deep Resistivity              : 
TLFamily_RESM      .         Medium Resistivity            : 
TLFamily_RESS      .         Shallow Resistivity           : 
TLFamily_RHOB      .         Bulk Density                  : 
TLFamily_TVD       .         True Vertical Depth           : 
~Curve Information
#_______________________________________________________________________________
#
#LOGNAME           .UNIT     LOG_ID                        : DESCRIPTION
#_______________________________________________________________________________
DEPT               .m                                      :  
CALI               .in                                     :  
DT                 .us/ft                                  :  
DTS                .us/ft                                  :  
GR                 .gAPI                                   : GAMMA RAY 
INPEFA_1           .                                       :  
INPEFA_2           .                                       :  
INPEFA_3           .                                       :  
INPEFA_4           .                                       :  
LITO               .Sem                                    : Não definido 
NPHI               .%                                      : THERMAL NEUTRON POROSITY (ORIGINAL RATIO METHOD) IN SELECTED LITHOLOGY 
OG                 .                                       :  
RESD               .ohm.m                                  :  
RESM               .ohm.m                                  :  
RESS               .ohm-m                                  :  
RHOB               .g/cm3                                  :  
TVD                .                                       : Vertical Depth 
~Ascii
# ...
3040       14.3346    123.058    298.6846   100.0689   -0.02299962 -0.1289159 -0.05311795 0.3140874  57         31.2552    100.0689   0.8572     0.8708     0.8554999828338623 2.2681     3039.7197 
3040.2     14.3793    115.4467   296.5439   106.4579   -0.04878829 -0.1878078 -0.1506776 0.1978407  57         32.4193    106.4579   0.8789     0.8936     0.8980000019073486 2.2579     3039.9197 
3040.4     14.0771    108.601    277.2509   113.2691   -0.04431757 -0.1756035 -0.1206207 0.235694   57         29.6008    113.2691   0.8615     0.8754     0.8919000029563904 2.2867     3040.1197 
3040.6     14.0014    104.1387   260.065    117.2997   -0.04803261 -0.1883058 -0.1449035 0.1805343  57         25.0986    117.2997   0.8411     0.8537     0.8683000206947327 2.3369     3040.3197 
3040.8     13.9884    106.761    258.1134   118.6961   -0.05593118 -0.2010746 -0.1637305 0.1183301  57         24.0309    118.6961   0.8281     0.8398     0.8543000221252441 2.3519     3040.5197 
3041       14.0049    111.8311   263.765    117.4577   -0.04992266 -0.1928546 -0.1577219 0.06039593 57         26.51      117.4577   0.8202     0.8313     0.8424000144004822 2.3361     3040.7197 
3041.2     13.9978    114.8223   267.1067   115.3009   -0.03855528 -0.1624514 -0.1005158 0.08396895 57         30.6743    115.3009   0.8356     0.847      0.845300018787384 2.3169     3040.9197 
3041.4     14.014     113.8704   260.5819   117.0607   -0.04164365 -0.1662696 -0.1021738 0.04408035 57         33.709     117.0607   0.8756     0.8878     0.8808000087738037 2.296      3041.1197 
3041.6     14.0129    110.3347   250.1404   119.4272   -0.03766325 -0.1554319 -0.08123997 0.02584225 57         34.7223    119.4272   0.9136     0.9264     0.9251999855041504 2.2849     3041.3197 
3041.8     14.008     104.9702   241.0226   119.1669   -0.02756537 -0.1253042 -0.01560078 0.09434422 57         34.0014    119.1669   0.9307     0.9433     0.9477999806404114 2.2953     3041.5197 
3042       13.9681    100.8243   223.3109   117.2417   -0.04198274 -0.1489582 -0.04135073 0.06695207 57         31.015     117.2417   0.9329     0.9451     0.9545999765396118 2.3083     3041.7197 
3042.2     13.9227    102.5321   219.3634   111.4875   -0.0466756 -0.1597051 -0.06201644 0.005242873 57         28.9962    111.4875   0.9126     0.9237     0.9416999816894531 2.3154     3041.9197 
3042.4     13.941     107.5701   227.8326   105.1777   -0.05755193 -0.1817036 -0.1025515 -0.09604775 57         29.8916    105.1777   0.8662     0.8752     0.8981999754905701 2.3137     3042.1197 
3042.6     13.9612    112.2722   236.5747   102.6396   -0.04895734 -0.163575  -0.07871811 -0.1346432 57         32.813     102.6396   0.8232     0.83       0.8460999727249146 2.3023     3042.3197 
3042.8     13.9816    114.1227   250.0673   103.7696   -0.06123226 -0.1897467 -0.132938  -0.2874108 57         36.0502    103.7696   0.799      0.8039     0.8148000240325928 2.2875     3042.5197 
3043       14.0097    114.29     259.3606   108.9606   -0.03998709 -0.143104  -0.06086251 -0.2862038 57         37.8001    108.9606   0.7909     0.7943     0.8019000291824341 2.2791     3042.7197 
3043.2     13.8784    112.4568   263.3908   118.1376   -0.04622489 -0.1479703 -0.06213992 -0.3347408 57         37.4768    118.1376   0.7976     0.7998     0.8025000095367432 2.2883     3042.9197 
3043.4     13.8581    110.4078   261.3424   124.0507   -0.03978717 -0.1325871 -0.03909023 -0.3665147 57         35.7311    124.0507   0.819      0.8202     0.8219000101089478 2.302      3043.1197 
3043.6     14.0849    109.1248   254.6669   122.3358   -0.03021302 -0.1036464 0.01923745 -0.3211766 57         32.8251    122.3358   0.8361     0.8361     0.8467000126838684 2.3098     3043.3197 
3043.8     14.11      109.551    245.4007   119.2369   -0.05107577 -0.1404257 -0.03150036 -0.3789595 57         31.742     119.2369   0.8373     0.8356     0.8510000109672546 2.315      3043.5196 
3044       14.1075    109.9461   242.295    116.404    -0.05173356 -0.1506549 -0.06582079 -0.4744281 57         31.5658    116.404    0.8425     0.8385     0.8492000102996826 2.3161     3043.7196 
3044.2     14.1069    109.7244   240.1808   112.3107   -0.06313626 -0.172534  -0.1082809 -0.5751879 57         31.0628    112.3107   0.859      0.8526     0.8629999756813049 2.3086     3043.9196 
3044.4     14.141     109.4316   239.3406   109.6527   -0.06455027 -0.1834763 -0.1464328 -0.7021481 57         31.1878    109.6527   0.8685     0.8599     0.8756999969482422 2.299      3044.1196 
3044.6     14.196     109.8381   239.8147   109.6106   -0.02462765 -0.1034962 -0.03037823 -0.6684402 57         31.5755    109.6106   0.8652     0.8548     0.8737999796867371 2.2963     3044.3196 
3044.8     14.254     111.3989   242.5083   109.2203   -0.007212718 -0.04155073 0.1106778  -0.4756345 57         31.659     109.2203   0.8555     0.8435     0.8615999817848206 2.2955     3044.5196 
3045       14.2796    112.9263   246.8022   110.3814   -0.01623314 -0.05908132 0.09069067 -0.4936244 57         31.7458    110.3814   0.8477     0.834      0.8496000170707703 2.2852     3044.7196 
3045.2     14.2932    113.405    251.2311   113.3192   0.003586076 0.007095063 0.244792   -0.2274785 57         32.369     113.3192   0.8432     0.8277     0.8404999971389771 2.2749     3044.9196 
3045.4     14.3013    113.1907   252.3871   116.3234   -0.03590773 -0.06835534 0.1465131  -0.244999  57         33.5558    116.3234   0.8497     0.8325     0.838100016117096 2.2766     3045.1196 
3045.6     14.3097    113.7365   251.0732   116.2929   -0.04553911 -0.09212923 0.1040747  -0.2752542 57         34.2932    116.2929   0.8702     0.8518     0.8557999730110169 2.2868     3045.3196 
3045.8     14.3064    114.8781   252.1487   115.5554   -0.04669003 -0.08680961 0.1271483  -0.2021214 57         33.4509    115.5554   0.8763     0.8579     0.870199978351593 2.2906     3045.5196 
3046       14.161     115.649    257.2354   112.796    -0.06051192 -0.1157287 0.08206814 -0.219412  57         32.4232    112.796    0.8604     0.8432     0.8596000075340271 2.2894     3045.7196 
3046.2     13.998     117.8129   262.7411   110.0712   -0.07705265 -0.1557476 0.000599458 -0.3372689 57         32.2073    110.0712   0.8202     0.8049     0.8277999758720398 2.2879     3045.9196 
3046.4     13.9567    120.4717   271.8328   108.4861   -0.08049449 -0.1720528 -0.05127153 -0.4669093 57         33.444     108.4861   0.7882     0.7745     0.77920001745224 2.2794     3046.1196 
3046.6     13.9312    121.588    276.6641   106.836    -0.06258329 -0.1418543 -0.02766246 -0.5404778 57         34.3048    106.836    0.8091     0.7957     0.7807999849319458 2.2779     3046.3196 
3046.8     13.9258    118.7266   273.718    108.6173   -0.03274107 -0.06910241 0.100752   -0.4193592 57         33.7199    108.6173   0.8496     0.8362     0.8238000273704529 2.2921     3046.5196 
3047       13.9251    116.1132   272.4837   112.2862   -0.03532246 -0.07011183 0.1049481  -0.4237344 57         32.9419    112.2862   0.8799     0.8668     0.8533999919891357 2.2961     3046.7196 
3047.2     13.8951    114.7897   260.7106   115.5369   -0.03188045 -0.0547309 0.1395049  -0.389155  57         32.6022    115.5369   0.9013     0.8887     0.8776999711990356 2.2859     3046.9196 
3047.4     13.9046    114.1767   253.6894   116.6459   -0.02719824 -0.03819972 0.1780557  -0.3381733 57         31.9638    116.6459   0.9009     0.8895     0.8820000290870667 2.2781     3047.1195 
3047.6     13.8864    113.3041   251.9239   109.4157   -0.009524499 0.01532699 0.2968642  -0.1353692 57         31.3417    109.4157   0.8887     0.8791     0.870199978351593 2.2842     3047.3195 
3047.8     13.9226    111.9562   249.1935   99.1933    -0.02209219 0.003141194 0.307924   -0.02470015 57         31.03      99.1933    0.872      0.8645     0.8568999767303467 2.2936     3047.5195 
3048       13.9464    113.2433   250.761    95.9762    -0.04764903 -0.04459823 0.2429523  -0.02704777 57         30.8862    95.9762    0.8471     0.8421     0.8353000283241272 2.3006     3047.7195 
