~Version
 VERS              .         2.0                           : CWLS LOG ASCII STANDARD - VERSION 2.0
 WRAP              .         NO                            : ONE LINE PER DEPTH STEP
 DLM               .         SPACE                         : DELIMITING CHARACTER(SPACE TAB OR COMMA)
~Well Information
#_______________________________________________________________________________
#
#PARAMETER_NAME    .UNIT     VALUE                         : DESCRIPTION
#_______________________________________________________________________________
STRT               .m        2425                          : First reference value
STOP               .m        4697.8                        : Last reference value
STEP               .m        0.2                           : Step increment
NULL               .         -9999                         : Missing value
COMP               .         PETROLEO BRASILEIRO S/A       : Company
WELL               .         3-ESS-131_resample            : Well name
FLD                .         GOLFINHO                      : Field
LOC                .                                       : Location
CNTY               .                                       : County
STAT               .         ESPIRITO SANTO                : State
CTRY               .                                       : Country
SRVC               .                                       : Service Company
DATE               .                                       : Date
API                .         342710287600                  : API number
EDF                .M        25.00                         : Elevation Derrick Floor
GDAT               .         SIRGAS2000                    : Geodetic Datum
HZCS               .         UTM                           : Horizontal Coordinate System
LAT                .         -20.005487                    : Latitude
LONG               .         -39.535744                    : Longitude
MC                 .         39 W                          : Meridiano Central
ORIG               .         SIGEO EXPORTACAO PERFIL       : Origem dos dados
WDMS               .M        1383.00                       : Water Depth to Mean Sea Level
XCOORD             .         443959.60                     : Surface X
YCOORD             .         7787821.90                    : Surface Y
~Parameter Information Block
#_______________________________________________________________________________
#
#PARAMETER_NAME    .UNIT     VALUE                         : DESCRIPTION
#_______________________________________________________________________________
SET                .         ESS131_resample               : 
TLFamily_CALI      .         Caliper                       : 
TLFamily_DEPT      .         Measured Depth                : 
TLFamily_DT        .         Compressional Slowness        : 
TLFamily_DTS       .         Shear Slowness                : 
TLFamily_GR        .         Gamma Ray                     : 
TLFamily_INPEFA_1  .                                       : 
TLFamily_INPEFA_2  .                                       : 
TLFamily_INPEFA_3  .                                       : 
TLFamily_INPEFA_4  .                                       : 
TLFamily_LITO      .                                       : 
TLFamily_NPHI      .         Neutron Porosity              : 
TLFamily_OG        .                                       : 
TLFamily_RESD      .         Deep Resistivity              : 
TLFamily_RESM      .         Medium Resistivity            : 
TLFamily_RESS      .         Shallow Resistivity           : 
TLFamily_RHOB      .         Bulk Density                  : 
TLFamily_TVD       .         True Vertical Depth           : 
~Curve Information
#_______________________________________________________________________________
#
#LOGNAME           .UNIT     LOG_ID                        : DESCRIPTION
#_______________________________________________________________________________
DEPT               .m                                      :  
CALI               .in                                     :  
DT                 .us/ft                                  :  
DTS                .us/ft                                  :  
GR                 .gAPI                                   : GAMMA RAY 
INPEFA_1           .                                       :  
INPEFA_2           .                                       :  
INPEFA_3           .                                       :  
INPEFA_4           .                                       :  
LITO               .Sem                                    : Não definido 
NPHI               .%                                      : THERMAL NEUTRON POROSITY (ORIGINAL RATIO METHOD) IN SELECTED LITHOLOGY 
OG                 .                                       :  
RESD               .ohm.m                                  :  
RESM               .ohm.m                                  :  
RESS               .ohm-m                                  :  
RHOB               .g/cm3                                  :  
TVD                .                                       : Vertical Depth 
~Ascii
# ...
4080.8     12.3694    74.0212    133.2241   118.5041   0.1701383  0.1825687  0.0710613  -0.06237145 49         14.8326    118.5041   1.2706     1.2906     1.291      2.3903     4080.2076 
4081       12.3844    73.4217    131.7788   107.4209   0.1667859  0.1670758  0.05923344 -0.08355132 49         13.3872    107.4209   1.308      1.3307     1.2999     2.4035     4080.4073 
4081.2     12.4255    73.3536    131.0555   107.0157   0.1780528  0.2046346  0.1745513  0.1290685  49         13.1128    107.0157   1.402      1.4294     1.3839     2.4108     4080.6071 
4081.4     12.4437    74.391     132.3618   108.6153   0.1276197  0.09647085 0.02908224 0.03851351 49         13.3186    108.6153   1.4831     1.5142     1.4909     2.4189     4080.8069 
4081.6     12.4527    76.9326    137.8087   111.1854   0.09529518 0.004465858 -0.1364881 -0.2031045 57         15.2734    111.1854   1.4279     1.4559     1.49739999999969 2.4478     4081.0067 
4081.8     12.4527    79.1405    142.5432   130.6279   0.1179081  0.04031784 -0.0714142 -0.1720838 57         19.9002    130.6279   1.26       1.2809     1.3325     2.4836     4081.2064 
4082       12.4809    80.2984    148.3421   154.9373   0.1121867  0.01672312 -0.1015977 -0.2467549 57         23.7056    154.9373   1.143      1.1597     1.1701     2.4817     4081.4062 
4082.2     12.4715    79.6265    144.6899   162.7136   0.1205823  0.03124352 -0.05447398 -0.2123252 57         23.079     162.7136   1.1086     1.1245     1.1263     2.4482     4081.606  
4082.4     12.396     78.9109    138.4611   146.2462   0.1008433  -0.01939118 -0.1209822 -0.3136817 57         19.1893    146.2462   1.0861     1.102      1.0986     2.4252     4081.8058 
4082.6     12.3713    78.2489    137.4351   125.2151   0.1051994  -0.02485867 -0.1242174 -0.3836993 49         15.143     125.2151   1.1024     1.1192     1.095000000000097 2.4141     4082.005500000001
4082.8     12.366     77.3282    136.334    109.0323   0.1274451  0.02237753 -0.008799752 -0.2417401 49         13.9102    109.0323   1.1504     1.1681     1.1441     2.4075     4082.2053 
4083       12.3878    76.0907    136.5789   105.983    0.1058423  -0.0275467 -0.05543625 -0.2601784 49         14.9553    105.983    1.1686     1.1854     1.1768     2.4122     4082.4051 
4083.2     12.4011    75.0542    138.1521   115.3768   0.08222417 -0.09145349 -0.1469836 -0.3871183 49         16.0255    115.3768   1.1563     1.1711     1.1673     2.4246     4082.6048 
4083.4     12.3813    75.0306    137.7606   122.5739   0.08189908 -0.1065154 -0.1628376 -0.4663917 49         16.4806    122.5739   1.138      1.1513     1.1419     2.4286     4082.8046 
4083.6     12.3317    75.4823    137.9055   110.7887   0.1177418  -0.04306142 -0.03872671 -0.3695701 49         15.4948    110.7887   1.1676     1.1809     1.141800000000122 2.4273     4083.0044 
4083.8     12.3317    75.5799    138.7748   99.9212    0.1353409  0.01054733 0.1262102  -0.06786522 49         14.2088    99.9212    1.269      1.2837     1.2163     2.4183     4083.2042 
4084       12.3079    76.1537    135.9928   103.0287   0.09256806 -0.08534245 0.01542353 -0.09708184 49         14.845     103.0287   1.4133     1.4306     1.3605     2.3887     4083.4039 
4084.2     12.3435    78.0561    132.9198   110.7002   0.107032   -0.04687222 0.1453208  0.2019826  49         16.6051    110.7002   1.4627     1.4818     1.4796     2.3637     4083.6037 
4084.4     12.3568    79.943     141.9019   121.4406   0.05379516 -0.1620942 0.006306214 0.1977324  49         19.3665    121.4406   1.3655     1.3833     1.4222     2.3845     4083.8035 
4084.6     12.4033    81.232     143.2494   135.5815   0.03021158 -0.2244899 -0.07320776 0.2139431  49         21.6312    135.5815   1.2647     1.2805     1.295599999999874 2.4216     4084.003200000001
4084.8     12.4038    81.2471    142.5178   139.1032   -0.001173695 -0.3047673 -0.1864841 0.1896217  49         22.1415    139.1032   1.2552     1.2706     1.2673     2.4293     4084.203  
4085       12.3597    81.2005    143.4551   131.8897   -0.01401125 -0.3576574 -0.2789853 0.1559373  49         21.4754    131.8897   1.2597     1.2749     1.2862     2.3999     4084.4028 
4085.2     12.3609    81.3343    143.4998   124.5846   -0.02996024 -0.423584  -0.416743  -0.008755655 49         21.268     124.5846   1.2472     1.2616     1.2757     2.3775     4084.6025 
4085.4     12.3913    80.3077    143.4722   122.7109   -0.03910048 -0.4707928 -0.5243588 -0.1675131 49         21.3245    122.7109   1.2513     1.2648     1.2731     2.3756     4084.8023 
4085.6     12.4145    77.7965    144.1371   122.1925   0.00656817 -0.4087928 -0.4574976 -0.1468018 49         20.8174    122.1925   1.2517     1.2634     1.285399999999976 2.3903     4085.002100000001
4085.8     12.4036    75.7258    142.7576   119.0368   0.03461637 -0.3455699 -0.3256141 0.08661128 49         19.0075    119.0368   1.1843     1.1925     1.2517     2.4003     4085.2019 
4086       12.3712    75.2176    145.9998   118.5208   -0.01179853 -0.4556873 -0.5017976 -0.03776154 49         16.9928    118.5208   1.0307     1.0344     1.102      2.4014     4085.4016 
4086.2     12.3859    75.5938    145.7812   125.3901   -0.01454805 -0.4938527 -0.6095561 -0.2394726 49         17.0945    125.3901   0.9231     0.9236     0.9383     2.3926     4085.6014 
4086.4     12.4133    77.7807    143.9013   131.6622   0.03128241 -0.4042025 -0.4669897 -0.1086595 49         19.118     131.6622   0.9707     0.9684     0.9131     2.3649     4085.8012 
4086.6     12.412     80.4453    147.73     125.9694   0.01233083 -0.4483672 -0.5387812 -0.1947775 49         19.7132    125.9694   1.1717     1.1659     1.069800000000527 2.3378     4086.000900000001
4086.8     12.3949    81.0875    143.3744   115.2039   0.02602311 -0.4412136 -0.5587167 -0.3131987 49         19.0802    115.2039   1.4596     1.4485     1.3259     2.3491     4086.2007 
4087       12.3305    80.3241    142.4992   116.1056   0.06216415 -0.3636777 -0.4213064 -0.173256  57         19.5427    116.1056   1.7545     1.7371     1.6131     2.395      4086.4005 
4087.2     12.3188    79.874     142.3607   124.8649   0.06055416 -0.3661949 -0.4107884 -0.1413261 57         20.0733    124.8649   1.9616     1.9391     1.8413     2.4458     4086.6004 
4087.4     12.4013    79.7687    143.4286   135.362    0.07508723 -0.3295213 -0.3264095 0.007502916 57         19.7794    135.362    2.0312     2.0069     1.9385     2.4888     4086.8003 
4087.6     12.444     79.9596    144.8914   145.5719   0.04261661 -0.402741  -0.4397915 -0.08790021 57         19.9285    145.5719   1.9997     1.9765     1.951699999999882 2.5058     4087.0002 
4087.8     12.4307    79.7424    146.0371   153.1736   0.05701123 -0.3831326 -0.4126694 -0.05689468 57         20.525     153.1736   1.8245     1.8061     1.8562     2.4914     4087.2001 
4088       12.4031    79.5055    147.8476   153.7441   0.05732638 -0.3871129 -0.41491   -0.04392396 57         20.8218    153.7441   1.5034     1.4924     1.5907     2.4602     4087.4    
4088.2     12.3756    79.1577    148.1473   149.1776   0.06739108 -0.3662831 -0.3633093 0.07691785 57         21.2475    149.1776   1.2098     1.2049     1.2732     2.4527     4087.5998 
4088.4     12.3888    78.875     146.3612   144.7985   0.05250877 -0.4057045 -0.4245295 0.04805825 57         20.2008    144.7985   1.0694     1.0683     1.0846     2.4592     4087.7995 
4088.6     12.3591    78.5506    143.924    134.1029   0.0571606  -0.4033565 -0.420668  0.06630652 49         18.6882    134.1029   1.0722     1.0737     1.064300000000119 2.436      4087.9993 
4088.8     12.3253    78.2707    142.1407   119.0328   0.05730072 -0.4075833 -0.4245225 0.07048845 49         17.5714    119.0328   1.1066     1.111      1.1197     2.3934     4088.1991 
4089       12.3244    78.4158    141.3307   116.9537   0.07428033 -0.3726175 -0.3559959 0.1722943  49         18.0542    116.9537   1.0822     1.0891     1.1285     2.3888     4088.3988 
4089.2     12.3229    78.3058    143.5303   124.444    0.06210608 -0.3996398 -0.3917057 0.1525769  49         18.3237    124.444    1.0155     1.024      1.0639     2.4019     4088.5986 
