~Version
 VERS              .         2.0                           : CWLS LOG ASCII STANDARD - VERSION 2.0
 WRAP              .         NO                            : ONE LINE PER DEPTH STEP
 DLM               .         SPACE                         : DELIMITING CHARACTER(SPACE TAB OR COMMA)
~Well Information
#_______________________________________________________________________________
#
#PARAMETER_NAME    .UNIT     VALUE                         : DESCRIPTION
#_______________________________________________________________________________
STRT               .m        2425                          : First reference value
STOP               .m        4697.8                        : Last reference value
STEP               .m        0.2                           : Step increment
NULL               .         -9999                         : Missing value
COMP               .         PETROLEO BRASILEIRO S/A       : Company
WELL               .         3-ESS-131_resample            : Well name
FLD                .         GOLFINHO                      : Field
LOC                .                                       : Location
CNTY               .                                       : County
STAT               .         ESPIRITO SANTO                : State
CTRY               .                                       : Country
SRVC               .                                       : Service Company
DATE               .                                       : Date
API                .         342710287600                  : API number
EDF                .M        25.00                         : Elevation Derrick Floor
GDAT               .         SIRGAS2000                    : Geodetic Datum
HZCS               .         UTM                           : Horizontal Coordinate System
LAT                .         -20.005487                    : Latitude
LONG               .         -39.535744                    : Longitude
MC                 .         39 W                          : Meridiano Central
ORIG               .         SIGEO EXPORTACAO PERFIL       : Origem dos dados
WDMS               .M        1383.00                       : Water Depth to Mean Sea Level
XCOORD             .         443959.60                     : Surface X
YCOORD             .         7787821.90                    : Surface Y
~Parameter Information Block
#_______________________________________________________________________________
#
#PARAMETER_NAME    .UNIT     VALUE                         : DESCRIPTION
#_______________________________________________________________________________
SET                .         ESS131_resample               : 
TLFamily_CALI      .         Caliper                       : 
TLFamily_DEPT      .         Measured Depth                : 
TLFamily_DT        .         Compressional Slowness        : 
TLFamily_DTS       .         Shear Slowness                : 
TLFamily_GR        .         Gamma Ray                     : 
TLFamily_INPEFA_1  .                                       : 
TLFamily_INPEFA_2  .                                       : 
TLFamily_INPEFA_3  .                                       : 
TLFamily_INPEFA_4  .                                       : 
TLFamily_LITO      .                                       : 
TLFamily_NPHI      .         Neutron Porosity              : 
TLFamily_OG        .                                       : 
TLFamily_RESD      .         Deep Resistivity              : 
TLFamily_RESM      .         Medium Resistivity            : 
TLFamily_RESS      .         Shallow Resistivity           : 
TLFamily_RHOB      .         Bulk Density                  : 
TLFamily_TVD       .         True Vertical Depth           : 
~Curve Information
#_______________________________________________________________________________
#
#LOGNAME           .UNIT     LOG_ID                        : DESCRIPTION
#_______________________________________________________________________________
DEPT               .m                                      :  
CALI               .in                                     :  
DT                 .us/ft                                  :  
DTS                .us/ft                                  :  
GR                 .gAPI                                   : GAMMA RAY 
INPEFA_1           .                                       :  
INPEFA_2           .                                       :  
INPEFA_3           .                                       :  
INPEFA_4           .                                       :  
LITO               .Sem                                    : Não definido 
NPHI               .%                                      : THERMAL NEUTRON POROSITY (ORIGINAL RATIO METHOD) IN SELECTED LITHOLOGY 
OG                 .                                       :  
RESD               .ohm.m                                  :  
RESM               .ohm.m                                  :  
RESS               .ohm-m                                  :  
RHOB               .g/cm3                                  :  
TVD                .                                       : Vertical Depth 
~Ascii
# ...
2450.8     -9999      108.6183   -9999      -9999      -9999      -9999      -9999      -9999      57         -9999      -9999      -9999      -9999      -9999      -9999      2450.5886 
2451       -9999      111.3895   -9999      -9999      -9999      -9999      -9999      -9999      57         -9999      -9999      -9999      -9999      -9999      -9999      2450.7885 
2451.2     -9999      115.1764   -9999      -9999      -9999      -9999      -9999      -9999      57         -9999      -9999      -9999      -9999      -9999      -9999      2450.9884 
2451.4     -9999      120.0409   -9999      -9999      -9999      -9999      -9999      -9999      57         -9999      -9999      -9999      -9999      -9999      -9999      2451.1884 
2451.6     -9999      124.1606   -9999      -9999      -9999      -9999      -9999      -9999      57         -9999      -9999      -9999      -9999      -9999      -9999      2451.3883 
2451.8     -9999      125.2507   -9999      -9999      -9999      -9999      -9999      -9999      57         -9999      -9999      -9999      -9999      -9999      -9999      2451.5882 
2452       -9999      124.7786   -9999      -9999      -9999      -9999      -9999      -9999      57         -9999      -9999      -9999      -9999      -9999      -9999      2451.7882 
2452.2     -9999      124.3304   -9999      -9999      -9999      -9999      -9999      -9999      57         -9999      -9999      -9999      -9999      -9999      -9999      2451.9881 
2452.4     -9999      117.81     -9999      -9999      -9999      -9999      -9999      -9999      57         -9999      -9999      -9999      -9999      -9999      -9999      2452.188  
2452.6     -9999      114.1108   -9999      -9999      -9999      -9999      -9999      -9999      57         -9999      -9999      -9999      -9999      -9999      -9999      2452.388  
2452.8     -9999      112.7119   -9999      -9999      -9999      -9999      -9999      -9999      57         -9999      -9999      -9999      -9999      -9999      -9999      2452.5879 
2453       -9999      110.3687   -9999      -9999      -9999      -9999      -9999      -9999      57         -9999      -9999      -9999      -9999      -9999      -9999      2452.7878 
2453.2     -9999      110.8605   -9999      82.1239    -0.003145393 -0.005629583 0.02454476 -0.06447696 57         43.9405    82.1239    1.5133     1.0921     1.685500025749207 -9999      2452.9878 
2453.4     18.4767    111.9552   -9999      81.511     0.005671319 0.01971378 0.09003972 0.05143664 57         43.7012    81.511     1.7269     1.2431     2.03439998626709 2.1583     2453.1877 
2453.6     18.1669    112.1126   -9999      79.5424    -0.00360061 0.005369021 0.08995254 0.1103071  57         43.036     79.5424    1.6297     1.2026     2.267600059509277 2.1967     2453.3876 
2453.8     18.4054    113.3011   -9999      79.6358    -0.006725255 0.004168488 0.1135865  0.2211598  57         42.7733    79.6358    1.0775     0.8585     1.423699975013733 2.1912     2453.5876 
2454       18.2217    115.5934   -9999      80.7889    -0.03541339 -0.05997727 0.01534521 0.1632559  57         43.6244    80.7889    0.8755     0.725      0.9228000044822693 2.183      2453.7875 
2454.2     18.1639    119.9063   -9999      84.0243    -0.04774283 -0.09610368 -0.05329581 0.08957489 57         47.4605    84.0243    1.0219     0.8438     0.9944999814033508 2.0883     2453.9874 
2454.4     18.1338    122.7508   -9999      87.5199    -0.04178134 -0.08947796 -0.04613627 0.1054775  57         50.5174    87.5199    1.3653     1.1103     1.422700047492981 1.9448     2454.1874 
2454.6     18.4384    121.6151   -9999      88.3792    -0.0510952 -0.1184251 -0.1054978 0.01938405 57         48.3587    88.3792    1.5979     1.3005     1.998800039291382 1.9437     2454.3873 
2454.8     18.4622    118.6627   -9999      86.8818    -0.0337739 -0.08368544 -0.04746886 0.09106716 57         45.6243    86.8818    1.387      1.1652     1.950000047683716 2.0879     2454.5872 
2455       18.3212    115.5141   -9999      84.8303    -0.04591159 -0.1127635 -0.09584416 0.04584769 57         45.6773    84.8303    1.0826     0.945      1.298799991607666 2.208      2454.7872 
2455.2     18.2588    112.3816   -9999      83.1261    -0.03743715 -0.09969996 -0.07839117 0.06718064 57         47.7849    83.1261    1.3102     1.1358     1.302299976348877 2.1735     2454.9871 
2455.4     18.4157    110.4007   -9999      80.6652    -0.04529252 -0.1168815 -0.1037301 0.05841636 57         47.4341    80.6652    1.6846     1.4449     2.108700037002564 2.1054     2455.187  
2455.6     18.5912    110.3423   -9999      80.4429    -0.05431624 -0.1461674 -0.1669431 -0.0346295 57         42.4705    80.4429    1.3984     1.227      1.943699955940247 2.1664     2455.387  
2455.8     18.3525    109.8483   -9999      83.7138    -0.05334571 -0.1505911 -0.1873557 -0.09347514 57         41.6508    83.7138    1.2036     1.0768     1.323500037193298 2.2327     2455.5869 
2456       18.4315    109.2386   -9999      85.2205    -0.04587759 -0.1418408 -0.1850504 -0.1285139 57         45.8174    85.2205    1.3673     1.2286     1.496399998664856 2.1273     2455.7868 
2456.2     18.6869    109.9597   -9999      82.5234    -0.03085202 -0.1065612 -0.1194517 -0.04375619 57         46.8768    82.5234    1.3241     1.2077     1.661700010299683 2.049      2455.9868 
2456.4     18.4474    110.8453   -9999      79.0977    -0.04432768 -0.1372559 -0.169789  -0.08970605 57         44.034     79.0977    1.1625     1.0834     1.317600011825562 2.1269     2456.1867 
2456.6     18.4075    110.1758   -9999      78.962     -0.04567435 -0.1437287 -0.1850502 -0.1091531 57         42.5617    78.962     1.3018     1.2216     1.350100040435791 2.2319     2456.3866 
2456.8     18.351     109.1296   -9999      82.0218    -0.05791954 -0.1791362 -0.2601756 -0.2309305 57         43.0905    82.0218    1.5562     1.4631     1.698099970817566 2.2535     2456.5865 
2457       18.3313    108.5314   -9999      88.276     -0.05353334 -0.1762465 -0.2697851 -0.28745   57         44.2738    88.276     1.6347     1.5474     1.885300040245056 2.2629     2456.7865 
2457.2     18.2884    111.8531   -9999      94.7322    -0.04667723 -0.168753  -0.2719271 -0.3423144 57         44.6215    94.7322    1.4194     1.3583     1.691900014877319 2.2763     2456.9864 
2457.4     18.2787    116.1333   -9999      95.8395    -0.0461374 -0.1676418 -0.2734035 -0.374639  57         44.0483    95.8395    1.2237     1.1798     1.315899968147278 2.2568     2457.1863 
2457.6     18.1984    119.6564   -9999      92.6746    -0.04710296 -0.177342  -0.3037014 -0.461451  57         45.1987    92.6746    1.2853     1.2419     1.304900050163269 2.2054     2457.3863 
2457.8     18.1356    121.2438   -9999      87.7637    -0.03869938 -0.1617859 -0.284596  -0.4842024 57         45.8563    87.7637    1.1895     1.1541     1.335800051689148 2.138      2457.5862 
2458       18.2084    121.6118   -9999      84.6019    -0.03662952 -0.1595084 -0.2838809 -0.513996  57         45.1738    84.6019    1.0493     1.0227     1.06630003452301 2.094      2457.7861 
2458.2     17.9958    120.0523   -9999      83.3665    -0.02678897 -0.1401081 -0.2522769 -0.5001385 57         45.9356    83.3665    1.1728     1.1435     1.127500057220459 2.0262     2457.9869 
2458.4     18.4994    118.2263   -9999      84.0942    -0.02171301 -0.1252047 -0.216595  -0.4490012 57         48.602     84.0942    1.2434     1.2103     1.285199999809265 1.9515     2458.1877 
2458.6     18.3333    116.8981   -9999      86.0424    -0.03171058 -0.145557  -0.2432607 -0.4656692 57         49.056     86.0424    1.2501     1.2134     1.23580002784729 2.0016     2458.3884 
2458.8     18.2687    115.1169   -9999      87.5086    -0.04134128 -0.1733948 -0.2996897 -0.5643184 57         44.1462    87.5086    1.3248     1.2816     1.30429995059967 2.0812     2458.5892 
2459       18.5248    112.8481   -9999      85.604     -0.03547956 -0.1629889 -0.2860623 -0.5830599 57         43.3214    85.604     1.3401     1.2912     1.314299941062927 2.1206     2458.79   
