~Version
 VERS              .         2.0                           : CWLS LOG ASCII STANDARD - VERSION 2.0
 WRAP              .         NO                            : ONE LINE PER DEPTH STEP
 DLM               .         SPACE                         : DELIMITING CHARACTER(SPACE TAB OR COMMA)
~Well Information
#_______________________________________________________________________________
#
#PARAMETER_NAME    .UNIT     VALUE                         : DESCRIPTION
#_______________________________________________________________________________
STRT               .m        2425                          : First reference value
STOP               .m        4697.8                        : Last reference value
STEP               .m        0.2                           : Step increment
NULL               .         -9999                         : Missing value
COMP               .         PETROLEO BRASILEIRO S/A       : Company
WELL               .         3-ESS-131_resample            : Well name
FLD                .         GOLFINHO                      : Field
LOC                .                                       : Location
CNTY               .                                       : County
STAT               .         ESPIRITO SANTO                : State
CTRY               .                                       : Country
SRVC               .                                       : Service Company
DATE               .                                       : Date
API                .         342710287600                  : API number
EDF                .M        25.00                         : Elevation Derrick Floor
GDAT               .         SIRGAS2000                    : Geodetic Datum
HZCS               .         UTM                           : Horizontal Coordinate System
LAT                .         -20.005487                    : Latitude
LONG               .         -39.535744                    : Longitude
MC                 .         39 W                          : Meridiano Central
ORIG               .         SIGEO EXPORTACAO PERFIL       : Origem dos dados
WDMS               .M        1383.00                       : Water Depth to Mean Sea Level
XCOORD             .         443959.60                     : Surface X
YCOORD             .         7787821.90                    : Surface Y
~Parameter Information Block
#_______________________________________________________________________________
#
#PARAMETER_NAME    .UNIT     VALUE                         : DESCRIPTION
#_______________________________________________________________________________
SET                .         ESS131_resample               : 
TLFamily_CALI      .         Caliper                       : 
TLFamily_DEPT      .         Measured Depth                : 
TLFamily_DT        .         Compressional Slowness        : 
TLFamily_DTS       .         Shear Slowness                : 
TLFamily_GR        .         Gamma Ray                     : 
TLFamily_INPEFA_1  .                                       : 
TLFamily_INPEFA_2  .                                       : 
TLFamily_INPEFA_3  .                                       : 
TLFamily_INPEFA_4  .                                       : 
TLFamily_LITO      .                                       : 
TLFamily_NPHI      .         Neutron Porosity              : 
TLFamily_OG        .                                       : 
TLFamily_RESD      .         Deep Resistivity              : 
TLFamily_RESM      .         Medium Resistivity            : 
TLFamily_RESS      .         Shallow Resistivity           : 
TLFamily_RHOB      .         Bulk Density                  : 
TLFamily_TVD       .         True Vertical Depth           : 
~Curve Information
#_______________________________________________________________________________
#
#LOGNAME           .UNIT     LOG_ID                        : DESCRIPTION
#_______________________________________________________________________________
DEPT               .m                                      :  
CALI               .in                                     :  
DT                 .us/ft                                  :  
DTS                .us/ft                                  :  
GR                 .gAPI                                   : GAMMA RAY 
INPEFA_1           .                                       :  
INPEFA_2           .                                       :  
INPEFA_3           .                                       :  
INPEFA_4           .                                       :  
LITO               .Sem                                    : Não definido 
NPHI               .%                                      : THERMAL NEUTRON POROSITY (ORIGINAL RATIO METHOD) IN SELECTED LITHOLOGY 
OG                 .                                       :  
RESD               .ohm.m                                  :  
RESM               .ohm.m                                  :  
RESS               .ohm-m                                  :  
RHOB               .g/cm3                                  :  
TVD                .                                       : Vertical Depth 
~Ascii
# ...
3187.6     13.6131    101.6901   220.3031   140.4221   0.04812635 -0.08676691 0.1646357  0.2780303  54         25.4084    140.4221   0.8388     0.8384     0.8652999997138977 2.3476     3187.3188 
3187.8     13.6396    101.8085   222.4597   143.8748   0.04907671 -0.07352851 0.2036637  0.3809029  54         25.6815    143.8748   0.8285     0.8282     0.853600025177002 2.3512     3187.5188 
3188       13.668     102.1443   224.6551   143.8589   0.04639082 -0.06688048 0.2307587  0.4723563  54         26.4858    143.8589   0.8225     0.8226     0.8460000157356262 2.3569     3187.7188 
3188.2     13.6778    102.801    223.5983   142.8194   0.02564561 -0.09488388 0.210074   0.5516171  54         26.8504    142.8194   0.8201     0.8208     0.8424999713897705 2.3632     3187.9188 
3188.4     13.667     103.2642   222.0582   142.0025   -0.01034113 -0.180324  0.04634599 0.3603711  54         26.9367    142.0025   0.8268     0.8281     0.8442999720573425 2.3623     3188.1188 
3188.6     13.6117    102.7369   222.0428   143.1531   0.001249795 -0.1504149 0.08815703 0.4001592  54         26.429     143.1531   0.8409     0.8425     0.8579999804496765 2.3496     3188.3188 
3188.8     13.577     102.5737   221.1918   143.2518   -0.008186896 -0.1774026 0.01768379 0.2662812  54         26.155     143.2518   0.8459     0.8474     0.8679999709129334 2.3387     3188.5188 
3189       13.553     104.1941   219.0478   137.0107   0.0000342  -0.1531249 0.04736703 0.2587387  54         25.7756    137.0107   0.8323     0.8336     0.8554999828338623 2.3385     3188.7188 
3189.2     13.567     106.5403   225.0069   131.3213   -0.01720544 -0.1958044 -0.05140014 0.06468057 54         25.3551    131.3213   0.8135     0.8147     0.8337000012397766 2.3383     3188.9188 
3189.4     13.5908    107.2276   230.4275   129.9991   0.00297499 -0.1542162 -0.00900198 0.007818701 54         25.5193    129.9991   0.7912     0.7927     0.8091999888420105 2.333      3189.1188 
3189.6     13.6181    107.386    232.4581   134.7785   0.02429041 -0.09772817 0.08603574 0.0768348  54         26.6735    134.7785   0.7875     0.7895     0.7885000109672546 2.3273     3189.3187 
3189.8     13.5656    106.7321   233.2036   144.8027   0.0171169  -0.1062928 0.06921465 0.02650123 54         28.3279    144.8027   0.8216     0.8238     0.8098999857902527 2.3294     3189.5187 
3190       13.5518    104.9944   227.3401   152.6189   0.02440334 -0.07648834 0.1293041  0.1030024  54         28.3382    152.6189   0.8644     0.8657     0.8521000146865845 2.3461     3189.7187 
3190.2     13.5311    103.4187   220.9122   153.8983   0.005768767 -0.1104194 0.07346534 0.04465875 54         27.3267    153.8983   0.8947     0.894      0.8827999830245972 2.3669     3189.9187 
3190.4     13.5027    103.7941   220.2567   150.4515   -0.009129806 -0.140981  0.007181253 -0.07299536 54         25.6713    150.4515   0.8781     0.876      0.88919997215271 2.3682     3190.1187 
3190.6     13.4946    105.699    225.0328   143.9808   -0.01089554 -0.1429815 -0.01002383 -0.1382522 54         24.1975    143.9808   0.8019     0.7997     0.8220000267028809 2.3625     3190.3187 
3190.8     13.4969    107.906    230.5765   137.912    -0.01502614 -0.1574148 -0.06378143 -0.2935996 54         24.4399    137.912    0.763      0.7618     0.7490000128746033 2.3522     3190.5187 
3191       13.515     108.8669   226.722    136.6951   0.003081355 -0.1108127 0.004890095 -0.2773888 54         26.8542    136.6951   0.834      0.8342     0.791700005531311 2.3188     3190.7187 
3191.2     13.5306    107.8985   224.1224   142.403    0.000898619 -0.1116133 -0.004540009 -0.3306064 54         29.4983    142.403    0.9048     0.906      0.8826000094413757 2.2892     3190.9187 
3191.4     13.4838    104.991    222.9236   151.8525   0.000656258 -0.1085021 -0.01122513 -0.3899038 54         28.8621    151.8525   0.9272     0.9288     0.9143999814987183 2.2946     3191.1187 
3191.6     13.4534    101.5731   220.755    156.6101   0.007388853 -0.09139658 0.006711745 -0.4196246 54         27.5882    156.6101   0.9305     0.9317     0.9207999706268311 2.3231     3191.3187 
3191.8     13.4397    99.3784    219.9785   153.541    0.0269271  -0.03766232 0.1054851  -0.297688  54         27.8924    153.541    0.9271     0.9278     0.9185000061988831 2.343      3191.5186 
3192       13.4491    97.6329    216.1885   148.1948   0.02018343 -0.03792358 0.1213928  -0.2315154 54         27.2264    148.1948   0.9254     0.9257     0.9144999980926514 2.3477     3191.7186 
3192.2     13.4905    96.8357    213.3979   145.6735   0.005755449 -0.0563816 0.107105   -0.1717089 54         26.4434    145.6735   0.9292     0.929      0.9168000221252441 2.3447     3191.9189 
3192.4     13.4933    96.7905    212.3911   142.718    -0.03922563 -0.1600917 -0.08949815 -0.4118237 54         26.1902    142.718    0.9346     0.9337     0.9210000038146973 2.344      3192.1192 
3192.6     13.5036    97.5327    211.2235   136.7495   -0.008104472 -0.09428772 0.005657082 -0.3154129 54         26.0933    136.7495   0.9404     0.9389     0.9261000156402588 2.3404     3192.3195 
3192.8     13.5194    98.5572    215.4669   133.2439   -0.02871314 -0.1370842 -0.07752611 -0.4164529 54         25.7079    133.2439   0.9402     0.938      0.9286999702453613 2.3275     3192.5197 
3193       13.5276    98.9847    215.4164   134.7252   -0.02758007 -0.1402376 -0.1098198 -0.5055367 54         25.6686    134.7252   0.9306     0.928      0.9211999773979187 2.314      3192.72   
3193.2     13.5332    98.5585    214.358    138.8496   -0.01371376 -0.1124422 -0.08322661 -0.5232175 54         26.4491    138.8496   0.9185     0.9157     0.9089000225067139 2.3104     3192.92   
3193.4     13.5376    97.4797    213.6073   144.0079   -0.004045485 -0.08847541 -0.05120665 -0.5042287 54         27.0624    144.0079   0.9095     0.9069     0.8989999890327454 2.319      3193.12   
3193.6     13.5389    96.0731    213.0709   147.0823   0.00984745 -0.05613251 -0.001691389 -0.4491646 54         27.2556    147.0823   0.9103     0.9081     0.8956000208854675 2.3365     3193.32   
3193.8     13.5352    93.5784    210.0302   145.9147   0.04081491 0.02410154 0.15369    -0.1972937 54         26.5929    145.9147   0.9265     0.9247     0.9061999917030335 2.3441     3193.52   
3194       13.5298    91.8799    204.6288   141.5411   0.0230735  0.00030271 0.1390325  -0.108149  54         26.1534    141.5411   0.9533     0.9517     0.9333000183105469 2.3425     3193.72   
3194.2     13.5218    91.586     201.6137   137.5123   0.0266576  0.02879643 0.2277378  0.1688097  54         25.3027    137.5123   0.9652     0.9638     0.9556000232696533 2.3483     3193.9199 
3194.4     13.5053    92.8728    202.6582   136.5886   -0.01738035 -0.0609593 0.09263369 0.158959   54         24.1275    136.5886   0.9547     0.9534     0.9514999985694885 2.3602     3194.1199 
3194.6     13.4981    94.9993    204.4007   136.3096   -0.04297953 -0.1196289 -0.01553734 0.1100554  54         23.8612    136.3096   0.9407     0.9396     0.934499979019165 2.3654     3194.3199 
3194.8     13.5011    97.2343    209.8191   133.1556   -0.06051646 -0.162736  -0.1023807 0.06714334 54         23.8102    133.1556   0.9368     0.9361     0.9287999868392944 2.3656     3194.5199 
3195       13.5101    99.0016    212.8778   131.2517   -0.04648407 -0.1610666 -0.15692   -0.06475119 54         24.2552    131.2517   0.9311     0.9309     0.9258000254631043 2.3713     3194.7199 
3195.2     13.5099    99.6847    213.4644   135.6112   -0.01458345 -0.0808247 -0.01955983 0.1176668  54         25.0385    135.6112   0.9232     0.9238     0.9174000024795532 2.3776     3194.9199 
3195.4     13.5066    99.9704    213.3219   146.4239   0.006413724 -0.03331427 0.06728517 0.2925161  54         24.8972    146.4239   0.9201     0.9217     0.913100004196167 2.3759     3195.1199 
3195.6     13.5078    99.2422    212.5206   150.3751   -0.002915728 -0.04199116 0.06425323 0.3606046  54         24.3235    150.3751   0.923      0.9258     0.9136000275611877 2.3685     3195.3199 
