~Version
 VERS              .         2.0                           : CWLS LOG ASCII STANDARD - VERSION 2.0
 WRAP              .         NO                            : ONE LINE PER DEPTH STEP
 DLM               .         SPACE                         : DELIMITING CHARACTER(SPACE TAB OR COMMA)
~Well Information
#_______________________________________________________________________________
#
#PARAMETER_NAME    .UNIT     VALUE                         : DESCRIPTION
#_______________________________________________________________________________
STRT               .m        2425                          : First reference value
STOP               .m        4697.8                        : Last reference value
STEP               .m        0.2                           : Step increment
NULL               .         -9999                         : Missing value
COMP               .         PETROLEO BRASILEIRO S/A       : Company
WELL               .         3-ESS-131_resample            : Well name
FLD                .         GOLFINHO                      : Field
LOC                .                                       : Location
CNTY               .                                       : County
STAT               .         ESPIRITO SANTO                : State
CTRY               .                                       : Country
SRVC               .                                       : Service Company
DATE               .                                       : Date
API                .         342710287600                  : API number
EDF                .M        25.00                         : Elevation Derrick Floor
GDAT               .         SIRGAS2000                    : Geodetic Datum
HZCS               .         UTM                           : Horizontal Coordinate System
LAT                .         -20.005487                    : Latitude
LONG               .         -39.535744                    : Longitude
MC                 .         39 W                          : Meridiano Central
ORIG               .         SIGEO EXPORTACAO PERFIL       : Origem dos dados
WDMS               .M        1383.00                       : Water Depth to Mean Sea Level
XCOORD             .         443959.60                     : Surface X
YCOORD             .         7787821.90                    : Surface Y
~Parameter Information Block
#_______________________________________________________________________________
#
#PARAMETER_NAME    .UNIT     VALUE                         : DESCRIPTION
#_______________________________________________________________________________
SET                .         ESS131_resample               : 
TLFamily_CALI      .         Caliper                       : 
TLFamily_DEPT      .         Measured Depth                : 
TLFamily_DT        .         Compressional Slowness        : 
TLFamily_DTS       .         Shear Slowness                : 
TLFamily_GR        .         Gamma Ray                     : 
TLFamily_INPEFA_1  .                                       : 
TLFamily_INPEFA_2  .                                       : 
TLFamily_INPEFA_3  .                                       : 
TLFamily_INPEFA_4  .                                       : 
TLFamily_LITO      .                                       : 
TLFamily_NPHI      .         Neutron Porosity              : 
TLFamily_OG        .                                       : 
TLFamily_RESD      .         Deep Resistivity              : 
TLFamily_RESM      .         Medium Resistivity            : 
TLFamily_RESS      .         Shallow Resistivity           : 
TLFamily_RHOB      .         Bulk Density                  : 
TLFamily_TVD       .         True Vertical Depth           : 
~Curve Information
#_______________________________________________________________________________
#
#LOGNAME           .UNIT     LOG_ID                        : DESCRIPTION
#_______________________________________________________________________________
DEPT               .m                                      :  
CALI               .in                                     :  
DT                 .us/ft                                  :  
DTS                .us/ft                                  :  
GR                 .gAPI                                   : GAMMA RAY 
INPEFA_1           .                                       :  
INPEFA_2           .                                       :  
INPEFA_3           .                                       :  
INPEFA_4           .                                       :  
LITO               .Sem                                    : Não definido 
NPHI               .%                                      : THERMAL NEUTRON POROSITY (ORIGINAL RATIO METHOD) IN SELECTED LITHOLOGY 
OG                 .                                       :  
RESD               .ohm.m                                  :  
RESM               .ohm.m                                  :  
RESS               .ohm-m                                  :  
RHOB               .g/cm3                                  :  
TVD                .                                       : Vertical Depth 
~Ascii
# ...
2751       14.1889    123.7312   304.7919   111.4891   0.1545885  -0.3681275 -0.5410043 -0.2724193 49         49.1164    111.4891   0.7232     0.6962     0.5983999967575073 2.0082     2750.7296 
2751.2     13.8959    122.837    309.2751   111.469    0.182354   -0.3125967 -0.4501586 -0.20901   49         49.2205    111.469    0.7043     0.6785     0.6211000084877014 1.9221     2750.9296 
2751.4     13.6491    121.1905   303.0722   110.422    0.1929829  -0.2905501 -0.4090891 -0.2133456 49         46.9143    110.422    0.6043     0.5831     0.5346000194549561 1.8612     2751.1296 
2751.6     13.8747    118.5975   293.9643   106.5333   0.208784   -0.2323073 -0.2578147 0.02647493 49         44.5156    106.5333   0.6565     0.6339     0.4997000098228455 1.9471     2751.3296 
2751.8     13.6283    114.8199   293.8342   105.1463   0.1931818  -0.2690167 -0.3007093 -0.007771948 49         41.3274    105.1463   1.0087     0.9714     0.6608999967575073 2.1148     2751.5296 
2752       13.454     113.1175   297.1018   111.6947   0.2020987  -0.2375587 -0.2110979 0.1328512  49         37.8313    111.6947   1.1731     1.1236     0.906000018119812 2.1296     2751.7296 
2752.2     13.6205    112.8144   302.1074   119.3141   0.1721992  -0.298524  -0.2827576 0.09341954 49         39.072     119.3141   0.8088     0.769      0.691100001335144 2.0049     2751.9296 
2752.4     14.3236    116.2351   299.9758   116.6073   0.1757036  -0.2947722 -0.2624296 0.1190898  49         41.7519    116.6073   0.6931     0.6552     0.524399995803833 1.9713     2752.1296 
2752.6     14.428     119.1571   288.5537   111.5397   0.1753074  -0.2871301 -0.2134051 0.2305594  49         41.7048    111.5397   0.831      0.7837     0.583299994468689 2.0344     2752.3295 
2752.8     14.2637    120.7384   291.7107   112.0264   0.1486174  -0.3459355 -0.2892357 0.1946951  49         42.1603    112.0264   0.8538     0.8073     0.6761000156402588 2.0371     2752.5295 
2753       15.2566    118.5529   294.2508   115.4849   0.1375796  -0.3776143 -0.3375336 0.1465107  49         42.6983    115.4849   0.6775     0.6458     0.5698999762535095 1.977      2752.7295 
2753.2     14.039     115.8549   295.2191   113.0497   0.1261198  -0.4053364 -0.3728824 0.1272698  49         42.2962    113.0497   0.6652     0.641      0.5220000147819519 1.9918     2752.9295 
2753.4     13.4044    114.3894   305.4187   106.9024   0.121425   -0.4317226 -0.430281  0.03322792 49         41.9453    106.9024   0.7829     0.7617     0.6254000067710877 2.0619     2753.1295 
2753.6     13.4412    114.6152   289.0154   101.3367   0.1068007  -0.4760287 -0.5251331 -0.1555066 49         41.1727    101.3367   0.8062     0.7911     0.7031000256538391 2.1372     2753.3295 
2753.8     13.347     113.5367   277.4619   92.7992    0.1318841  -0.4391931 -0.4910861 -0.2298577 49         36.5484    92.7992    0.8279     0.8176     0.7117999792098999 2.2277     2753.5295 
2754       13.0752    106.9154   275.8206   79.5573    0.1614082  -0.3749084 -0.3816699 -0.1546133 49         28.1428    79.5573    0.9646     0.9556     0.8187000155448914 2.3221     2753.7295 
2754.2     12.9219    98.2591    286.8346   67.3091    0.1645762  -0.368579  -0.3680291 -0.1710301 49         21.9395    67.3091    1.1379     1.1319     1.000900030136108 2.385      2753.9295 
2754.4     12.907     91.3996    296.6898   62.1238    0.1579515  -0.3767366 -0.3688537 -0.1633434 49         22.2657    62.1238    1.2228     1.2243     1.146800041198731 2.3741     2754.1295 
2754.6     12.9069    94.1107    305.9782   65.4156    0.1600011  -0.3848304 -0.3976313 -0.2332344 49         28.3329    65.4156    1.1304     1.1397     1.151299953460693 2.2796     2754.3295 
2754.8     13.0903    111.7466   298.7677   72.9828    0.151005   -0.4039997 -0.4349915 -0.3065362 49         35.7789    72.9828    0.9037     0.915      0.9550999999046326 2.1269     2754.5295 
2755       13.6328    130.0987   297.9196   80.4949    0.1412246  -0.436546  -0.5129112 -0.4636793 49         41.7599    80.4949    0.7404     0.7503     0.7649999856948853 2.009      2754.7295 
2755.2     14.1662    136.5164   294.9079   88.8741    0.1671667  -0.3996649 -0.4941605 -0.5843439 49         42.9067    88.8741    0.6616     0.6694     0.6653000116348267 1.9827     2754.9295 
2755.4     14.7205    136.7758   292.5314   94.8823    0.2193654  -0.2739565 -0.2709988 -0.3535834 49         42.1947    94.8823    0.6508     0.6571     0.6320000290870667 2.0318     2755.1295 
2755.6     14.7702    135.2984   296.605    96.1595    0.2207871  -0.2647256 -0.2428402 -0.3033687 49         41.9297    96.1595    0.6787     0.6838     0.6593999862670898 2.0423     2755.3295 
2755.8     14.6755    132.6378   297.595    98.3934    0.2140556  -0.2602613 -0.2062199 -0.1838356 49         43.0929    98.3934    0.6684     0.6725     0.6679999828338623 1.9694     2755.5295 
2756       13.929     129.2756   281.1928   103.5462   0.1993323  -0.2973428 -0.2729877 -0.2279783 49         45.7558    103.5462   0.6473     0.6511     0.637499988079071 1.9194     2755.7294 
2756.2     13.7962    125.8571   274.8484   107.738    0.1853818  -0.3257476 -0.3304097 -0.296297  49         46.8371    107.738    0.6477     0.6514     0.6452999711036682 1.9479     2755.9294 
2756.4     14.6262    118.9497   262.8427   107.2929   0.2073783  -0.2821495 -0.2711621 -0.2354182 49         45.4184    107.2929   0.62       0.6232     0.630299985408783 1.9928     2756.1294 
2756.6     14.6419    111.1238   244.8897   105.2982   0.1943987  -0.3127671 -0.3431378 -0.3553706 49         41.1174    105.2982   0.6277     0.6308     0.6051999926567078 2.0739     2756.3294 
2756.8     13.1191    106.2524   239.3325   99.1607    0.2329653  -0.2277307 -0.2135797 -0.2329606 49         32.8743    99.1607    0.811      0.8166     0.7236999869346619 2.197      2756.5294 
2757       13.0278    103.3998   242.6284   87.976     0.2447459  -0.1887869 -0.1382995 -0.1066948 49         25.5493    87.976     1.0437     1.0539     1.012099981307983 2.287      2756.7294 
2757.2     12.9959    101.4761   253.5718   79.1508    0.2526536  -0.1629502 -0.09424356 -0.02061969 49         24.7131    79.1508    1.0889     1.1012     1.14740002155304 2.2988     2756.9294 
2757.4     13.0438    101.4744   264.777    80.5755    0.2522752  -0.1434421 -0.04132871 0.1394158  49         28.031     80.5755    0.9587     0.9685     1.044199943542481 2.2258     2757.1294 
2757.6     13.3396    108.2593   261.1866   85.2464    0.210993   -0.2356311 -0.2209115 -0.06086458 49         33.5859    85.2464    0.7932     0.7989     0.857699990272522 2.1368     2757.3294 
2757.8     14.0696    115.2234   235.2418   89.3908    0.2373428  -0.1781628 -0.1527746 -0.01196614 49         33.6011    89.3908    0.7076     0.71       0.713699996471405 2.1195     2757.5294 
2758       13.285     111.7536   205.9554   92.8288    0.238291   -0.1769812 -0.1802672 -0.07890433 49         25.5471    92.8288    0.8573     0.8569     0.7508000135421753 2.1975     2757.7294 
2758.2     13.0779    99.2596    198.3538   88.9981    0.2723436  -0.08987549 -0.03892207 0.108444   49         15.7612    88.9981    1.383      1.378      1.101500034332275 2.3539     2757.9294 
2758.4     13.0295    82.0175    198.6469   75.592     0.2582674  -0.114382  -0.09192443 0.07707546 49         14.2459    75.592     2.097      2.0907     1.832299947738648 2.4418     2758.1294 
2758.6     13.0397    85.3435    241.0682   64.4277    0.2644457  -0.0903933 -0.05809693 0.1691225  49         18.7087    64.4277    1.9125     1.9015     2.12689995765686 2.3394     2758.3294 
2758.8     13.0417    101.2976   265.6545   67.1068    0.247882   -0.1280482 -0.14583   0.08851284 49         25.4789    67.1068    1.0313     1.0218     1.184399962425232 2.1217     2758.5294 
2759       13.7506    118.5066   274.3942   77.2759    0.2429894  -0.1419428 -0.2034373 0.00071501 49         32.3075    77.2759    0.7498     0.7456     0.7150999903678894 2.0682     2758.7294 
2759.2     13.2167    120.6874   279.8456   87.2024    0.2423735  -0.1455936 -0.2431193 -0.08266483 49         35.5865    87.2024    0.835      0.8352     0.7825000286102295 2.1628     2758.9294 
