~Version
 VERS              .         2.0                           : CWLS LOG ASCII STANDARD - VERSION 2.0
 WRAP              .         NO                            : ONE LINE PER DEPTH STEP
 DLM               .         SPACE                         : DELIMITING CHARACTER(SPACE TAB OR COMMA)
~Well Information
#_______________________________________________________________________________
#
#PARAMETER_NAME    .UNIT     VALUE                         : DESCRIPTION
#_______________________________________________________________________________
STRT               .m        2425                          : First reference value
STOP               .m        4697.8                        : Last reference value
STEP               .m        0.2                           : Step increment
NULL               .         -9999                         : Missing value
COMP               .         PETROLEO BRASILEIRO S/A       : Company
WELL               .         3-ESS-131_resample            : Well name
FLD                .         GOLFINHO                      : Field
LOC                .                                       : Location
CNTY               .                                       : County
STAT               .         ESPIRITO SANTO                : State
CTRY               .                                       : Country
SRVC               .                                       : Service Company
DATE               .                                       : Date
API                .         342710287600                  : API number
EDF                .M        25.00                         : Elevation Derrick Floor
GDAT               .         SIRGAS2000                    : Geodetic Datum
HZCS               .         UTM                           : Horizontal Coordinate System
LAT                .         -20.005487                    : Latitude
LONG               .         -39.535744                    : Longitude
MC                 .         39 W                          : Meridiano Central
ORIG               .         SIGEO EXPORTACAO PERFIL       : Origem dos dados
WDMS               .M        1383.00                       : Water Depth to Mean Sea Level
XCOORD             .         443959.60                     : Surface X
YCOORD             .         7787821.90                    : Surface Y
~Parameter Information Block
#_______________________________________________________________________________
#
#PARAMETER_NAME    .UNIT     VALUE                         : DESCRIPTION
#_______________________________________________________________________________
SET                .         ESS131_resample               : 
TLFamily_CALI      .         Caliper                       : 
TLFamily_DEPT      .         Measured Depth                : 
TLFamily_DT        .         Compressional Slowness        : 
TLFamily_DTS       .         Shear Slowness                : 
TLFamily_GR        .         Gamma Ray                     : 
TLFamily_INPEFA_1  .                                       : 
TLFamily_INPEFA_2  .                                       : 
TLFamily_INPEFA_3  .                                       : 
TLFamily_INPEFA_4  .                                       : 
TLFamily_LITO      .                                       : 
TLFamily_NPHI      .         Neutron Porosity              : 
TLFamily_OG        .                                       : 
TLFamily_RESD      .         Deep Resistivity              : 
TLFamily_RESM      .         Medium Resistivity            : 
TLFamily_RESS      .         Shallow Resistivity           : 
TLFamily_RHOB      .         Bulk Density                  : 
TLFamily_TVD       .         True Vertical Depth           : 
~Curve Information
#_______________________________________________________________________________
#
#LOGNAME           .UNIT     LOG_ID                        : DESCRIPTION
#_______________________________________________________________________________
DEPT               .m                                      :  
CALI               .in                                     :  
DT                 .us/ft                                  :  
DTS                .us/ft                                  :  
GR                 .gAPI                                   : GAMMA RAY 
INPEFA_1           .                                       :  
INPEFA_2           .                                       :  
INPEFA_3           .                                       :  
INPEFA_4           .                                       :  
LITO               .Sem                                    : Não definido 
NPHI               .%                                      : THERMAL NEUTRON POROSITY (ORIGINAL RATIO METHOD) IN SELECTED LITHOLOGY 
OG                 .                                       :  
RESD               .ohm.m                                  :  
RESM               .ohm.m                                  :  
RESS               .ohm-m                                  :  
RHOB               .g/cm3                                  :  
TVD                .                                       : Vertical Depth 
~Ascii
# ...
2900.4     13.0521    116.0821   248.9417   83.451     -0.1821145 0.02251518 -0.03288254 0.1000699  57         29.8319    83.451     0.8316     0.8296     0.8166999816894531 2.2112     2900.1292 
2900.6     13.0478    111.3748   235.7653   82.1016    -0.2124932 -0.03652458 -0.1121068 0.1718573  57         29.3493    82.1016    0.9036     0.9        0.8833000063896179 2.2072     2900.3292 
2900.8     13.0452    106.9831   226.478    78.5116    -0.2296262 -0.09558042 -0.2436289 0.06872189 57         28.2733    78.5116    0.9607     0.9555     0.961899995803833 2.2318     2900.5292 
2901       13.0387    105.0862   221.1179   73.8652    -0.2113992 -0.05890201 -0.1885996 0.2195665  57         26.237     73.8652    0.9426     0.9368     0.9753999710083008 2.2698     2900.7292 
2901.2     13.0331    104.4928   220.3261   69.1826    -0.2358457 -0.1161928 -0.2874571 0.2299289  57         24.1933    69.1826    0.8699     0.8647     0.9110999703407288 2.306      2900.9291 
2901.4     13.0232    106.519    223.5216   68.337     -0.2620269 -0.1949469 -0.4624717 0.0517412  57         23.4834    68.337     0.7953     0.7914     0.8288000226020813 2.325      2901.1291 
2901.6     13.0201    112.5802   234.8906   76.516     -0.2665875 -0.2267336 -0.567285  -0.1075502 57         25.3843    76.516     0.7551     0.7523     0.7723000049591065 2.2953     2901.3291 
2901.8     13.0389    117.6264   249.6058   87.2368    -0.2369621 -0.1908075 -0.5700501 -0.2087962 57         29.6612    87.2368    0.7585     0.7563     0.7598999738693237 2.2518     2901.5291 
2902       13.0642    119.3999   248.921    92.2711    -0.2073607 -0.1255945 -0.4777353 -0.1199033 57         32.1255    92.2711    0.8032     0.801      0.7953000068664551 2.222      2901.7291 
2902.2     13.0714    116.9056   240.1636   89.2575    -0.2104843 -0.1471536 -0.5475744 -0.2374809 57         31.4889    89.2575    0.8723     0.8693     0.8626000285148621 2.2061     2901.9291 
2902.4     13.0716    112.4745   228.4802   87.4189    -0.2089258 -0.1525186 -0.5905388 -0.3535608 57         29.7987    87.4189    0.9497     0.9452     0.9343000054359436 2.2063     2902.1291 
2902.6     13.0694    107.6042   218.0414   84.5433    -0.173259  -0.08211162 -0.4922746 -0.2715403 57         28.4109    84.5433    1.0441     1.0377     1.024500012397766 2.2177     2902.3291 
2902.8     13.0688    103.3527   209.309    77.5873    -0.1856194 -0.108087  -0.5472253 -0.3483609 57         26.7846    77.5873    1.0789     1.0712     1.101999998092651 2.2298     2902.5291 
2903       13.0732    101.665    198.915    68.0895    -0.1639288 -0.06733564 -0.4986151 -0.3251532 57         24.5775    68.0895    1.0179     1.0103     1.056900024414063 2.2594     2902.7291 
2903.2     13.0959    103.414    203.3182   60.1686    -0.1714885 -0.08392537 -0.5379059 -0.38989   57         23.4785    60.1686    0.9558     0.9492     0.9725000262260437 2.288      2902.9291 
2903.4     13.1127    107.1981   213.1491   57.3346    -0.1698547 -0.09090501 -0.5798429 -0.5081328 57         24.487     57.3346    0.944      0.9384     0.9492999911308289 2.2772     2903.1291 
2903.6     13.1135    109.8565   225.3517   65.351     -0.1496236 -0.05186925 -0.5341637 -0.5174457 57         26.2632    65.351     0.9297     0.9254     0.9463000297546387 2.242      2903.3291 
2903.8     13.111     111.7132   233.5245   77.2631    -0.1313889 -0.01126359 -0.4700444 -0.4583764 57         27.3052    77.2631    0.8977     0.8949     0.9144999980926514 2.2083     2903.529  
2904       13.1105    111.9767   233.538    82.0998    -0.1208336 0.01492112 -0.42233   -0.3852732 57         27.7603    82.0998    0.9106     0.909      0.9010999798774719 2.1777     2903.729  
2904.2     13.1017    111.8539   231.135    83.5022    -0.1173459 0.02913061 -0.3859811 -0.2873452 57         28.3414    83.5022    0.9878     0.9874     0.9686999917030335 2.1751     2903.929  
2904.4     13.1008    110.4908   230.6421   88.3336    -0.1357018 -0.01167103 -0.4564503 -0.3362684 57         29.2446    88.3336    1.0533     1.0541     1.060799956321716 2.1854     2904.129  
2904.6     13.0958    108.7368   220.9268   92.2228    -0.1275225 0.0000070  -0.4490969 -0.3279872 57         27.9362    92.2228    1.0653     1.0666     1.085299968719482 2.1893     2904.329  
2904.8     13.0779    106.913    211.4958   85.3919    -0.1190177 0.01992208 -0.4160951 -0.2678771 57         26.1469    85.3919    1.0792     1.0802     1.089200019836426 2.1753     2904.529  
2905       13.0719    106.3263   211.8182   72.5651    -0.1301507 -0.005082602 -0.4630653 -0.306123  57         25.6261    72.5651    1.1076     1.1082     1.118399977684021 2.1545     2904.729  
2905.2     13.0737    105.8367   211.0455   64.3349    -0.1223524 0.002957332 -0.4689997 -0.3370613 57         25.0258    64.3349    1.1231     1.1233     1.137799978256226 2.1526     2904.929  
2905.4     13.0814    105.2725   211.0868   64.5079    -0.1162481 0.01361061 -0.4610272 -0.3409143 57         24.6298    64.5079    1.1324     1.1325     1.141899943351746 2.1721     2905.129  
2905.6     13.0857    103.8174   210.156    63.3943    -0.1125127 0.0164259  -0.469678  -0.3742701 57         24.4585    63.3943    1.1362     1.1362     1.147600054740906 2.182      2905.329  
2905.8     13.0814    102.8753   210.1913   62.4028    -0.1041656 0.030543   -0.4608565 -0.4106143 57         24.8283    62.4028    1.1222     1.1223     1.132200002670288 2.184      2905.529  
2906       13.077     103.5708   210.488    62.379     -0.09680305 0.04447204 -0.4502707 -0.4689452 57         25.1126    62.379     1.1066     1.107      1.107100009918213 2.1865     2905.729  
2906.2     13.0719    105.0061   210.0035   63.6963    -0.06596741 0.1096597  -0.3504486 -0.4287187 57         24.8245    63.6963    1.105      1.1057     1.092399954795837 2.1844     2905.929  
2906.4     13.0714    105.3088   211.433    65.759     -0.03129013 0.2026526  -0.1665437 -0.209613  57         24.8184    65.759     1.1264     1.1275     1.099499940872192 2.183      2906.129  
2906.6     13.0654    105.5774   210.8546   65.749     -0.0282543 0.2229822  -0.1054673 -0.1138394 57         24.9508    65.749     1.152      1.1536     1.126399993896484 2.1874     2906.3289 
2906.8     13.0645    106.2943   212.1159   62.3539    -0.03107873 0.2459491  -0.01348471 0.1011114  57         24.5664    62.3539    1.1497     1.1518     1.128499984741211 2.1965     2906.5289 
2907       13.0608    107.379    212.8308   59.41      -0.0797364 0.1383656  -0.1926058 -0.09423165 57         24.4053    59.41      1.1391     1.1417     1.110700011253357 2.1997     2906.7289 
2907.2     13.0454    108.5078   212.3338   59.6451    -0.07072541 0.1561768  -0.1710336 -0.1116166 57         24.9819    59.6451    1.1396     1.1429     1.105399966239929 2.1875     2906.9289 
2907.4     13.0387    109.0636   216.3821   64.5034    -0.06596758 0.1676656  -0.148568  -0.09828774 57         25.9225    64.5034    1.1427     1.1469     1.106500029563904 2.1703     2907.1289 
2907.6     13.0229    108.7027   218.6209   69.1524    -0.08055438 0.1269588  -0.238322  -0.288572  57         25.8786    69.1524    1.1404     1.1454     1.106299996376038 2.1649     2907.3289 
2907.8     13.0105    108.3729   219.6026   69.3791    -0.05015349 0.1882324  -0.1525485 -0.3069583 57         25.8108    69.3791    1.1305     1.1363     1.096400022506714 2.1604     2907.5289 
2908       13.0004    108.4883   220.4904   69.3154    -0.03395231 0.228873   -0.07988477 -0.3056847 57         26.5201    69.3154    1.1266     1.1328     1.090100049972534 2.1531     2907.7289 
2908.2     13.0022    108.8957   221.2817   69.9648    -0.005266646 0.2977127  0.04501029 -0.2387187 57         27.0055    69.9648    1.1114     1.1175     1.086199998855591 2.1526     2907.9289 
2908.4     13.0006    109.1703   220.3484   69.7629    0.02465697 0.3778163  0.2089075  -0.08506794 57         26.5637    69.7629    1.0696     1.0747     1.050099968910217 2.1511     2908.1289 
