~Version
 VERS              .         2.0                           : CWLS LOG ASCII STANDARD - VERSION 2.0
 WRAP              .         NO                            : ONE LINE PER DEPTH STEP
 DLM               .         SPACE                         : DELIMITING CHARACTER(SPACE TAB OR COMMA)
~Well Information
#_______________________________________________________________________________
#
#PARAMETER_NAME    .UNIT     VALUE                         : DESCRIPTION
#_______________________________________________________________________________
STRT               .m        2425                          : First reference value
STOP               .m        4697.8                        : Last reference value
STEP               .m        0.2                           : Step increment
NULL               .         -9999                         : Missing value
COMP               .         PETROLEO BRASILEIRO S/A       : Company
WELL               .         3-ESS-131_resample            : Well name
FLD                .         GOLFINHO                      : Field
LOC                .                                       : Location
CNTY               .                                       : County
STAT               .         ESPIRITO SANTO                : State
CTRY               .                                       : Country
SRVC               .                                       : Service Company
DATE               .                                       : Date
API                .         342710287600                  : API number
EDF                .M        25.00                         : Elevation Derrick Floor
GDAT               .         SIRGAS2000                    : Geodetic Datum
HZCS               .         UTM                           : Horizontal Coordinate System
LAT                .         -20.005487                    : Latitude
LONG               .         -39.535744                    : Longitude
MC                 .         39 W                          : Meridiano Central
ORIG               .         SIGEO EXPORTACAO PERFIL       : Origem dos dados
WDMS               .M        1383.00                       : Water Depth to Mean Sea Level
XCOORD             .         443959.60                     : Surface X
YCOORD             .         7787821.90                    : Surface Y
~Parameter Information Block
#_______________________________________________________________________________
#
#PARAMETER_NAME    .UNIT     VALUE                         : DESCRIPTION
#_______________________________________________________________________________
SET                .         ESS131_resample               : 
TLFamily_CALI      .         Caliper                       : 
TLFamily_DEPT      .         Measured Depth                : 
TLFamily_DT        .         Compressional Slowness        : 
TLFamily_DTS       .         Shear Slowness                : 
TLFamily_GR        .         Gamma Ray                     : 
TLFamily_INPEFA_1  .                                       : 
TLFamily_INPEFA_2  .                                       : 
TLFamily_INPEFA_3  .                                       : 
TLFamily_INPEFA_4  .                                       : 
TLFamily_LITO      .                                       : 
TLFamily_NPHI      .         Neutron Porosity              : 
TLFamily_OG        .                                       : 
TLFamily_RESD      .         Deep Resistivity              : 
TLFamily_RESM      .         Medium Resistivity            : 
TLFamily_RESS      .         Shallow Resistivity           : 
TLFamily_RHOB      .         Bulk Density                  : 
TLFamily_TVD       .         True Vertical Depth           : 
~Curve Information
#_______________________________________________________________________________
#
#LOGNAME           .UNIT     LOG_ID                        : DESCRIPTION
#_______________________________________________________________________________
DEPT               .m                                      :  
CALI               .in                                     :  
DT                 .us/ft                                  :  
DTS                .us/ft                                  :  
GR                 .gAPI                                   : GAMMA RAY 
INPEFA_1           .                                       :  
INPEFA_2           .                                       :  
INPEFA_3           .                                       :  
INPEFA_4           .                                       :  
LITO               .Sem                                    : Não definido 
NPHI               .%                                      : THERMAL NEUTRON POROSITY (ORIGINAL RATIO METHOD) IN SELECTED LITHOLOGY 
OG                 .                                       :  
RESD               .ohm.m                                  :  
RESM               .ohm.m                                  :  
RESS               .ohm-m                                  :  
RHOB               .g/cm3                                  :  
TVD                .                                       : Vertical Depth 
~Ascii
# ...
3336.8     12.4529    104.7617   219.5265   186.0279   -0.07177775 -0.03272818 -0.1980019 0.04442681 57         37.6654    186.0279   1.4614     1.465      1.422799944877625 2.3406     3336.51   
3337       12.4547    105.549    223.35     187.3006   -0.0793996 -0.03611391 -0.1989358 0.06335168 57         36.1159    187.3006   1.5499     1.5601     1.511100053787231 2.3353     3336.71   
3337.2     12.4565    107.635    228.1402   192.8093   -0.08166118 -0.03073015 -0.1880076 0.09246165 57         34.7548    192.8093   1.5975     1.6127     1.605100035667419 2.3274     3336.91   
3337.4     12.4577    109.8814   226.8443   196.8608   -0.08498752 -0.02531511 -0.1720243 0.1455269  57         35.4766    196.8608   1.5115     1.5271     1.564200043678284 2.3271     3337.11   
3337.6     12.4607    111.2542   226.8729   194.9814   -0.1070878 -0.06597747 -0.2454867 0.0659233  57         35.8457    194.9814   1.3933     1.4067     1.399999976158142 2.3382     3337.31   
3337.8     12.4525    112.0285   227.5711   193.6786   -0.1137494 -0.07592961 -0.2761522 -0.004584742 57         35.7309    193.6786   1.4437     1.4573     1.365100026130676 2.3517     3337.51   
3338       12.4376    112.7347   229.585    190.9924   -0.1233421 -0.09071802 -0.3155177 -0.1060111 57         36.2532    190.9924   1.6056     1.6207     1.516000032424927 2.3566     3337.71   
3338.2     12.5102    112.8704   228.9988   181.8835   -0.1038107 -0.04626839 -0.2599114 -0.1236099 57         37.4812    181.8835   1.6171     1.6329     1.608100056648254 2.3194     3337.91   
3338.4     12.4522    112.7296   227.0299   177.6608   -0.08088005 0.02970606 -0.1066382 0.07857151 57         39.1214    177.6608   1.464      1.4797     1.484599947929382 2.2288     3338.11   
3338.6     12.4417    112.1094   222.5867   183.0036   -0.1227775 -0.04457189 -0.2193164 -0.0309619 57         41.1566    183.0036   1.3672     1.3834     1.344799995422363 2.1383     3338.31   
3338.8     12.4566    111.212    223.2557   189.6497   -0.118825  -0.03325419 -0.2157606 -0.081645  57         41.8329    189.6497   1.4081     1.4262     1.381100058555603 2.089      3338.51   
3339       12.4449    109.9178   221.6883   190.5739   -0.1236733 -0.02668197 -0.1981218 -0.07975998 57         40.4344    190.5739   1.4069     1.4253     1.430500030517578 2.1254     3338.71   
3339.2     12.4055    106.7889   222.2403   190.3139   -0.1241536 -0.01972909 -0.1891945 -0.09225516 57         39.3977    190.3139   1.4088     1.4262     1.411499977111816 2.1788     3338.91   
3339.4     12.4251    103.8275   218.3686   192.048    -0.1281319 -0.01267624 -0.1711037 -0.07825094 57         37.9021    192.048    1.5043     1.5206     1.519799947738648 2.1848     3339.11   
3339.6     12.6166    102.7599   212.4604   192.3633   -0.1267693 0.003231485 -0.1358739 -0.0218504 57         36.4307    192.3633   1.5432     1.5564     1.623999953269959 2.2015     3339.31   
3339.8     12.4741    102.3514   217.8375   187.809    -0.1581991 -0.05433045 -0.2339172 -0.1405196 57         36.2822    187.809    1.5124     1.5223     1.619899988174439 2.2751     3339.51   
3340       12.4652    102.4785   217.8766   183.9122   -0.1518865 -0.03796355 -0.2196282 -0.1647274 57         36.3703    183.9122   1.4848     1.4932     1.592100024223328 2.3405     3339.71   
3340.2     12.4675    103.8373   214.7538   183.7553   -0.1514284 -0.02362065 -0.19165   -0.1399536 57         35.8286    183.7553   1.4913     1.5003     1.60699999332428 2.3554     3339.91   
3340.4     12.4697    106.3061   220.4841   185.1448   -0.1560567 -0.01970133 -0.17736   -0.1111859 57         35.16      185.1448   1.5041     1.5145     1.635800004005432 2.3505     3340.11   
3340.6     12.4667    107.5688   221.2439   187.9938   -0.1732969 -0.04761341 -0.2255433 -0.1740944 57         35.269     187.9938   1.5055     1.5169     1.659299969673157 2.3434     3340.31   
3340.8     12.4634    107.7132   222.1664   190.8229   -0.1890378 -0.07741337 -0.2893391 -0.2962907 57         36.3713    190.8229   1.4711     1.4821     1.630599975585938 2.3219     3340.51   
3341       12.4405    106.3466   221.8694   191.995    -0.1968348 -0.0908539 -0.3284796 -0.412178  57         36.9205    191.995    1.4616     1.4713     1.592499971389771 2.2339     3340.71   
3341.2     12.479     105.6749   220.5721   187.3979   -0.2074144 -0.1091863 -0.3781613 -0.567701  57         36.4624    187.3979   1.4872     1.4952     1.615200042724609 2.1529     3340.91   
3341.4     12.4801    105.6994   221.1978   178.7896   -0.1917395 -0.08642567 -0.3874234 -0.7823837 57         37.7908    178.7896   1.4906     1.4962     1.628100037574768 2.2051     3341.11   
3341.6     12.4691    107.4797   220.0663   178.5058   -0.1094474 0.1192629  -0.01678459 -0.410986  57         37.9612    178.5058   1.4795     1.482      1.595299959182739 2.3196     3341.31   
3341.8     12.4629    109.3088   219.1249   184.3458   -0.1397747 0.08370402 -0.03877455 -0.4332663 57         37.1445    184.3458   1.5025     1.5017     1.588500022888184 2.3474     3341.51   
3342       12.4504    109.1431   220.9363   187.3929   -0.129756  0.1448054  0.1222887  -0.1597577 57         37.569     187.3929   1.5362     1.5318     1.618800044059753 2.2986     3341.71   
3342.2     12.4753    107.0398   220.6653   185.905    -0.1850375 0.03541065 -0.04718655 -0.3364311 57         36.8065    185.905    1.522      1.5149     1.598199963569641 2.263      3341.91   
3342.4     12.4545    106.1057   218.3915   184.4953   -0.1713837 0.08300802 0.05272935 -0.1976165 57         34.8847    184.4953   1.4794     1.471      1.52400004863739 2.2879     3342.11   
3342.6     12.4634    106.0479   218.2945   183.4595   -0.1950898 0.04740105 0.01583747 -0.1873389 57         34.1341    183.4595   1.45       1.4417     1.449200034141541 2.3403     3342.31   
3342.8     12.4679    106.5038   219.2554   186.4532   -0.2008121 0.04580712 0.02308129 -0.1532218 57         34.9742    186.4532   1.4999     1.4926     1.417199969291687 2.3561     3342.51   
3343       12.4686    108.462    221.9228   189.064    -0.2246947 0.006470208 -0.03371802 -0.2008472 57         35.9475    189.064    1.7444     1.7367     1.509400010108948 2.3501     3342.7099 
3343.2     12.4752    112.5016   223.0774   187.6428   -0.2201664 0.02083458 -0.01056377 -0.1760271 57         35.8369    187.6428   2.196      2.1835     1.83080005645752 2.3432     3342.9099 
3343.4     12.4731    117.0262   227.6479   185.488    -0.2135531 0.05576894 0.07205987 -0.02350118 57         35.7852    185.488    2.0742     2.0546     1.951300024986267 2.3072     3343.1099 
3343.6     12.4596    118.572    237.582    187.105    -0.2383712 0.01535336 0.01918917 -0.02714107 49         36.5501    187.105    1.4466     1.4249     1.420500040054321 2.1996     3343.3099 
3343.8     12.5747    114.9626   237.0859   190.9606   -0.2337659 0.03812234 0.07045581 0.09718411 49         38.5374    190.9606   1.0842     1.0601     0.9916999936103821 2.0793     3343.5099 
3344       13.4878    107.6548   241.8206   193.5163   -0.305975  -0.1139483 -0.1981148 -0.2235397 49         40.2636    193.5163   1.2637     1.227      0.9663000106811523 2.0344     3343.7099 
3344.2     14.6303    99.4112    237.0251   193.8897   -0.2521738 -0.006423895 -0.04799008 -0.1108563 49         39.9388    193.8897   1.7397     1.6839     1.325999975204468 2.0614     3343.9099 
3344.4     14.6686    93.4589    209.4884   187.838    -0.2946111 -0.08268806 -0.1775653 -0.284882  49         35.5318    187.838    1.839      1.7837     1.600200057029724 2.2196     3344.1099 
3344.6     13.4436    94.2209    199.8407   169.7044   -0.2614689 -0.01126857 -0.07481444 -0.2120092 57         31.9058    169.7044   1.6841     1.6454     1.458099961280823 2.4386     3344.3099 
3344.8     12.4821    98.2358    203.1898   157.1771   -0.2812281 -0.03934046 -0.1215004 -0.2858232 57         33.57      157.1771   1.7945     1.7687     1.559100031852722 2.4169     3344.5099 
3345       12.6977    101.4444   209.2422   161.9647   -0.2665427 0.001197494 -0.05885683 -0.2437353 57         36.5764    161.9647   1.8522     1.8404     1.748600006103516 2.3004     3344.7099 
