~Version
 VERS              .         2.0                           : CWLS LOG ASCII STANDARD - VERSION 2.0
 WRAP              .         NO                            : ONE LINE PER DEPTH STEP
 DLM               .         SPACE                         : DELIMITING CHARACTER(SPACE TAB OR COMMA)
~Well Information
#_______________________________________________________________________________
#
#PARAMETER_NAME    .UNIT     VALUE                         : DESCRIPTION
#_______________________________________________________________________________
STRT               .m        2425                          : First reference value
STOP               .m        4697.8                        : Last reference value
STEP               .m        0.2                           : Step increment
NULL               .         -9999                         : Missing value
COMP               .         PETROLEO BRASILEIRO S/A       : Company
WELL               .         3-ESS-131_resample            : Well name
FLD                .         GOLFINHO                      : Field
LOC                .                                       : Location
CNTY               .                                       : County
STAT               .         ESPIRITO SANTO                : State
CTRY               .                                       : Country
SRVC               .                                       : Service Company
DATE               .                                       : Date
API                .         342710287600                  : API number
EDF                .M        25.00                         : Elevation Derrick Floor
GDAT               .         SIRGAS2000                    : Geodetic Datum
HZCS               .         UTM                           : Horizontal Coordinate System
LAT                .         -20.005487                    : Latitude
LONG               .         -39.535744                    : Longitude
MC                 .         39 W                          : Meridiano Central
ORIG               .         SIGEO EXPORTACAO PERFIL       : Origem dos dados
WDMS               .M        1383.00                       : Water Depth to Mean Sea Level
XCOORD             .         443959.60                     : Surface X
YCOORD             .         7787821.90                    : Surface Y
~Parameter Information Block
#_______________________________________________________________________________
#
#PARAMETER_NAME    .UNIT     VALUE                         : DESCRIPTION
#_______________________________________________________________________________
SET                .         ESS131_resample               : 
TLFamily_CALI      .         Caliper                       : 
TLFamily_DEPT      .         Measured Depth                : 
TLFamily_DT        .         Compressional Slowness        : 
TLFamily_DTS       .         Shear Slowness                : 
TLFamily_GR        .         Gamma Ray                     : 
TLFamily_INPEFA_1  .                                       : 
TLFamily_INPEFA_2  .                                       : 
TLFamily_INPEFA_3  .                                       : 
TLFamily_INPEFA_4  .                                       : 
TLFamily_LITO      .                                       : 
TLFamily_NPHI      .         Neutron Porosity              : 
TLFamily_OG        .                                       : 
TLFamily_RESD      .         Deep Resistivity              : 
TLFamily_RESM      .         Medium Resistivity            : 
TLFamily_RESS      .         Shallow Resistivity           : 
TLFamily_RHOB      .         Bulk Density                  : 
TLFamily_TVD       .         True Vertical Depth           : 
~Curve Information
#_______________________________________________________________________________
#
#LOGNAME           .UNIT     LOG_ID                        : DESCRIPTION
#_______________________________________________________________________________
DEPT               .m                                      :  
CALI               .in                                     :  
DT                 .us/ft                                  :  
DTS                .us/ft                                  :  
GR                 .gAPI                                   : GAMMA RAY 
INPEFA_1           .                                       :  
INPEFA_2           .                                       :  
INPEFA_3           .                                       :  
INPEFA_4           .                                       :  
LITO               .Sem                                    : Não definido 
NPHI               .%                                      : THERMAL NEUTRON POROSITY (ORIGINAL RATIO METHOD) IN SELECTED LITHOLOGY 
OG                 .                                       :  
RESD               .ohm.m                                  :  
RESM               .ohm.m                                  :  
RESS               .ohm-m                                  :  
RHOB               .g/cm3                                  :  
TVD                .                                       : Vertical Depth 
~Ascii
# ...
4534.6     12.4211    78.4118    142.0444   191.9977   -0.2393779 -0.01825024 -0.1434757 -0.007725699 57         22.3866    191.9977   8.6019     8.5423     8.472900000000001 2.59       4533.5658 
4534.8     12.4754    77.977     143.4118   193.9893   -0.2524081 -0.05761472 -0.2178767 -0.1362416 57         22.2382    193.9893   8.6657     8.6043     8.543799999999999 2.6019     4533.7656 
4535       12.4951    77.3912    142.7013   188.8116   -0.2516999 -0.05813077 -0.2139283 -0.1763771 57         21.5262    188.8116   8.678799   8.616      8.605600000000003 2.6165     4533.9654 
4535.200000000001 12.4759    77.6233    140.2883   189.9098   -0.240942  -0.03431461 -0.1571954 -0.1308863 57         21.5609    189.9098   8.6308     8.5678     8.58499999999982 2.6124     4534.165100000001
4535.4     12.4586    78.0752    141.176    192.4189   -0.2583614 -0.06654141 -0.1875764 -0.1758428 57         22.1019    192.4189   8.637899   8.5757     8.574      2.5976     4534.3649 
4535.6     12.417     77.1232    142.2504   189.379    -0.2731719 -0.1018908 -0.2371019 -0.2864402 57         22.1736    189.379    8.752      8.6907     8.705900000000002 2.5879     4534.5647 
4535.8     12.4391    75.7793    140.1632   189.7188   -0.2704244 -0.09771559 -0.2181438 -0.3337027 57         21.7461    189.7188   8.8102     8.7505     8.854900000000001 2.5972     4534.7644 
4536       12.5166    75.3762    138.8105   191.3481   -0.2634513 -0.07468274 -0.147343  -0.2804394 57         21.6034    191.3481   8.7075     8.6505     8.8483     2.6122     4534.9642 
4536.200000000001 12.5193    75.5727    137.7436   190.9609   -0.2761597 -0.09651536 -0.1510459 -0.301144  57         21.055     190.9609   8.469401   8.4149     8.662299999998906 2.6243     4535.164000000001
4536.4     12.4916    76.5081    139.651    188.1844   -0.2980126 -0.1450258 -0.2150391 -0.4412417 57         19.2785    188.1844   8.2282     8.1745     8.4335     2.6269     4535.3638 
4536.6     12.4272    77.5376    143.7666   185.3687   -0.2752015 -0.09230672 -0.09706246 -0.35447   57         18.4929    185.3687   8.0514     7.996699   8.2766     2.6185     4535.5635 
4536.8     12.448     77.874     144.0591   187.5848   -0.284465  -0.0964986 -0.04883904 -0.2746139 57         19.6977    187.5848   7.9321     7.8754     8.2128     2.6046     4535.7633 
4537       12.5339    77.9431    144.6435   193.1515   -0.3013992 -0.1265737 -0.05586823 -0.2635439 57         21.0695    193.1515   7.8261     7.767301   8.1774     2.5949     4535.9631 
4537.200000000001 12.5526    78.1776    144.8949   193.6086   -0.334139  -0.1975655 -0.1484602 -0.3990308 57         21.7043    193.6086   7.7153     7.6549     8.139099999999749 2.5994     4536.162800000001
4537.4     12.5416    78.5297    146.2017   189.0326   -0.3063869 -0.137991  -0.01611693 -0.2597843 57         21.5467    189.0326   7.5799     7.5187     8.071      2.6164     4536.3626 
4537.6     12.5028    79.013     147.6876   189.8423   -0.3127572 -0.1351993 0.05544979 -0.06712712 57         21.4605    189.8423   7.4196     7.359499   7.958700000000001 2.6308     4536.5624 
4537.8     12.4661    79.1202    148.7591   195.0186   -0.3514135 -0.2164948 -0.03623301 -0.05338336 57         21.7488    195.0186   7.2559     7.1991     7.8172     2.632      4536.7622 
4538       12.4831    79.258     147.7945   196.0159   -0.371613  -0.2689546 -0.1041151 -0.06505632 57         21.8345    196.0159   7.1132     7.0625     7.6768     2.6178     4536.9619 
4538.200000000001 12.4976    79.7029    146.7229   190.5287   -0.3834812 -0.2990286 -0.1278922 0.02046011 57         21.7419    190.5287   7.0261     6.985099   7.565399999999699 2.5967     4537.161700000001
4538.4     12.4862    80.1642    146.9293   187.1642   -0.402953  -0.3517978 -0.200533  0.0582668  57         21.92      187.1642   7.0045     6.9769     7.5164     2.5859     4537.3615 
4538.6     12.4745    80.1829    145.9194   189.043    -0.4291874 -0.4183974 -0.3040411 0.05848349 57         22.3871    189.043    7.0216     7.011      7.509500000000001 2.5844     4537.5613 
4538.8     12.4677    79.8067    145.0228   190.1556   -0.4456294 -0.4737203 -0.4069147 0.04286835 57         22.8765    190.1556   7.0525     7.0628     7.5154     2.59       4537.761  
4539       12.4662    79.0245    144.991    187.3184   -0.4418557 -0.4842903 -0.437814  0.1204982  57         22.702     187.3184   7.030001   7.063799   7.494299999999999 2.6022     4537.9608 
4539.200000000001 12.4549    77.4302    145.5433   185.5009   -0.4505713 -0.5112082 -0.4813289 0.2479733  57         22.5017    185.5009   6.904      6.9613     7.370599999999027 2.6116     4538.160600000001
4539.4     12.4472    76.7956    142.7945   188.0983   -0.4923231 -0.6358818 -0.7423515 0.01638623 57         22.5173    188.0983   6.7151     6.7937     7.1469     2.6152     4538.3604 
4539.6     12.4352    77.4897    143.4031   187.3767   -0.4924384 -0.670093  -0.8694801 -0.1441036 57         21.4287    187.3767   6.614399   6.7147     6.9727     2.622      4538.5601 
4539.8     12.4548    78.3165    144.3544   184.0667   -0.4570611 -0.6410047 -0.9168778 -0.3140803 57         20.3946    184.0667   6.6722     6.7988     6.988099999999999 2.6275     4538.7599 
4540       12.4       78.6042    145.1181   184.8677   -0.4006914 -0.5408366 -0.8155574 -0.3126709 57         21.4767    184.8677   6.8025     6.9601     7.1604     2.6216     4538.9597 
4540.200000000001 12.3935    78.4504    146.0871   191.4637   -0.3337984 -0.4037251 -0.6184237 -0.1348742 57         22.6212    191.4637   6.7893     6.974199   7.233699999999455 2.6128     4539.159500000001
4540.4     12.3869    77.9045    146.1499   191.7575   -0.3166198 -0.3736829 -0.605482  -0.2056213 57         22.047     191.7575   6.6669     6.874      7.0722     2.6081     4539.3593 
4540.6     12.3604    77.7393    146.141    186.4843   -0.2704557 -0.2674596 -0.4413571 -0.07768132 57         21.1141    186.4843   6.6649     6.901401   6.9192     2.6075     4539.559  
4540.8     12.3768    78.2604    146.35     187.9901   -0.2656312 -0.2318614 -0.3539714 0.08285011 57         20.502     187.9901   7.0246     7.3159     7.0567     2.614      4539.7588 
4541       12.3661    78.7195    146.8021   195.7399   -0.249592  -0.1894746 -0.2780241 0.2127034  57         20.7793    195.7399   7.6859     8.0475     7.5657     2.625      4539.9586 
4541.200000000001 12.3801    79.6538    147.9338   200.1228   -0.2582109 -0.1764945 -0.213964  0.4340596  57         22.1509    200.1228   8.2864     8.6905     8.157300000001158 2.6268     4540.158400000001
4541.4     12.3489    79.8453    147.4563   200.2446   -0.3398727 -0.351963  -0.5180092 0.1583186  57         23.0456    200.2446   8.2581     8.6331     8.2362     2.6114     4540.3581 
4541.6     12.3183    78.7706    147.6668   201.4767   -0.3496497 -0.3896757 -0.6351824 -0.02152056 57         23.1315    201.4767   7.7968     8.097099   7.650299999999999 2.5985     4540.5579 
4541.8     12.346     78.3457    144.8195   203.1147   -0.3382419 -0.3883493 -0.7066818 -0.2450353 57         22.9305    203.1147   7.620399   7.8334     7.161700000000001 2.5976     4540.7577 
4542       12.365     78.681     143.5446   199.7913   -0.2849454 -0.2887433 -0.6097068 -0.3727623 57         22.9626    199.7913   8.278999   8.3937     7.3605     2.6067     4540.9575 
4542.200000000001 12.3533    78.6174    140.4637   194.1353   -0.2087931 -0.1032874 -0.2983707 -0.08937948 49         22.0939    194.1353   9.6923     9.6666     8.371600000005811 2.6163     4541.157300000001
4542.4     12.3099    76.5036    134.3336   193.406    -0.2439977 -0.1699375 -0.4282368 -0.3854975 49         15.1392    193.406    11.0028    10.7886    9.5816     2.6077     4541.357  
4542.6     12.2828    73.7655    126.8092   194.052    -0.1763018 -0.0000637 -0.1336787 -0.1442819 49         8.7156     194.052    11.5573    11.1527    10.0524    2.5724     4541.5568 
4542.8     12.1819    70.0734    121.6303   182.0762   -0.2088446 -0.05480704 -0.2247323 -0.3788466 49         7.3628     182.0762   11.8118    11.2486    10.0323    2.5308     4541.7566 
