~Version
 VERS              .         2.0                           : CWLS LOG ASCII STANDARD - VERSION 2.0
 WRAP              .         NO                            : ONE LINE PER DEPTH STEP
 DLM               .         SPACE                         : DELIMITING CHARACTER(SPACE TAB OR COMMA)
~Well Information
#_______________________________________________________________________________
#
#PARAMETER_NAME    .UNIT     VALUE                         : DESCRIPTION
#_______________________________________________________________________________
STRT               .m        2425                          : First reference value
STOP               .m        4697.8                        : Last reference value
STEP               .m        0.2                           : Step increment
NULL               .         -9999                         : Missing value
COMP               .         PETROLEO BRASILEIRO S/A       : Company
WELL               .         3-ESS-131_resample            : Well name
FLD                .         GOLFINHO                      : Field
LOC                .                                       : Location
CNTY               .                                       : County
STAT               .         ESPIRITO SANTO                : State
CTRY               .                                       : Country
SRVC               .                                       : Service Company
DATE               .                                       : Date
API                .         342710287600                  : API number
EDF                .M        25.00                         : Elevation Derrick Floor
GDAT               .         SIRGAS2000                    : Geodetic Datum
HZCS               .         UTM                           : Horizontal Coordinate System
LAT                .         -20.005487                    : Latitude
LONG               .         -39.535744                    : Longitude
MC                 .         39 W                          : Meridiano Central
ORIG               .         SIGEO EXPORTACAO PERFIL       : Origem dos dados
WDMS               .M        1383.00                       : Water Depth to Mean Sea Level
XCOORD             .         443959.60                     : Surface X
YCOORD             .         7787821.90                    : Surface Y
~Parameter Information Block
#_______________________________________________________________________________
#
#PARAMETER_NAME    .UNIT     VALUE                         : DESCRIPTION
#_______________________________________________________________________________
SET                .         ESS131_resample               : 
TLFamily_CALI      .         Caliper                       : 
TLFamily_DEPT      .         Measured Depth                : 
TLFamily_DT        .         Compressional Slowness        : 
TLFamily_DTS       .         Shear Slowness                : 
TLFamily_GR        .         Gamma Ray                     : 
TLFamily_INPEFA_1  .                                       : 
TLFamily_INPEFA_2  .                                       : 
TLFamily_INPEFA_3  .                                       : 
TLFamily_INPEFA_4  .                                       : 
TLFamily_LITO      .                                       : 
TLFamily_NPHI      .         Neutron Porosity              : 
TLFamily_OG        .                                       : 
TLFamily_RESD      .         Deep Resistivity              : 
TLFamily_RESM      .         Medium Resistivity            : 
TLFamily_RESS      .         Shallow Resistivity           : 
TLFamily_RHOB      .         Bulk Density                  : 
TLFamily_TVD       .         True Vertical Depth           : 
~Curve Information
#_______________________________________________________________________________
#
#LOGNAME           .UNIT     LOG_ID                        : DESCRIPTION
#_______________________________________________________________________________
DEPT               .m                                      :  
CALI               .in                                     :  
DT                 .us/ft                                  :  
DTS                .us/ft                                  :  
GR                 .gAPI                                   : GAMMA RAY 
INPEFA_1           .                                       :  
INPEFA_2           .                                       :  
INPEFA_3           .                                       :  
INPEFA_4           .                                       :  
LITO               .Sem                                    : Não definido 
NPHI               .%                                      : THERMAL NEUTRON POROSITY (ORIGINAL RATIO METHOD) IN SELECTED LITHOLOGY 
OG                 .                                       :  
RESD               .ohm.m                                  :  
RESM               .ohm.m                                  :  
RESS               .ohm-m                                  :  
RHOB               .g/cm3                                  :  
TVD                .                                       : Vertical Depth 
~Ascii
# ...
3633.6     13.0584    94.2442    179.6593   151.2306   0.005563734 0.01377886 0.04854002 -0.005038109 57         21.9296    151.2306   1.2595     1.2534     1.244300007820064 2.4683     3633.2758 
3633.8     13.0814    94.5554    183.0329   154.3311   0.03090475 0.08126268 0.1873502  0.1801054  57         22.3139    154.3311   1.2239     1.219      1.21370005607605 2.4778     3633.4757 
3634       13.088     95.1823    186.8907   154.2101   0.00409955 0.0364181  0.1387989  0.1703719  57         22.9225    154.2101   1.1951     1.1914     1.182800054550171 2.4833     3633.6757 
3634.2     13.094     95.7723    186.1341   150.2502   -0.004997265 0.01693137 0.1073955  0.1230256  57         23.2996    150.2502   1.1901     1.187      1.172099947929382 2.4816     3633.8757 
3634.4     13.1082    96.1401    184.5966   148.0871   -0.006820818 0.01641976 0.1101204  0.1065674  57         23.5793    148.0871   1.1926     1.1899     1.181800007820129 2.4736     3634.0756 
3634.6     13.1079    96.9089    187.3218   147.9625   -0.01669651 -0.001915397 0.08094462 0.0471171  57         24.0531    147.9625   1.1721     1.1698     1.171900033950741 2.4589     3634.2756 
3634.8     13.0703    97.7987    191.0435   149.1225   0.00088362 0.03734241 0.1478332  0.09844785 57         24.4672    149.1225   1.1441     1.1425     1.143599987030029 2.4538     3634.4755 
3635       13.0546    98.4324    193.8653   151.4286   -0.0069741 0.03449965 0.1642413  0.1393908  57         24.8689    151.4286   1.1245     1.1237     1.12310004234314 2.4629     3634.6755 
3635.2     13.0601    98.5777    194.636    153.1686   -0.02312529 0.000101577 0.1065995  0.05917276 57         25.0539    153.1686   1.1138     1.1137     1.110299944877625 2.4767     3634.8755 
3635.4     13.0721    99.3651    194.6169   152.5802   -0.009429107 0.03447959 0.1687057  0.1173024  57         25.3381    152.5802   1.1177     1.1182     1.110499978065491 2.4787     3635.0754 
3635.6     13.0795    100.0834   195.5535   153.4762   -0.03605286 -0.01394107 0.09527908 0.02053034 57         25.727     153.4762   1.1258     1.1266     1.118700027465837 2.4738     3635.2754 
3635.8     13.1051    99.8815    197.0067   160.2849   -0.04096662 -0.03198473 0.04380256 -0.1256767 57         25.2835    160.2849   1.1354     1.1362     1.12720000743866 2.4731     3635.4753 
3636       13.1123    99.2795    195.9814   166.673    -0.01627832 0.02851618 0.1467348  -0.06163393 57         24.9635    166.673    1.1313     1.1319     1.131399989128113 2.4725     3635.6753 
3636.2     13.101     99.6554    194.2083   166.3753   -0.04310261 -0.01876115 0.07466137 -0.1803728 57         25.6085    166.3753   1.1229     1.1231     1.114799976348877 2.4708     3635.8752 
3636.4     13.0691    100.5212   194.1586   165.3761   -0.03789487 -0.01423209 0.05960442 -0.3072823 57         25.5885    165.3761   1.1364     1.1363     1.122599959373474 2.4747     3636.0752 
3636.6     13.071     100.147    194.2947   166.2112   -0.008899252 0.06397876 0.2066519  -0.1662274 57         25.3635    166.2112   1.1453     1.1453     1.13900005817414 2.4756     3636.275200000001
3636.8     13.0908    98.3934    194.167    162.5607   -0.03249035 0.02395018 0.1532062  -0.2290443 57         24.9974    162.5607   1.1449     1.1456     1.140599966049194 2.4629     3636.4751 
3637       13.0989    96.7121    191.9175   159.7156   -0.03328973 0.02678173 0.1588746  -0.243523  57         24.0447    159.7156   1.1511     1.153      1.146299958229065 2.4529     3636.6751 
3637.2     13.1065    96.2799    191.8495   161.9787   -0.03781993 0.0228472  0.1566744  -0.2527748 57         23.5923    161.9787   1.167      1.1703     1.167099952697754 2.4546     3636.875  
3637.4     13.1077    96.3848    191.7659   164.1983   -0.06167839 -0.02749341 0.06554857 -0.3850796 57         23.6767    164.1983   1.1752     1.1798     1.187299966812134 2.4574     3637.075  
3637.6     13.0906    96.7489    191.4153   164.5136   -0.05999414 -0.02795015 0.04800519 -0.4621637 57         24.192     164.5136   1.1724     1.178      1.193600058555605 2.4624     3637.275000000001
3637.8     13.0577    97.2381    190.5782   161.6988   -0.04222837 0.01320134 0.1136744  -0.4156796 57         24.2183    161.6988   1.1685     1.1749     1.194800019264221 2.4673     3637.4749 
3638       13.0427    97.6963    189.7716   158.8947   -0.05273236 0.002582403 0.1090285  -0.398042  57         24.274     158.8947   1.1706     1.1773     1.201099991798401 2.4656     3637.6749 
3638.2     13.0359    97.5737    191.8707   160.2043   -0.06792647 -0.03229547 0.04223111 -0.4856127 57         24.8941    160.2043   1.1749     1.1815     1.211400032043457 2.4717     3637.8748 
3638.4     13.039     96.5364    189.9861   160.9663   -0.07246663 -0.04579048 0.002857389 -0.5755709 57         24.6584    160.9663   1.1784     1.1839     1.218000054359436 2.4861     3638.0748 
3638.6     13.0454    95.4212    187.8917   162.2317   -0.05981427 -0.01656907 0.04831367 -0.5353094 57         24.0366    162.2317   1.1851     1.1889     1.223500013351458 2.4906     3638.274800000001
3638.8     13.0423    94.7358    185.5058   164.7579   -0.07007607 -0.03471349 0.01969081 -0.5548612 57         23.7871    164.7579   1.1944     1.1962     1.231099963188171 2.4808     3638.4747 
3639       13.033     94.4512    183.3524   162.1601   -0.06166094 -0.01639071 0.04865715 -0.5045119 57         23.5515    162.1601   1.2029     1.2027     1.236299991607666 2.4669     3638.6747 
3639.2     13.027     94.3897    182.8676   159.6745   -0.07510154 -0.04036167 0.01401757 -0.5053127 57         23.7926    159.6745   1.2075     1.2057     1.237400054931641 2.4597     3638.8746 
3639.4     13.0191    94.3652    183.6274   159.4387   -0.06982785 -0.03138264 0.02610208 -0.458373  57         23.9948    159.4387   1.2071     1.204      1.230700016021729 2.4655     3639.0746 
3639.6     12.983     94.6081    185.5155   155.2439   -0.07144804 -0.02942299 0.04092832 -0.3657053 57         24.3561    155.2439   1.2069     1.2027     1.220100045204144 2.4759     3639.2745 
3639.8     12.9447    95.6697    186.215    152.5747   -0.07937732 -0.04425281 0.02516008 -0.2934057 57         24.6432    152.5747   1.211      1.2059     1.213099956512451 2.4803     3639.4745 
3640       12.941     97.2114    188.6305   155.6261   -0.09059029 -0.07002238 -0.01797651 -0.2742873 57         24.6718    155.6261   1.2154     1.2097     1.20799994468689 2.483      3639.6745 
3640.2     12.9568    97.7478    191.6298   159.031    -0.08753815 -0.06314208 -0.001687477 -0.17197   57         24.9682    159.031    1.2172     1.211      1.199699997901917 2.4923     3639.8744 
3640.4     12.9694    96.8421    188.3347   162.8302   -0.08840847 -0.06221459 0.010118   -0.05301024 57         24.7906    162.8302   1.2211     1.2145     1.191200017929077 2.4995     3640.0744 
3640.6     12.9972    96.2912    192.402    165.4725   -0.08537757 -0.04827141 0.05406572 0.1436916  57         24.6709    165.4725   1.2326     1.2258     1.189900040626539 2.495      3640.274300000001
3640.8     13.0021    96.66      190.0469   161.3262   -0.113794  -0.1078024 -0.03482154 0.1841087  57         24.4805    161.3262   1.2495     1.2425     1.197499990463257 2.4914     3640.4743 
3641       12.9989    96.9758    189.1584   156.7764   -0.1163395 -0.1182893 -0.05485169 0.2770499  57         24.0382    156.7764   1.2578     1.2511     1.204800009727478 2.491      3640.6742 
3641.2     12.9804    97.092     189.8307   158.2114   -0.1469007 -0.1886572 -0.1801697 0.2280849  57         24.0392    158.2114   1.2427     1.2365     1.19539999961853 2.4931     3640.8742 
3641.4     12.9765    97.3148    188.6246   161.4303   -0.1386327 -0.182491  -0.1896464 0.2779877  57         24.1212    161.4303   1.214      1.2087     1.167500019073486 2.4942     3641.0742 
3641.6     12.9785    97.6258    188.2907   160.1862   -0.1356973 -0.1760112 -0.1812705 0.3787062  57         23.8816    160.1862   1.1977     1.1933     1.146000027656548 2.4901     3641.274100000001
