~Version
 VERS              .         2.0                           : CWLS LOG ASCII STANDARD - VERSION 2.0
 WRAP              .         NO                            : ONE LINE PER DEPTH STEP
 DLM               .         SPACE                         : DELIMITING CHARACTER(SPACE TAB OR COMMA)
~Well Information
#_______________________________________________________________________________
#
#PARAMETER_NAME    .UNIT     VALUE                         : DESCRIPTION
#_______________________________________________________________________________
STRT               .m        2425                          : First reference value
STOP               .m        4697.8                        : Last reference value
STEP               .m        0.2                           : Step increment
NULL               .         -9999                         : Missing value
COMP               .         PETROLEO BRASILEIRO S/A       : Company
WELL               .         3-ESS-131_resample            : Well name
FLD                .         GOLFINHO                      : Field
LOC                .                                       : Location
CNTY               .                                       : County
STAT               .         ESPIRITO SANTO                : State
CTRY               .                                       : Country
SRVC               .                                       : Service Company
DATE               .                                       : Date
API                .         342710287600                  : API number
EDF                .M        25.00                         : Elevation Derrick Floor
GDAT               .         SIRGAS2000                    : Geodetic Datum
HZCS               .         UTM                           : Horizontal Coordinate System
LAT                .         -20.005487                    : Latitude
LONG               .         -39.535744                    : Longitude
MC                 .         39 W                          : Meridiano Central
ORIG               .         SIGEO EXPORTACAO PERFIL       : Origem dos dados
WDMS               .M        1383.00                       : Water Depth to Mean Sea Level
XCOORD             .         443959.60                     : Surface X
YCOORD             .         7787821.90                    : Surface Y
~Parameter Information Block
#_______________________________________________________________________________
#
#PARAMETER_NAME    .UNIT     VALUE                         : DESCRIPTION
#_______________________________________________________________________________
SET                .         ESS131_resample               : 
TLFamily_CALI      .         Caliper                       : 
TLFamily_DEPT      .         Measured Depth                : 
TLFamily_DT        .         Compressional Slowness        : 
TLFamily_DTS       .         Shear Slowness                : 
TLFamily_GR        .         Gamma Ray                     : 
TLFamily_INPEFA_1  .                                       : 
TLFamily_INPEFA_2  .                                       : 
TLFamily_INPEFA_3  .                                       : 
TLFamily_INPEFA_4  .                                       : 
TLFamily_LITO      .                                       : 
TLFamily_NPHI      .         Neutron Porosity              : 
TLFamily_OG        .                                       : 
TLFamily_RESD      .         Deep Resistivity              : 
TLFamily_RESM      .         Medium Resistivity            : 
TLFamily_RESS      .         Shallow Resistivity           : 
TLFamily_RHOB      .         Bulk Density                  : 
TLFamily_TVD       .         True Vertical Depth           : 
~Curve Information
#_______________________________________________________________________________
#
#LOGNAME           .UNIT     LOG_ID                        : DESCRIPTION
#_______________________________________________________________________________
DEPT               .m                                      :  
CALI               .in                                     :  
DT                 .us/ft                                  :  
DTS                .us/ft                                  :  
GR                 .gAPI                                   : GAMMA RAY 
INPEFA_1           .                                       :  
INPEFA_2           .                                       :  
INPEFA_3           .                                       :  
INPEFA_4           .                                       :  
LITO               .Sem                                    : Não definido 
NPHI               .%                                      : THERMAL NEUTRON POROSITY (ORIGINAL RATIO METHOD) IN SELECTED LITHOLOGY 
OG                 .                                       :  
RESD               .ohm.m                                  :  
RESM               .ohm.m                                  :  
RESS               .ohm-m                                  :  
RHOB               .g/cm3                                  :  
TVD                .                                       : Vertical Depth 
~Ascii
# ...
2601.4     13.6504    103.604    245.6888   67.0576    0.04991477 -0.00218064 -0.007822591 0.2233595  58         25.1134    67.0576    1.2109     1.2144     1.23769998550415 2.358      2601.1466 
2601.6     13.6739    104.8425   246.4254   65.4074    0.0579655  0.02456218 0.05888053 0.3261656  58         25.866     65.4074    1.2112     1.2179     1.22189998626709 2.3457     2601.3478 
2601.8     13.6867    105.69     246.2237   67.2987    0.04180286 -0.002791866 0.02997565 0.3157929  58         26.0296    67.2987    1.2251     1.2351     1.228999972343445 2.3593     2601.5489 
2602       13.6785    105.6191   247.0392   66.9578    0.04273544 0.001616818 0.04220619 0.318911   58         26.0758    66.9578    1.2383     1.2498     1.223700046539307 2.3672     2601.75   
2602.2     13.74      105.6569   249.6774   62.4193    0.04242623 0.009106838 0.06817383 0.3554797  58         26.5961    62.4193    1.2639     1.2734     1.233500003814697 2.3586     2601.95   
2602.4     13.7271    105.6279   252.0611   61.4938    0.03660443 0.002254534 0.06528325 0.3584601  58         28.0525    61.4938    1.2115     1.2139     1.197100043296814 2.3451     2602.1499 
2602.6     13.7615    106.933    251.7045   66.8484    0.03928419 0.01009682 0.08021637 0.3697019  58         28.4277    66.8484    1.2241     1.2167     1.103399991989136 2.3429     2602.3499 
2602.8     13.7363    107.9567   252.0722   70.344     0.02217514 -0.02357244 0.02321008 0.2908477  58         28.8809    70.344     1.4351     1.4172     1.25       2.3381     2602.5499 
2603       13.7253    108.5156   254.0577   70.987     0.02272792 -0.02768389 -0.001032928 0.2040796  58         28.8226    70.987     1.3099     1.2906     1.317800045013428 2.3327     2602.7498 
2603.2     13.6773    108.9147   257.1988   74.3941    0.0352839  -0.0000659 0.03564907 0.1908794  58         25.9677    74.3941    1.0248     1.0108     0.9789999723434448 2.3137     2602.9498 
2603.4     13.6115    109.7745   260.6633   78.9262    0.05007382 0.04086714 0.1149248  0.2891615  58         24.1201    78.9262    1.0764     1.0632     0.9366000294685364 2.2547     2603.1497 
2603.6     13.9248    109.8031   264.7871   82.5752    0.03216501 0.005399321 0.05550503 0.2151348  58         26.7052    82.5752    1.2308     1.2163     1.116899967193604 2.2253     2603.3497 
2603.8     14.8046    109.1976   260.7109   80.3841    0.03548754 0.01760656 0.07497673 0.2213977  58         28.4787    80.3841    1.2501     1.2352     1.168900012969971 2.2822     2603.5497 
2604       13.7969    108.0156   250.4236   75.1733    0.003694505 -0.05437278 -0.06702151 -0.02325352 58         28.1042    75.1733    1.283      1.2674     1.186599969863892 2.3269     2603.7496 
2604.2     13.8344    107.1788   245.8193   75.0388    0.02461307 -0.01424613 -0.02861541 -0.1068803 58         27.8457    75.0388    1.2945     1.2787     1.243499994277954 2.3369     2603.9496 
2604.4     13.8788    105.9444   252.1533   79.6901    0.03431695 0.006309849 -0.01521688 -0.224075  58         27.5895    79.6901    1.1678     1.1547     1.159600019454956 2.3421     2604.1496 
2604.6     13.8832    105.6152   267.7513   81.7893    0.05833811 0.06983075 0.09344142 -0.1778815 49         27.6658    81.7893    1.0806     1.0701     1.057000041007996 2.3335     2604.3495 
2604.8     13.8991    107.6235   279.768    83.1351    0.05614058 0.07094081 0.09211913 -0.2595645 49         29.9961    83.1351    1.0386     1.0306     1.024899959564209 2.3013     2604.5495 
2605       13.9417    111.4671   286.3177   84.8453    0.06690241 0.1077937  0.163188   -0.2282425 49         31.8491    84.8453    1.0474     1.0416     1.016700029373169 2.2435     2604.7495 
2605.2     14.0154    113.7054   289.629    84.8498    0.06286795 0.1069943  0.1662442  -0.2707505 49         31.8863    84.8498    1.0919     1.0877     1.07039999961853 2.175      2604.9494 
2605.4     14.052     114.2686   286.3911   84.1611    0.05629231 0.09713736 0.1441369  -0.3715115 49         32.8915    84.1611    1.1249     1.1218     1.119600057601929 2.1318     2605.1494 
2605.6     13.8837    112.367    281.1638   83.513     0.06116991 0.1124547  0.1663252  -0.4214742 49         33.1876    83.513     1.1415     1.1393     1.147799968719482 2.151      2605.3494 
2605.8     13.9536    108.9582   277.0107   85.076     0.06079774 0.1163957  0.1694456  -0.4977447 49         30.8794    85.076     1.1264     1.1253     1.161900043487549 2.2441     2605.5493 
2606       13.7715    106.4104   271.2511   86.8616    0.07405056 0.1527309  0.2334002  -0.4917146 58         28.2836    86.8616    1.0909     1.0911     1.113899946212769 2.312      2605.7493 
2606.2     13.6835    106.0959   267.13     84.9434    0.09776632 0.218797   0.3696719  -0.3246053 58         27.2162    84.9434    1.1493     1.1507     1.139799952507019 2.3297     2605.9493 
2606.4     13.6257    105.9741   262.2836   80.07      0.1007672  0.2437298  0.4496988  -0.1533947 58         27.1649    80.07      1.2246     1.2271     1.250300049781799 2.3374     2606.1492 
2606.6     13.6136    105.2257   261.5727   79.182     0.0652669  0.1967898  0.4315826  0.007784432 58         26.0702    79.182     1.2178     1.221      1.271999955177307 2.3545     2606.3492 
2606.8     13.5981    104.7038   260.7544   81.864     0.01688022 0.08632963 0.251095   -0.09451477 58         24.7495    81.864     1.1696     1.1727     1.21940004825592 2.3649     2606.5491 
2607       13.6166    103.9024   261.3832   86.8528    -0.02694922 -0.01356408 0.07191973 -0.2524998 58         24.6476    86.8528    1.1511     1.1536     1.177500009536743 2.3617     2606.7491 
2607.2     13.6257    103.428    268.1567   88.0731    0.01069333 0.05101952 0.1609426  -0.09979389 58         25.9238    88.0731    1.1384     1.1405     1.176499962806702 2.3568     2606.9491 
2607.4     13.6159    105.1374   277.5849   82.955     -0.02730252 -0.03284559 0.01201577 -0.2085046 58         26.9223    82.955     1.0983     1.1001     1.128700017929077 2.3621     2607.149  
2607.6     13.6301    108.3118   281.8904   75.3239    -0.02209505 -0.03692096 -0.02501122 -0.2405818 58         27.1623    75.3239    1.1137     1.1151     1.118199944496155 2.3674     2607.349  
2607.8     13.6343    111.4909   289.2252   71.0255    -0.0338697 -0.07746231 -0.1298677 -0.3899972 58         28.1829    71.0255    1.1058     1.1057     1.14330005645752 2.3488     2607.549  
2608       13.6188    114.5576   296.75     70.6433    -0.02056533 -0.06214596 -0.1421869 -0.461441  58         28.7015    70.6433    1.0583     1.0557     1.075399994850159 2.3353     2607.7489 
2608.2     13.6567    115.6918   295.8427   72.6205    -0.00172522 -0.03216432 -0.1221779 -0.491172  58         29.0385    72.6205    1.0615     1.057      1.068699955940247 2.3397     2607.9489 
2608.4     13.6413    114.3176   294.2164   75.9782    0.02129914 0.01908762 -0.04531255 -0.4134585 58         30.1746    75.9782    1.0474     1.0421     1.059599995613098 2.3366     2608.1489 
2608.6     13.9747    112.5311   294.4548   78.2521    0.03310985 0.04363849 -0.01093307 -0.3715818 58         30.4821    78.2521    1.0743     1.069      1.056300044059753 2.3261     2608.3488 
2608.8     13.6922    111.4569   283.3087   78.2603    0.03760507 0.06386705 0.03529073 -0.2687731 58         30.5816    78.2603    1.1373     1.132      1.138700008392334 2.3234     2608.5488 
2609       13.7331    109.5      271.1225   76.2172    0.04348096 0.08512918 0.08939753 -0.1124787 58         29.6291    76.2172    1.1459     1.141      1.169299960136414 2.3444     2608.7488 
2609.2     13.6415    106.8312   265.277    71.5867    -0.006782447 -0.02518879 -0.1038702 -0.3086385 58         28.4224    71.5867    1.1398     1.1359     1.162700057029724 2.3611     2608.9487 
2609.4     13.6452    104.871    265.2169   68.0887    0.02436364 0.03443716 -0.02042329 -0.2197296 58         28.541     68.0887    1.1319     1.1296     1.164499998092651 2.3618     2609.1487 
2609.6     13.6826    104.8133   269.8998   76.3933    0.03719679 0.07010345 0.05346406 -0.06724599 58         28.8639    76.3933    1.1022     1.1023     1.143700003623962 2.3564     2609.3487 
