~Version
 VERS              .         2.0                           : CWLS LOG ASCII STANDARD - VERSION 2.0
 WRAP              .         NO                            : ONE LINE PER DEPTH STEP
 DLM               .         SPACE                         : DELIMITING CHARACTER(SPACE TAB OR COMMA)
~Well Information
#_______________________________________________________________________________
#
#PARAMETER_NAME    .UNIT     VALUE                         : DESCRIPTION
#_______________________________________________________________________________
STRT               .m        2425                          : First reference value
STOP               .m        4697.8                        : Last reference value
STEP               .m        0.2                           : Step increment
NULL               .         -9999                         : Missing value
COMP               .         PETROLEO BRASILEIRO S/A       : Company
WELL               .         3-ESS-131_resample            : Well name
FLD                .         GOLFINHO                      : Field
LOC                .                                       : Location
CNTY               .                                       : County
STAT               .         ESPIRITO SANTO                : State
CTRY               .                                       : Country
SRVC               .                                       : Service Company
DATE               .                                       : Date
API                .         342710287600                  : API number
EDF                .M        25.00                         : Elevation Derrick Floor
GDAT               .         SIRGAS2000                    : Geodetic Datum
HZCS               .         UTM                           : Horizontal Coordinate System
LAT                .         -20.005487                    : Latitude
LONG               .         -39.535744                    : Longitude
MC                 .         39 W                          : Meridiano Central
ORIG               .         SIGEO EXPORTACAO PERFIL       : Origem dos dados
WDMS               .M        1383.00                       : Water Depth to Mean Sea Level
XCOORD             .         443959.60                     : Surface X
YCOORD             .         7787821.90                    : Surface Y
~Parameter Information Block
#_______________________________________________________________________________
#
#PARAMETER_NAME    .UNIT     VALUE                         : DESCRIPTION
#_______________________________________________________________________________
SET                .         ESS131_resample               : 
TLFamily_CALI      .         Caliper                       : 
TLFamily_DEPT      .         Measured Depth                : 
TLFamily_DT        .         Compressional Slowness        : 
TLFamily_DTS       .         Shear Slowness                : 
TLFamily_GR        .         Gamma Ray                     : 
TLFamily_INPEFA_1  .                                       : 
TLFamily_INPEFA_2  .                                       : 
TLFamily_INPEFA_3  .                                       : 
TLFamily_INPEFA_4  .                                       : 
TLFamily_LITO      .                                       : 
TLFamily_NPHI      .         Neutron Porosity              : 
TLFamily_OG        .                                       : 
TLFamily_RESD      .         Deep Resistivity              : 
TLFamily_RESM      .         Medium Resistivity            : 
TLFamily_RESS      .         Shallow Resistivity           : 
TLFamily_RHOB      .         Bulk Density                  : 
TLFamily_TVD       .         True Vertical Depth           : 
~Curve Information
#_______________________________________________________________________________
#
#LOGNAME           .UNIT     LOG_ID                        : DESCRIPTION
#_______________________________________________________________________________
DEPT               .m                                      :  
CALI               .in                                     :  
DT                 .us/ft                                  :  
DTS                .us/ft                                  :  
GR                 .gAPI                                   : GAMMA RAY 
INPEFA_1           .                                       :  
INPEFA_2           .                                       :  
INPEFA_3           .                                       :  
INPEFA_4           .                                       :  
LITO               .Sem                                    : Não definido 
NPHI               .%                                      : THERMAL NEUTRON POROSITY (ORIGINAL RATIO METHOD) IN SELECTED LITHOLOGY 
OG                 .                                       :  
RESD               .ohm.m                                  :  
RESM               .ohm.m                                  :  
RESS               .ohm-m                                  :  
RHOB               .g/cm3                                  :  
TVD                .                                       : Vertical Depth 
~Ascii
# ...
4381.8     12.7464    66.1826    110.7001   117.4148   -0.03106434 0.2041264  -0.1261213 0.002066475 49         3.7066     117.4148   5.0245     4.9162     5.158399999999999 2.5135     4380.8857 
4382       12.8185    63.8973    109.7879   116.472    -0.004395644 0.2505764  -0.07021788 -0.005924664 49         3.5686     116.472    5.589701   5.5095     5.691300000000001 2.5111     4381.0855 
4382.2     12.8548    61.6441    108.3966   119.5024   -0.04201584 0.1768863  -0.2008076 -0.2440668 49         3.2825     119.5024   6.1445     6.0876     6.260299999999999 2.5233     4381.2854 
4382.4     12.7228    60.7396    107.8672   124.4522   -0.001285589 0.2525147  -0.1012488 -0.2623014 49         3.0262     124.4522   6.531799   6.4889     6.5738     2.5411     4381.4853 
4382.6     12.6114    60.0367    106.8467   126.3285   0.003271829 0.2775878  -0.04866223 -0.2776825 49         2.978      126.3285   6.853      6.8061     6.643600000000001 2.5468     4381.6851 
4382.8     12.4469    59.1623    105.6436   125.6569   0.009976036 0.296829   -0.01329553 -0.3149564 49         2.9295     125.6569   7.2771     7.2063     6.79       2.5364     4381.885  
4383       12.5371    58.7733    106.1444   125.6953   0.009785985 0.3021884  -0.002824614 -0.3944546 49         2.7496     125.6953   7.5229     7.413      6.9363     2.5312     4382.0848 
4383.2     12.7586    59.3228    107.3392   121.6839   0.02066975 0.332834   0.05384321 -0.4209187 49         2.5322     121.6839   7.1177     6.969      6.5635     2.5538     4382.2847 
4383.4     12.9079    60.842     107.2294   110.8139   0.03270316 0.3702576  0.1331177  -0.3900692 49         2.5117     110.8139   6.412301   6.2336     5.788999999999999 2.5917     4382.4846 
4383.6     12.7381    63.0534    109.3715   104.1037   0.04249198 0.4092769  0.2296392  -0.2894371 49         3.4318     104.1037   5.9243     5.7175     5.1466     2.5902     4382.6844 
4383.8     12.5564    64.8868    111.03     112.1682   0.02772899 0.3917394  0.2294829  -0.2769755 49         5.1176     112.1682   5.8946     5.6526     4.8954     2.5494     4382.8843 
4384       12.6046    66.2749    115.3363   117.6619   0.008451804 0.3488076  0.1575089  -0.4103717 49         6.5564     117.6619   6.2012     5.9194     4.9995     2.5205     4383.0841 
4384.2     12.7368    66.3365    111.366    123.573    0.03059627 0.4028138  0.2615356  -0.3146123 49         7.0692     123.573    6.4965     6.1863     5.1505     2.5172     4383.284  
4384.4     12.7984    65.4392    105.4732   132.2897   0.0275331  0.4095262  0.3057047  -0.2135951 49         6.9406     132.2897   6.8584     6.529699   5.2349     2.5245     4383.4839 
4384.6     12.73      63.9088    108.6265   131.5564   0.01090893 0.3777221  0.2697603  -0.2190072 49         6.0109     131.5564   7.7723     7.4119     5.563      2.5282     4383.6837 
4384.8     12.5744    62.8694    105.7493   127.0635   0.000551296 0.3535005  0.2333096  -0.2608847 49         5.1412     127.0635   9.3642     8.9462     6.337399999999999 2.5236     4383.8836 
4385       12.6069    62.1178    104.3164   123.4614   0.01669756 0.3934451  0.3189586  -0.1243168 49         4.6363     123.4614   11.2238    10.729     7.438999999999999 2.5225     4384.0834 
4385.2     12.6745    61.3373    104.384    125.216    0.001132374 0.3673681  0.3000941  -0.07516275 49         3.901      125.216    11.5865    11.0467    8.079299999999998 2.5411     4384.2833 
4385.4     12.6232    59.7893    103.6837   124.2913   -0.00445222 0.3528956  0.2827878  -0.059704  49         3.1276     124.2913   10.8351    10.2664    7.733399999999999 2.5596     4384.4832 
4385.6     12.5555    58.2126    103.9953   119.6887   0.000597208 0.3699698  0.3330421  0.07045996 49         2.9342     119.6887   10.3359    9.705      7.520900000000001 2.5681     4384.683  
4385.8     12.4888    57.0947    101.8715   115.9065   -0.02657913 0.3108471  0.2438847  0.02580827 49         3.2199     115.9065   10.0179    9.3165     7.6567     2.5751     4384.8829 
4386       12.4563    57.0962    102.1518   116.1495   -0.01941911 0.3201108  0.258495   0.07251117 49         3.5281     116.1495   9.3724     8.6524     7.6965     2.5809     4385.0827 
4386.2     12.5073    57.8389    104.1248   116.2495   -0.04604224 0.2614399  0.1628795  -0.008615385 49         3.816      116.2495   8.2408     7.5811     7.386499999999999 2.583      4385.2826 
4386.4     12.5485    58.8005    106.3074   114.5432   -0.02931905 0.2840828  0.1847698  -0.00432116 49         4.679      114.5432   6.6993     6.1744     6.4815     2.5813     4385.4824 
4386.6     12.4857    60.0355    107.295    112.6418   -0.03072568 0.2879927  0.2047429  0.04887278 49         6.4589     112.6418   5.4258     5.0392     5.4253     2.5771     4385.6823 
4386.8     12.3592    61.6067    109.323    115.6538   -0.03841827 0.26541    0.1658219  0.01958562 49         8.321      115.6538   4.6766     4.397799   4.725499999999999 2.557      4385.8822 
4387       12.2948    62.1793    110.2165   123.346    -0.04138541 0.2557107  0.1443974  -0.01891214 49         8.2799     123.346    4.4411     4.2366     4.4604     2.5205     4386.082  
4387.2     12.2204    61.6564    109.8244   126.3701   -0.03856234 0.2607009  0.1526858  -0.01895113 49         6.8385     126.3701   4.6151     4.4669     4.6175     2.4945     4386.2819 
4387.4     12.1817    61.8312    103.7374   124.5539   -0.02833052 0.2812573  0.1919408  0.04300175 49         5.7133     124.5539   4.9255     4.8401     5.0122     2.4815     4386.4817 
4387.6     12.2377    62.6469    107.0618   125.5025   -0.03623861 0.2672245  0.1793922  0.06558644 49         4.8903     125.5025   5.1404     5.132101   5.306800000000001 2.4777     4386.6816 
4387.8     12.2709    62.566     104.483    129.5717   -0.05242735 0.2263574  0.1085821  -0.001020593 49         4.564      129.5717   5.2398     5.3075     5.3916     2.4913     4386.8815 
4388       12.2858    62.0671    102.324    129.6617   -0.05227581 0.2164888  0.07981913 -0.05198446 49         4.5451     129.6617   5.3715     5.5072     5.3991     2.5102     4387.0813 
4388.2     12.3184    61.8013    102.1354   128.9879   -0.05439669 0.2093299  0.06772144 -0.06717468 49         4.4276     128.9879   5.6175     5.8144     5.4901     2.5249     4387.2812 
4388.4     12.3333    61.9715    100.0766   130.7993   -0.06012779 0.1882753  0.02209571 -0.1502964 49         4.2485     130.7993   5.9152     6.156899   5.6224     2.541      4387.481  
4388.6     12.4097    62.2298    101.8587   131.8755   -0.05746095 0.1897442  0.01808811 -0.1988871 49         4.1137     131.8755   6.1984     6.4637     5.7249     2.5485     4387.6809 
4388.8     12.396     62.1957    101.3673   134.2136   -0.04468885 0.2166774  0.06879908 -0.153515  49         4.0599     134.2136   6.4095     6.674601   5.765500000000001 2.5343     4387.8808 
4389       12.413     62.3111    102.2867   136.4671   -0.05959354 0.1835151  0.01723166 -0.2290487 49         3.9253     136.4671   6.5229     6.7647     5.717      2.5161     4388.0806 
4389.2     12.4186    62.3651    102.7717   139.3888   -0.0528081 0.1923575  0.02827603 -0.2558154 49         3.579      139.3888   6.6347     6.841      5.6493     2.5227     4388.2805 
4389.4     12.3845    61.9392    101.649    138.5317   -0.03865216 0.2278303  0.1052097  -0.152548  49         3.2362     138.5317   6.7952     6.9601     5.640699999999999 2.5345     4388.4804 
4389.6     12.3918    61.3391    100.9606   135.0649   -0.05890091 0.187036   0.05274109 -0.1835766 49         3.165      135.0649   7.0321     7.1499     5.709      2.5315     4388.6802 
4389.8     12.4071    60.7618    101.1225   132.7724   -0.08208159 0.1233103  -0.07112837 -0.3792149 49         3.1631     132.7724   7.3194     7.3831     5.876300000000001 2.5213     4388.8801 
4390       12.3805    60.5776    99.4554    132.973    -0.04724966 0.192689   0.04301893 -0.2805707 49         3.1322     132.973    7.5563     7.5589     6.099500000000001 2.5116     4389.08   
