~Version
 VERS              .         2.0                           : CWLS LOG ASCII STANDARD - VERSION 2.0
 WRAP              .         NO                            : ONE LINE PER DEPTH STEP
 DLM               .         SPACE                         : DELIMITING CHARACTER(SPACE TAB OR COMMA)
~Well Information
#_______________________________________________________________________________
#
#PARAMETER_NAME    .UNIT     VALUE                         : DESCRIPTION
#_______________________________________________________________________________
STRT               .m        2425                          : First reference value
STOP               .m        4697.8                        : Last reference value
STEP               .m        0.2                           : Step increment
NULL               .         -9999                         : Missing value
COMP               .         PETROLEO BRASILEIRO S/A       : Company
WELL               .         3-ESS-131_resample            : Well name
FLD                .         GOLFINHO                      : Field
LOC                .                                       : Location
CNTY               .                                       : County
STAT               .         ESPIRITO SANTO                : State
CTRY               .                                       : Country
SRVC               .                                       : Service Company
DATE               .                                       : Date
API                .         342710287600                  : API number
EDF                .M        25.00                         : Elevation Derrick Floor
GDAT               .         SIRGAS2000                    : Geodetic Datum
HZCS               .         UTM                           : Horizontal Coordinate System
LAT                .         -20.005487                    : Latitude
LONG               .         -39.535744                    : Longitude
MC                 .         39 W                          : Meridiano Central
ORIG               .         SIGEO EXPORTACAO PERFIL       : Origem dos dados
WDMS               .M        1383.00                       : Water Depth to Mean Sea Level
XCOORD             .         443959.60                     : Surface X
YCOORD             .         7787821.90                    : Surface Y
~Parameter Information Block
#_______________________________________________________________________________
#
#PARAMETER_NAME    .UNIT     VALUE                         : DESCRIPTION
#_______________________________________________________________________________
SET                .         ESS131_resample               : 
TLFamily_CALI      .         Caliper                       : 
TLFamily_DEPT      .         Measured Depth                : 
TLFamily_DT        .         Compressional Slowness        : 
TLFamily_DTS       .         Shear Slowness                : 
TLFamily_GR        .         Gamma Ray                     : 
TLFamily_INPEFA_1  .                                       : 
TLFamily_INPEFA_2  .                                       : 
TLFamily_INPEFA_3  .                                       : 
TLFamily_INPEFA_4  .                                       : 
TLFamily_LITO      .                                       : 
TLFamily_NPHI      .         Neutron Porosity              : 
TLFamily_OG        .                                       : 
TLFamily_RESD      .         Deep Resistivity              : 
TLFamily_RESM      .         Medium Resistivity            : 
TLFamily_RESS      .         Shallow Resistivity           : 
TLFamily_RHOB      .         Bulk Density                  : 
TLFamily_TVD       .         True Vertical Depth           : 
~Curve Information
#_______________________________________________________________________________
#
#LOGNAME           .UNIT     LOG_ID                        : DESCRIPTION
#_______________________________________________________________________________
DEPT               .m                                      :  
CALI               .in                                     :  
DT                 .us/ft                                  :  
DTS                .us/ft                                  :  
GR                 .gAPI                                   : GAMMA RAY 
INPEFA_1           .                                       :  
INPEFA_2           .                                       :  
INPEFA_3           .                                       :  
INPEFA_4           .                                       :  
LITO               .Sem                                    : Não definido 
NPHI               .%                                      : THERMAL NEUTRON POROSITY (ORIGINAL RATIO METHOD) IN SELECTED LITHOLOGY 
OG                 .                                       :  
RESD               .ohm.m                                  :  
RESM               .ohm.m                                  :  
RESS               .ohm-m                                  :  
RHOB               .g/cm3                                  :  
TVD                .                                       : Vertical Depth 
~Ascii
# ...
4685.6     -9999      -9999      -9999      153.5661   -0.1302479 -0.1382068 -0.1932124 0.125481   49         -9999      153.5661   13.6116    4.2289     1.5886     -9999      4684.4528 
4685.8     -9999      -9999      -9999      139.9997   -0.1255153 -0.1471692 -0.223662  0.1112032  49         -9999      139.9997   13.9447    4.312      1.615      -9999      4684.6528 
4686       -9999      -9999      -9999      128.0938   -0.125125  -0.1618172 -0.2578785 0.1051294  49         -9999      128.0938   13.3399    4.1078     1.5755     -9999      4684.8527 
4686.200000000001 -9999      -9999      -9999      123.7491   -0.1235272 -0.1799092 -0.3078682 0.05759634 49         -9999      123.7491   12.3512    3.7874     1.496899999999656 -9999      4685.052600000001
4686.4     -9999      -9999      -9999      122.4173   -0.1052132 -0.1558566 -0.2746837 0.1323349  49         -9999      122.4173   11.7003    3.5698     1.4306     -9999      4685.2525 
4686.6     -9999      -9999      -9999      122.7147   -0.1135153 -0.187368  -0.3327004 0.1083955  49         -9999      122.7147   11.5991    3.5159     1.4033     -9999      4685.4525 
4686.8     -9999      -9999      -9999      124.1582   -0.107302  -0.1962478 -0.369408  0.05587997 49         -9999      124.1582   12.0342    3.614      1.4101     -9999      4685.6524 
4687       -9999      -9999      -9999      125.7416   -0.05304331 -0.07875653 -0.1472366 0.4199986  49         -9999      125.7416   12.6694    3.7577     1.4329     -9999      4685.8523 
4687.200000000001 -9999      -9999      -9999      127.1575   -0.1076455 -0.1971156 -0.3205811 0.3609065  49         -9999      127.1575   13.2287    3.8599     1.448500000000015 -9999      4686.052200000001
4687.4     -9999      -9999      -9999      128.4446   -0.1156949 -0.2365461 -0.4073348 0.2833252  49         -9999      128.4446   13.6335    3.8885     1.4492     -9999      4686.2522 
4687.6     -9999      -9999      -9999      129.229    -0.1167626 -0.2478808 -0.4346546 0.2642435  49         -9999      129.229    14.0189    3.8798     1.4445     -9999      4686.4521 
4687.8     -9999      -9999      -9999      134.6924   -0.1123211 -0.2582085 -0.4782612 0.1778037  49         -9999      134.6924   14.4879    3.8575     1.44       -9999      4686.652  
4688       -9999      -9999      -9999      143.1033   -0.09806038 -0.2343775 -0.4481418 0.1943691  49         -9999      143.1033   15.097     3.8233     1.4379     -9999      4686.852  
4688.200000000001 -9999      -9999      -9999      144.2374   -0.07850098 -0.1982872 -0.3867834 0.2941475  49         -9999      144.2374   15.8703    3.7761     1.430899999999976 -9999      4687.051900000001
4688.4     -9999      -9999      -9999      139.5977   -0.1031299 -0.2555122 -0.4837011 0.2175255  49         -9999      139.5977   17.2895    3.8234     1.4326     -9999      4687.2518 
4688.6     -9999      -9999      -9999      136.563    -0.1040916 -0.2821746 -0.5653838 0.06775304 49         -9999      136.563    20.0457    4.0785     1.4716     -9999      4687.4517 
4688.8     -9999      -9999      -9999      133.7597   -0.08741768 -0.2580392 -0.543757  0.05706617 49         -9999      133.7597   24.2134    4.5018     1.542      -9999      4687.6517 
4689       -9999      -9999      -9999      130.1522   -0.07899656 -0.248665  -0.5378242 0.05399774 49         -9999      130.1522   28.6665    4.8853     1.6143     -9999      4687.8516 
4689.200000000001 -9999      -9999      -9999      127.9431   -0.09511749 -0.296657  -0.6406136 -0.1168682 49         -9999      127.9431   31.8627    5.042399   1.650100000000063 -9999      4688.051500000001
4689.4     -9999      -9999      -9999      125.4197   -0.08191264 -0.2833244 -0.6489403 -0.2296888 49         -9999      125.4197   33.7654    5.1308     1.6667     -9999      4688.2514 
4689.6     -9999      -9999      -9999      124.2466   -0.07034437 -0.2678444 -0.6466919 -0.3450387 49         -9999      124.2466   35.0406    5.3739     1.7209     -9999      4688.4514 
4689.8     -9999      -9999      -9999      124.5221   -0.044036  -0.2149632 -0.5710055 -0.3645978 49         -9999      124.5221   34.3906    5.6678     1.8063     -9999      4688.6513 
4690       -9999      -9999      -9999      118.8655   -0.02903254 -0.1824134 -0.5190693 -0.3892463 49         -9999      118.8655   30.9433    5.888599   1.889      -9999      4688.8512 
4690.200000000001 -9999      -9999      -9999      119.0642   -0.02193342 -0.1656287 -0.4907055 -0.4332235 49         -9999      119.0642   26.1901    6.0402     1.973000000000416 -9999      4689.051100000001
4690.4     -9999      -9999      -9999      128.1694   -0.01000643 -0.1444638 -0.4634882 -0.5024417 49         -9999      128.1694   22.0811    6.3101     2.0818     -9999      4689.2511 
4690.6     -9999      -9999      -9999      134.3411   0.026721   -0.05481496 -0.2912233 -0.3276264 49         -9999      134.3411   19.3157    6.756599   2.2846     -9999      4689.451  
4690.8     -9999      -9999      -9999      131.4196   0.01927055 -0.05732927 -0.2610821 -0.250475  49         -9999      131.4196   13.3865    9.6018     2.395      -9999      4689.6509 
4691       -9999      -9999      -9999      125.2571   0.005615007 -0.0817868 -0.2816468 -0.2376866 49         -9999      125.2571   9.1449     10.3746    2.3071     -9999      4689.8509 
4691.200000000001 -9999      -9999      -9999      118.0717   -0.003082917 -0.1057117 -0.3210901 -0.3003774 49         -9999      118.0717   7.7097     8.7828     -9999      -9999      4690.050800000001
4691.4     -9999      -9999      -9999      117.3901   0.005635527 -0.08434812 -0.273207  -0.2361124 49         -9999      117.3901   6.978899   7.8435     -9999      -9999      4690.2507 
4691.6     -9999      -9999      -9999      121.5899   -0.007867078 -0.116427  -0.3220808 -0.2949163 49         -9999      121.5899   6.681099   7.2435     -9999      -9999      4690.4506 
4691.8     -9999      -9999      -9999      122.7151   -0.004387706 -0.1155185 -0.3258056 -0.3377876 49         -9999      122.7151   6.8372     7.1096     -9999      -9999      4690.6506 
4692       -9999      -9999      -9999      119.7773   0.01121654 -0.08324584 -0.2685764 -0.3074119 49         -9999      119.7773   7.148099   7.2299     -9999      -9999      4690.8505 
4692.200000000001 -9999      -9999      -9999      119.9248   0.01131475 -0.07778189 -0.2452109 -0.2952363 49         -9999      119.9248   7.4997     7.4372     -9999      -9999      4691.050400000001
4692.4     -9999      -9999      -9999      120.5452   0.002166831 -0.1028615 -0.2930446 -0.42186   49         -9999      120.5452   7.9723     8.137999   -9999      -9999      4691.2503 
4692.6     -9999      -9999      -9999      117.2354   0.007985149 -0.09460576 -0.2901917 -0.5404136 49         -9999      117.2354   8.4354     8.856599   -9999      -9999      4691.4503 
4692.8     -9999      -9999      -9999      110.5257   0.04723206 -0.006480231 -0.1341275 -0.4477355 49         -9999      110.5257   9.153101   9.8387     -9999      -9999      4691.6502 
4693       -9999      -9999      -9999      104.3391   0.03938438 -0.009649274 -0.1148463 -0.4765393 49         -9999      104.3391   9.8857     11.4607    -9999      -9999      4691.8501 
4693.200000000001 -9999      -9999      -9999      101.9436   0.05668459 0.02822681 -0.04451331 -0.483806  49         -9999      101.9436   11.1954    12.718     -9999      -9999      4692.050000000001
4693.4     -9999      -9999      -9999      101.996    0.0711179  0.07336527 0.06068802 -0.4033428 49         -9999      101.996    12.5578    15.4148    -9999      -9999      4692.25   
4693.6     -9999      -9999      -9999      99.3885    0.06711464 0.08458362 0.1244862  -0.3079609 49         -9999      99.3885    14.2199    20.0156    -9999      -9999      4692.4499 
4693.8     -9999      -9999      -9999      98.5021    0.06024138 0.08911113 0.1824145  -0.1616635 49         -9999      98.5021    16.828     25.0467    -9999      -9999      4692.6498 
