~Version
 VERS              .         2.0                           : CWLS LOG ASCII STANDARD - VERSION 2.0
 WRAP              .         NO                            : ONE LINE PER DEPTH STEP
 DLM               .         SPACE                         : DELIMITING CHARACTER(SPACE TAB OR COMMA)
~Well Information
#_______________________________________________________________________________
#
#PARAMETER_NAME    .UNIT     VALUE                         : DESCRIPTION
#_______________________________________________________________________________
STRT               .m        2425                          : First reference value
STOP               .m        4697.8                        : Last reference value
STEP               .m        0.2                           : Step increment
NULL               .         -9999                         : Missing value
COMP               .         PETROLEO BRASILEIRO S/A       : Company
WELL               .         3-ESS-131_resample            : Well name
FLD                .         GOLFINHO                      : Field
LOC                .                                       : Location
CNTY               .                                       : County
STAT               .         ESPIRITO SANTO                : State
CTRY               .                                       : Country
SRVC               .                                       : Service Company
DATE               .                                       : Date
API                .         342710287600                  : API number
EDF                .M        25.00                         : Elevation Derrick Floor
GDAT               .         SIRGAS2000                    : Geodetic Datum
HZCS               .         UTM                           : Horizontal Coordinate System
LAT                .         -20.005487                    : Latitude
LONG               .         -39.535744                    : Longitude
MC                 .         39 W                          : Meridiano Central
ORIG               .         SIGEO EXPORTACAO PERFIL       : Origem dos dados
WDMS               .M        1383.00                       : Water Depth to Mean Sea Level
XCOORD             .         443959.60                     : Surface X
YCOORD             .         7787821.90                    : Surface Y
~Parameter Information Block
#_______________________________________________________________________________
#
#PARAMETER_NAME    .UNIT     VALUE                         : DESCRIPTION
#_______________________________________________________________________________
SET                .         ESS131_resample               : 
TLFamily_CALI      .         Caliper                       : 
TLFamily_DEPT      .         Measured Depth                : 
TLFamily_DT        .         Compressional Slowness        : 
TLFamily_DTS       .         Shear Slowness                : 
TLFamily_GR        .         Gamma Ray                     : 
TLFamily_INPEFA_1  .                                       : 
TLFamily_INPEFA_2  .                                       : 
TLFamily_INPEFA_3  .                                       : 
TLFamily_INPEFA_4  .                                       : 
TLFamily_LITO      .                                       : 
TLFamily_NPHI      .         Neutron Porosity              : 
TLFamily_OG        .                                       : 
TLFamily_RESD      .         Deep Resistivity              : 
TLFamily_RESM      .         Medium Resistivity            : 
TLFamily_RESS      .         Shallow Resistivity           : 
TLFamily_RHOB      .         Bulk Density                  : 
TLFamily_TVD       .         True Vertical Depth           : 
~Curve Information
#_______________________________________________________________________________
#
#LOGNAME           .UNIT     LOG_ID                        : DESCRIPTION
#_______________________________________________________________________________
DEPT               .m                                      :  
CALI               .in                                     :  
DT                 .us/ft                                  :  
DTS                .us/ft                                  :  
GR                 .gAPI                                   : GAMMA RAY 
INPEFA_1           .                                       :  
INPEFA_2           .                                       :  
INPEFA_3           .                                       :  
INPEFA_4           .                                       :  
LITO               .Sem                                    : Não definido 
NPHI               .%                                      : THERMAL NEUTRON POROSITY (ORIGINAL RATIO METHOD) IN SELECTED LITHOLOGY 
OG                 .                                       :  
RESD               .ohm.m                                  :  
RESM               .ohm.m                                  :  
RESS               .ohm-m                                  :  
RHOB               .g/cm3                                  :  
TVD                .                                       : Vertical Depth 
~Ascii
# ...
3485.4     12.2533    77.6197    141.3057   90.7257    -0.02738708 0.1827149  -0.3964925 -0.1276209 49         10.9735    90.7257    1.7037     1.6778     1.868399977684021 2.4462     3485.1062 
3485.6     12.2657    78.5616    142.767    94.8672    -0.0193255 0.2051751  -0.4047353 -0.1684605 49         10.9571    94.8672    1.3094     1.2918     1.376799941062307 2.4464     3485.3061 
3485.8     12.2511    77.2043    138.2699   96.9995    -0.01419302 0.2198996  -0.4283155 -0.2422873 49         10.8724    96.9995    1.1357     1.1232     1.163699984550476 2.4861     3485.5061 
3486       12.2544    74.6264    133.3162   97.5923    0.001480641 0.2581386  -0.4108629 -0.2753623 49         10.2974    97.5923    1.0628     1.0547     1.080999970436096 2.5453     3485.706  
3486.2     12.2826    71.3885    131.1994   94.4341    0.01995418 0.3088162  -0.3580202 -0.2339893 49         9.3214     94.4341    1.0584     1.0559     1.061300039291382 2.5555     3485.9059 
3486.4     12.2623    67.8676    119.865    89.4987    0.02455248 0.3289069  -0.3560628 -0.2480671 49         8.5385     89.4987    1.1332     1.1383     1.111999988555908 2.5425     3486.1059 
3486.6     12.2748    66.321     114.3587   88.6507    0.0307648  0.3524729  -0.3497788 -0.2701712 49         8.2525     88.6507    1.3436     1.3604     1.293599963188905 2.5497     3486.305800000001
3486.8     12.299     65.8211    112.1716   88.5186    0.05317299 0.4162339  -0.2645783 -0.1884687 49         8.3815     88.5186    1.7569     1.8008     1.708099961280823 2.5705     3486.5058 
3487       12.3185    66.3836    112.4973   85.6468    0.0456327  0.4201544  -0.2731632 -0.265257  49         8.43       85.6468    2.207      2.2946     2.324599981307983 2.5754     3486.7057 
3487.2     12.3775    66.8405    114.7296   85.3513    0.06431355 0.4738514  -0.2067062 -0.2770082 49         8.7748     85.3513    2.527      2.6609     2.871299982070923 2.57       3486.9057 
3487.4     12.4166    66.5334    116.554    88.4684    0.08361671 0.5418422  -0.09261674 -0.2451744 49         9.9647     88.4684    2.6633     2.8257     3.228699922561646 2.5598     3487.1056 
3487.6     12.3128    67.1263    118.8089   90.2267    0.09414867 0.5935925  0.006749891 -0.2162289 49         11.3495    90.2267    2.5718     2.728      3.252399921416595 2.5299     3487.3055 
3487.8     12.2513    69.619     126.2914   89.3369    0.1158632  0.6759138  0.1777959  -0.07286234 49         12.1094    89.3369    2.4054     2.5399     2.963799953460693 2.499      3487.5055 
3488       12.2443    72.4813    132.5998   87.5085    0.1240016  0.7337099  0.3269535  0.08287113 49         13.0868    87.5085    2.3894     2.5139     2.869800090789795 2.4867     3487.7054 
3488.2     12.2124    75.6619    136.5149   87.7741    0.1174254  0.7770498  0.4948662  0.3900197  49         13.475     87.7741    2.261      2.3591     2.802500009536743 2.4898     3487.9054 
3488.4     12.1818    78.2202    139.4762   89.5026    0.007899219 0.5846065  0.2502376  0.2242988  49         12.7885    89.5026    1.9118     1.9661     2.314599990844727 2.4842     3488.1053 
3488.6     12.2225    80.3886    142.4631   89.7611    -0.06305403 0.4237896  -0.03416   -0.2223881 49         12.3163    89.7611    1.6233     1.647      1.82889997959066 2.4639     3488.3052 
3488.8     12.2432    80.8073    140.8663   88.2951    -0.03735134 0.4876973  0.08156887 -0.2221206 49         11.8708    88.2951    1.4768     1.4833     1.581500053405762 2.4526     3488.5052 
3489       12.2511    80.3564    135.8372   85.692     0.004400651 0.5716439  0.2197453  -0.2564414 49         11.384     85.692     1.3584     1.3536     1.424299955368042 2.4592     3488.7051 
3489.2     12.2494    79.8215    134.0902   82.0688    0.03842225 0.7050904  0.5550549  0.1740461  49         11.1405    82.0688    1.2686     1.2563     1.286900043487549 2.4726     3488.905  
3489.4     12.2315    79.5363    135.401    79.8793    -0.000147097 0.6432155  0.5300906  0.1828151  49         11.2294    79.8793    1.2899     1.2717     1.241500020027161 2.4799     3489.105  
3489.6     12.244     78.0725    135.1882   80.6269    -0.05540619 0.5919521  0.5946884  0.4790756  49         11.5578    80.6269    1.4105     1.3865     1.319499969482724 2.4733     3489.304900000001
3489.8     12.2544    74.8937    129.2359   80.5164    -0.1357944 0.4080674  0.3323112  0.2335807  49         11.7794    80.5164    1.5448     1.5167     1.452900052070618 2.4511     3489.5049 
3490       12.2667    71.4854    121.6319   81.5398    -0.1835324 0.3321106  0.2870706  0.2696676  49         11.4289    81.5398    1.5842     1.557      1.51610004901886 2.4381     3489.7048 
3490.2     12.3111    68.9675    117.2834   82.4639    -0.2150446 0.2464397  0.1749235  0.1441484  49         10.5625    82.4639    1.5649     1.5419     1.500699996948242 2.4764     3489.9047 
3490.4     12.3248    66.406     114.1535   80.726     -0.2215527 0.2295344  0.1882949  0.1323926  49         9.5091     80.726     1.5532     1.5354     1.472300052642822 2.5511     3490.1047 
3490.6     12.3578    64.5985    114.2654   78.7514    -0.1981569 0.2967879  0.3947043  0.4731945  49         8.3964     78.7514    1.667      1.6534     1.506999969482776 2.6056     3490.3046 
3490.8     12.3472    66.2596    115.8068   78.216     -0.2720062 0.1373818  0.1984108  0.3953439  49         8.2369     78.216     2.0359     2.0297     1.729300022125244 2.6044     3490.5045 
3491       12.3845    74.6363    137.4192   79.0578    -0.3086044 0.05440866 0.115137   0.4255697  57         12.3083    79.0578    2.5996     2.6105     2.213299989700317 2.555      3490.7045 
3491.2     12.338     84.8859    165.7844   86.2267    -0.350098  -0.06354923 -0.05691697 0.3105779  57         20.0462    86.2267    2.7758     2.8021     2.57610011100769 2.4735     3490.9044 
3491.4     12.3044    90.5832    177.2932   112.853    -0.3740935 -0.1313444 -0.1404331 0.3334578  57         27.6599    112.853    2.3263     2.3474     2.324199914932251 2.4181     3491.1044 
3491.6     12.3162    92.4347    177.107    147.732    -0.4134419 -0.2610507 -0.3722919 0.08580881 57         28.4914    147.732    1.7305     1.7414     1.776999950407759 2.375      3491.3043 
3491.8     12.2768    93.5245    180.1556   160.3268   -0.3945263 -0.2704503 -0.4281165 -0.05850581 57         25.9367    160.3268   1.3128     1.3215     1.346199989318848 2.3166     3491.5042 
3492       12.2982    94.5042    181.8159   139.3448   -0.3850733 -0.2741475 -0.4342781 -0.08220351 49         23.4965    139.3448   1.033      1.0412     1.070600032806397 2.274      3491.7042 
3492.2     12.345     96.6953    184.1182   113.5699   -0.3672699 -0.2750501 -0.4530495 -0.1520194 49         22.0118    113.5699   0.7917     0.7966     0.8356000185012817 2.2653     3491.9041 
3492.4     12.3703    99.4076    188.9208   106.8236   -0.344519  -0.2544093 -0.4290643 -0.1958759 49         22.8626    106.8236   0.6139     0.6145     0.6359999775886536 2.2785     3492.104  
3492.6     12.3976    101.2003   192.4619   127.9367   -0.327572  -0.2405889 -0.4010996 -0.217497  49         25.7918    127.9367   0.55       0.5477     0.5335000157355542 2.2992     3492.304000000001
3492.8     12.4823    101.2781   190.859    158.2007   -0.3032748 -0.2117108 -0.3481564 -0.2195978 49         28.4386    158.2007   0.5722     0.5674     0.5214999914169312 2.3075     3492.5039 
3493       12.6359    99.372     191.2018   182.9844   -0.2909221 -0.1972665 -0.3016057 -0.2100057 49         30.3898    182.9844   0.6685     0.6614     0.5878000259399414 2.306      3492.7038 
3493.2     12.5408    96.9389    185.6228   190.9985   -0.2830203 -0.1886527 -0.2476068 -0.1307529 57         30.5609    190.9985   0.769      0.7599     0.6933000087738037 2.317      3492.9038 
3493.4     12.4459    95.3227    178.9869   183.2189   -0.2742234 -0.1842935 -0.2088403 -0.06929181 57         29.0653    183.2189   0.817      0.8065     0.7452999949455261 2.3464     3493.1037 
3493.6     12.3482    96.0249    179.8739   166.5555   -0.2997731 -0.2491821 -0.2804564 -0.1219128 57         28.4265    166.5555   0.8584     0.8465     0.781000018119912 2.3694     3493.303600000001
