~Version
 VERS              .         2.0                           : CWLS LOG ASCII STANDARD - VERSION 2.0
 WRAP              .         NO                            : ONE LINE PER DEPTH STEP
 DLM               .         SPACE                         : DELIMITING CHARACTER(SPACE TAB OR COMMA)
~Well Information
#_______________________________________________________________________________
#
#PARAMETER_NAME    .UNIT     VALUE                         : DESCRIPTION
#_______________________________________________________________________________
STRT               .m        2425                          : First reference value
STOP               .m        4697.8                        : Last reference value
STEP               .m        0.2                           : Step increment
NULL               .         -9999                         : Missing value
COMP               .         PETROLEO BRASILEIRO S/A       : Company
WELL               .         3-ESS-131_resample            : Well name
FLD                .         GOLFINHO                      : Field
LOC                .                                       : Location
CNTY               .                                       : County
STAT               .         ESPIRITO SANTO                : State
CTRY               .                                       : Country
SRVC               .                                       : Service Company
DATE               .                                       : Date
API                .         342710287600                  : API number
EDF                .M        25.00                         : Elevation Derrick Floor
GDAT               .         SIRGAS2000                    : Geodetic Datum
HZCS               .         UTM                           : Horizontal Coordinate System
LAT                .         -20.005487                    : Latitude
LONG               .         -39.535744                    : Longitude
MC                 .         39 W                          : Meridiano Central
ORIG               .         SIGEO EXPORTACAO PERFIL       : Origem dos dados
WDMS               .M        1383.00                       : Water Depth to Mean Sea Level
XCOORD             .         443959.60                     : Surface X
YCOORD             .         7787821.90                    : Surface Y
~Parameter Information Block
#_______________________________________________________________________________
#
#PARAMETER_NAME    .UNIT     VALUE                         : DESCRIPTION
#_______________________________________________________________________________
SET                .         ESS131_resample               : 
TLFamily_CALI      .         Caliper                       : 
TLFamily_DEPT      .         Measured Depth                : 
TLFamily_DT        .         Compressional Slowness        : 
TLFamily_DTS       .         Shear Slowness                : 
TLFamily_GR        .         Gamma Ray                     : 
TLFamily_INPEFA_1  .                                       : 
TLFamily_INPEFA_2  .                                       : 
TLFamily_INPEFA_3  .                                       : 
TLFamily_INPEFA_4  .                                       : 
TLFamily_LITO      .                                       : 
TLFamily_NPHI      .         Neutron Porosity              : 
TLFamily_OG        .                                       : 
TLFamily_RESD      .         Deep Resistivity              : 
TLFamily_RESM      .         Medium Resistivity            : 
TLFamily_RESS      .         Shallow Resistivity           : 
TLFamily_RHOB      .         Bulk Density                  : 
TLFamily_TVD       .         True Vertical Depth           : 
~Curve Information
#_______________________________________________________________________________
#
#LOGNAME           .UNIT     LOG_ID                        : DESCRIPTION
#_______________________________________________________________________________
DEPT               .m                                      :  
CALI               .in                                     :  
DT                 .us/ft                                  :  
DTS                .us/ft                                  :  
GR                 .gAPI                                   : GAMMA RAY 
INPEFA_1           .                                       :  
INPEFA_2           .                                       :  
INPEFA_3           .                                       :  
INPEFA_4           .                                       :  
LITO               .Sem                                    : Não definido 
NPHI               .%                                      : THERMAL NEUTRON POROSITY (ORIGINAL RATIO METHOD) IN SELECTED LITHOLOGY 
OG                 .                                       :  
RESD               .ohm.m                                  :  
RESM               .ohm.m                                  :  
RESS               .ohm-m                                  :  
RHOB               .g/cm3                                  :  
TVD                .                                       : Vertical Depth 
~Ascii
# ...
4227       12.1555    74.5831    130.8877   115.9685   -0.124075  -0.01383666 0.2185138  -0.02723555 49         13.53      115.9685   1.4969     1.5191     1.5141     2.4308     4226.2195 
4227.2     12.1065    75.376     134.8763   119.6781   -0.1038017 0.0339804  0.2962387  0.110237   49         13.9546    119.6781   1.4773     1.5014     1.5492     2.4503     4226.4192 
4227.4     12.1889    75.9747    136.6901   120.7804   -0.1093037 0.04066183 0.3339749  0.3000589  49         13.8582    120.7804   1.3578     1.3803     1.4517     2.4722     4226.619  
4227.6     12.3027    75.1157    139.1018   128.0034   -0.1327349 -0.007528007 0.2559209  0.3442278  57         15.8699    128.0034   1.2593     1.2803     1.3127     2.4888     4226.8188 
4227.8     12.2815    73.1788    139.4055   134.6112   -0.1934648 -0.1447509 -0.000706835 0.1016322  57         18.2032    134.6112   1.2969     1.3208     1.2972     2.4769     4227.0186 
4228       12.2003    70.7909    133.3219   124.8878   -0.1780043 -0.1316074 -0.0265591 0.07368544 49         17.0156    124.8878   1.4318     1.4622     1.4379     2.4568     4227.2184 
4228.2     12.0785    69.7538    128.9313   112.0782   -0.1803297 -0.1596729 -0.1349746 -0.1150806 49         15.009     112.0782   1.4929     1.5259     1.5623     2.4527     4227.4187 
4228.4     12.1812    69.1931    133.4353   110.9575   -0.15158   -0.09327879 -0.03990062 0.01879029 49         12.4046    110.9575   1.4276     1.4557     1.5241     2.477      4227.619  
4228.6     12.2663    68.8745    130.5849   109.8223   -0.1817459 -0.1738233 -0.219154  -0.2113854 49         9.7486     109.8223   1.3247     1.3449     1.401      2.5012     4227.8194 
4228.8     12.2652    69.0209    128.2522   106.2612   -0.147841  -0.1146227 -0.1700767 -0.2262126 49         9.1281     106.2612   1.2726     1.2858     1.3001     2.5041     4228.0197 
4229       12.1877    69.1721    131.7812   106.6007   -0.1549294 -0.133627  -0.2305309 -0.3258405 49         10.1715    106.6007   1.3155     1.3242     1.3064     2.4767     4228.22   
4229.2     12.1063    69.0965    136.9482   109.3362   -0.1255588 -0.08172695 -0.1791514 -0.3043828 49         11.3924    109.3362   1.3502     1.3548     1.3528     2.4463     4228.4198 
4229.4     12.1861    70.1277    132.6712   109.0894   -0.1243417 -0.07737724 -0.18849   -0.3244228 49         11.9842    109.0894   1.3336     1.3344     1.3311     2.4349     4228.6196 
4229.6     12.2602    71.6391    130.7324   105.7127   -0.1136824 -0.05703737 -0.1705672 -0.3019801 49         11.9322    105.7127   1.3504     1.3468     1.3102     2.4395     4228.8194 
4229.8     12.2194    74.0759    132.3191   105.5377   -0.1050215 -0.03794513 -0.1491722 -0.2612267 49         12.0772    105.5377   1.4212     1.4119     1.354      2.442      4229.0191 
4230       12.1808    75.9369    133.6372   111.0561   -0.09577326 -0.01336457 -0.1055936 -0.1534725 49         12.8807    111.0561   1.5186     1.5027     1.4287     2.4413     4229.2189 
4230.2     12.1726    77.397     135.8896   113.7142   -0.1074665 -0.03915663 -0.1519425 -0.1433496 49         14.0519    113.7142   1.6278     1.6057     1.5267     2.4437     4229.4187 
4230.4     12.2545    77.9086    133.1561   113.6605   -0.1017877 -0.03183511 -0.1503698 -0.09621034 49         15.0183    113.6605   1.6733     1.6475     1.602      2.4453     4229.6185 
4230.6     12.2808    78.0594    140.2576   117.7444   -0.09821908 -0.02217478 -0.1312279 0.0107699  57         16.2831    117.7444   1.6234     1.5973     1.5825     2.463      4229.8183 
4230.8     12.2896    77.7119    140.1314   131.4648   -0.111054  -0.05510741 -0.1921751 0.01525414 57         18.0625    131.4648   1.5065     1.4831     1.4933     2.4995     4230.0181 
4231       12.277     77.2325    139.5305   140.0883   -0.1167523 -0.07712714 -0.2480478 -0.01954104 57         19.6889    140.0883   1.3806     1.3616     1.3789     2.4916     4230.2178 
4231.2     12.2641    76.7767    142.132    134.2212   -0.09996989 -0.04731302 -0.2085434 0.06214107 57         18.8873    134.2212   1.2705     1.2564     1.2819     2.4494     4230.4176 
4231.4     12.2885    75.5559    145.3565   122.3284   -0.09691551 -0.03939646 -0.1889177 0.1649592  57         17.4456    122.3284   1.1796     1.1705     1.1955     2.4217     4230.6174 
4231.6     12.2937    74.1266    140.8189   117.8474   -0.09226646 -0.03101574 -0.1713315 0.2668755  49         17.1823    117.8474   1.1358     1.1309     1.1415     2.4145     4230.8172 
4231.8     12.2524    73.4438    140.3199   115.4602   -0.1168083 -0.08472921 -0.2630535 0.2141325  49         16.5236    115.4602   1.1445     1.1429     1.1455     2.407      4231.017  
4232       12.2306    73.131     140.7482   112.7095   -0.1067312 -0.07627147 -0.270127  0.2014014  49         14.8954    112.7095   1.1675     1.1689     1.1852     2.3995     4231.2168 
4232.2     12.1717    72.71      138.7125   108.1282   -0.09977514 -0.05924052 -0.239954  0.2678913  49         14.0065    108.1282   1.1731     1.1771     1.2023     2.3931     4231.4165 
4232.4     12.2028    72.0656    136.5618   104.9164   -0.124139  -0.1182111 -0.3507744 0.1407481  49         14.0373    104.9164   1.1905     1.1965     1.2183     2.3917     4231.6163 
4232.6     12.1713    71.502     129.6411   103.4618   -0.1323656 -0.1547695 -0.4524823 -0.07282003 49         14.0211    103.4618   1.2239     1.232      1.2569     2.3931     4231.8161 
4232.8     12.1902    70.8972    128.9468   103.0267   -0.115628  -0.1343611 -0.456783  -0.2146266 49         13.3681    103.0267   1.2693     1.2795     1.3041     2.4009     4232.0159 
4233       12.2392    69.6701    130.2438   102.7594   -0.076905  -0.05436358 -0.3343413 -0.1597225 49         12.1811    102.7594   1.3124     1.324      1.3628     2.425      4232.2157 
4233.2     12.2268    68.5401    129.2836   105.4911   -0.08426984 -0.06814055 -0.3592584 -0.2564995 49         11.3974    105.4911   1.3111     1.3224     1.3826     2.4466     4232.4154 
4233.4     12.1811    68.2773    128.3687   108.6315   -0.05757191 -0.01543753 -0.2782331 -0.242673  49         11.3678    108.6315   1.26       1.2688     1.3294     2.45       4232.6152 
4233.6     12.1914    69.8913    130.2945   109.8541   -0.06374336 -0.02023132 -0.2706522 -0.260439  49         11.8138    109.8541   1.2156     1.2217     1.2638     2.4427     4232.815  
4233.8     12.2135    71.7125    136.0521   111.8735   -0.06012437 -0.02046149 -0.2765777 -0.3274046 49         12.5557    111.8735   1.1881     1.1925     1.2246     2.4312     4233.0148 
4234       12.2026    73.0336    137.3569   115.6221   -0.04376289 0.01959483 -0.1952526 -0.2593774 49         13.1794    115.6221   1.1668     1.1709     1.193      2.4243     4233.2146 
4234.2     12.2065    73.4211    133.5128   115.2867   -0.04393838 0.02374617 -0.1672658 -0.2169356 49         13.2085    115.2867   1.1759     1.1805     1.1799     2.4194     4233.4144 
4234.4     12.1723    74.3072    133.1893   111.7321   -0.04205728 0.02708545 -0.147122  -0.1844665 49         13.1156    111.7321   1.2168     1.222      1.2165     2.4094     4233.6141 
4234.6     12.1401    75.6209    135.4022   109.2357   -0.04447063 0.02341895 -0.1342057 -0.1481241 49         13.4113    109.2357   1.2083     1.2135     1.2354     2.4076     4233.8139 
4234.8     12.163     76.9563    135.9103   113.0614   -0.04649809 0.0185726  -0.1254852 -0.1156581 49         13.9272    113.0614   1.1493     1.154      1.1715     2.4173     4234.0137 
4235       12.1879    78.2705    137.7645   117.0049   -0.03903114 0.03778492 -0.07154804 -0.02143134 49         14.8352    117.0049   1.1183     1.1229     1.1236     2.4155     4234.2135 
4235.2     12.2652    79.7195    140.5739   116.4722   -0.04682252 0.02577385 -0.06634151 0.03155364 49         16.4905    116.4722   1.1043     1.1088     1.1102     2.4054     4234.4133 
4235.4     12.2394    80.3407    144.8831   117.2267   -0.07475687 -0.04015793 -0.174508  -0.1028329 49         18.7714    117.2267   1.0937     1.0974     1.0921     2.4019     4234.613  
