~Version
 VERS              .         2.0                           : CWLS LOG ASCII STANDARD - VERSION 2.0
 WRAP              .         NO                            : ONE LINE PER DEPTH STEP
 DLM               .         SPACE                         : DELIMITING CHARACTER(SPACE TAB OR COMMA)
~Well Information
#_______________________________________________________________________________
#
#PARAMETER_NAME    .UNIT     VALUE                         : DESCRIPTION
#_______________________________________________________________________________
STRT               .m        2425                          : First reference value
STOP               .m        4697.8                        : Last reference value
STEP               .m        0.2                           : Step increment
NULL               .         -9999                         : Missing value
COMP               .         PETROLEO BRASILEIRO S/A       : Company
WELL               .         3-ESS-131_resample            : Well name
FLD                .         GOLFINHO                      : Field
LOC                .                                       : Location
CNTY               .                                       : County
STAT               .         ESPIRITO SANTO                : State
CTRY               .                                       : Country
SRVC               .                                       : Service Company
DATE               .                                       : Date
API                .         342710287600                  : API number
EDF                .M        25.00                         : Elevation Derrick Floor
GDAT               .         SIRGAS2000                    : Geodetic Datum
HZCS               .         UTM                           : Horizontal Coordinate System
LAT                .         -20.005487                    : Latitude
LONG               .         -39.535744                    : Longitude
MC                 .         39 W                          : Meridiano Central
ORIG               .         SIGEO EXPORTACAO PERFIL       : Origem dos dados
WDMS               .M        1383.00                       : Water Depth to Mean Sea Level
XCOORD             .         443959.60                     : Surface X
YCOORD             .         7787821.90                    : Surface Y
~Parameter Information Block
#_______________________________________________________________________________
#
#PARAMETER_NAME    .UNIT     VALUE                         : DESCRIPTION
#_______________________________________________________________________________
SET                .         ESS131_resample               : 
TLFamily_CALI      .         Caliper                       : 
TLFamily_DEPT      .         Measured Depth                : 
TLFamily_DT        .         Compressional Slowness        : 
TLFamily_DTS       .         Shear Slowness                : 
TLFamily_GR        .         Gamma Ray                     : 
TLFamily_INPEFA_1  .                                       : 
TLFamily_INPEFA_2  .                                       : 
TLFamily_INPEFA_3  .                                       : 
TLFamily_INPEFA_4  .                                       : 
TLFamily_LITO      .                                       : 
TLFamily_NPHI      .         Neutron Porosity              : 
TLFamily_OG        .                                       : 
TLFamily_RESD      .         Deep Resistivity              : 
TLFamily_RESM      .         Medium Resistivity            : 
TLFamily_RESS      .         Shallow Resistivity           : 
TLFamily_RHOB      .         Bulk Density                  : 
TLFamily_TVD       .         True Vertical Depth           : 
~Curve Information
#_______________________________________________________________________________
#
#LOGNAME           .UNIT     LOG_ID                        : DESCRIPTION
#_______________________________________________________________________________
DEPT               .m                                      :  
CALI               .in                                     :  
DT                 .us/ft                                  :  
DTS                .us/ft                                  :  
GR                 .gAPI                                   : GAMMA RAY 
INPEFA_1           .                                       :  
INPEFA_2           .                                       :  
INPEFA_3           .                                       :  
INPEFA_4           .                                       :  
LITO               .Sem                                    : Não definido 
NPHI               .%                                      : THERMAL NEUTRON POROSITY (ORIGINAL RATIO METHOD) IN SELECTED LITHOLOGY 
OG                 .                                       :  
RESD               .ohm.m                                  :  
RESM               .ohm.m                                  :  
RESS               .ohm-m                                  :  
RHOB               .g/cm3                                  :  
TVD                .                                       : Vertical Depth 
~Ascii
# ...
3782       12.6497    93.9634    170.9833   179.6453   -0.221043  -0.0119196 -0.007019495 0.251057   57         24.5573    179.6453   1.5079     1.5057     1.488600015640259 2.4606     3781.6245 
3782.2     12.6418    94.4287    172.2267   179.3066   -0.2408565 -0.0545911 -0.101505  0.178587   57         24.8966    179.3066   1.5154     1.5129     1.490000009536743 2.4605     3781.8243 
3782.4     12.6435    94.3396    174.3165   176.8616   -0.2473796 -0.07317653 -0.1686168 0.08917873 57         25.8731    176.8616   1.532      1.5294     1.505100011825562 2.4675     3782.0242 
3782.6     12.6424    94.1564    175.1407   174.1759   -0.2463993 -0.0715066 -0.197078  0.02964497 57         25.8388    174.1759   1.5409     1.5384     1.518399953842171 2.4777     3782.224000000001
3782.8     12.6424    94.1404    175.0135   173.7626   -0.2395244 -0.054851  -0.19184   0.02791771 57         25.033     173.7626   1.5419     1.5397     1.52049994468689 2.4755     3782.4239 
3783       12.635     94.2706    175.1579   178.4601   -0.2348045 -0.03790082 -0.1752219 0.06742398 57         25.5       178.4601   1.5427     1.5407     1.52049994468689 2.4629     3782.6238 
3783.2     12.6322    94.428     174.938    181.3033   -0.2566266 -0.07880069 -0.2571136 -0.01165322 57         25.7848    181.3033   1.5487     1.5467     1.523699998855591 2.4595     3782.8236 
3783.4     12.6372    94.5211    174.8479   179.3426   -0.2483171 -0.06284047 -0.2554957 -0.02573808 57         25.8108    179.3426   1.5585     1.5565     1.532699942588806 2.4701     3783.0235 
3783.6     12.634     94.4563    174.7256   182.1666   -0.2590999 -0.07641321 -0.2866323 -0.05159668 57         26.023     182.1666   1.5647     1.5627     1.540400028228766 2.4775     3783.223300000001
3783.8     12.6396    94.2935    173.5961   184.0195   -0.2755058 -0.1163723 -0.3847504 -0.2126471 57         25.7111    184.0195   1.5666     1.565      1.542400002479553 2.4819     3783.4232 
3784       12.6387    93.993     174.0345   181.8953   -0.2749988 -0.1188753 -0.4223226 -0.3375319 57         26.1526    181.8953   1.5733     1.5725     1.546900033950806 2.4791     3783.6231 
3784.2     12.6329    93.7165    173.9566   181.5328   -0.2630406 -0.09546892 -0.4127091 -0.4246685 57         25.833     181.5328   1.5887     1.5889     1.561800003051758 2.4745     3783.8229 
3784.4     12.6202    93.563     173.2288   181.8549   -0.2161733 0.0183874  -0.2184367 -0.2303712 57         25.2109    181.8549   1.6048     1.6058     1.58270001411438 2.4768     3784.0228 
3784.6     12.607     93.5092    172.5135   181.8584   -0.213332  0.04896845 -0.1364367 -0.08320145 57         25.3396    181.8584   1.6076     1.609      1.594499945640563 2.4781     3784.2227 
3784.8     12.597     93.5018    171.9957   182.7864   -0.2649583 -0.03162804 -0.2308328 -0.09024217 57         25.0094    182.7864   1.5992     1.6007     1.59089994430542 2.4755     3784.4225 
3785       12.6061    93.6311    172.0652   184.1624   -0.2875834 -0.09456304 -0.3707212 -0.3209026 57         25.0245    184.1624   1.5916     1.5929     1.583600044250488 2.475      3784.6224 
3785.2     12.6089    93.8749    172.2484   186.0973   -0.273798  -0.04763493 -0.2871387 -0.254917  57         25.408     186.0973   1.5872     1.5881     1.582499980926514 2.4782     3784.8222 
3785.4     12.6112    93.9476    172.5133   187.3885   -0.2805199 -0.06159802 -0.3220396 -0.347087  57         25.2456    187.3885   1.5808     1.5812     1.578999996185303 2.4838     3785.0221 
3785.6     12.6215    93.8755    172.1503   185.5887   -0.2809111 -0.04833134 -0.2980681 -0.3627158 57         25.1497    185.5887   1.5766     1.5765     1.576599955558779 2.487      3785.222000000001
3785.8     12.6199    93.6063    171.808    181.1105   -0.2810242 -0.04024514 -0.2844081 -0.3854886 57         25.1165    181.1105   1.576      1.5753     1.578199982643127 2.4852     3785.4218 
3786       12.6063    93.6241    173.0872   176.6176   -0.2967731 -0.06705873 -0.3368888 -0.5127087 57         24.9861    176.6176   1.5751     1.5739     1.58080005645752 2.4785     3785.6217 
3786.2     12.5995    94.0794    173.9834   177.1047   -0.2848914 -0.03546054 -0.2933024 -0.5479022 57         24.8136    177.1047   1.5766     1.5752     1.581200003623962 2.4758     3785.8215 
3786.4     12.5848    94.1857    174.9674   178.2185   -0.2590139 0.03835423 -0.1522175 -0.4028924 57         25.0523    178.2185   1.6181     1.6164     1.599699974060059 2.4819     3786.0214 
3786.6     12.5731    91.943     173.5638   178.4413   -0.2707704 0.03299841 -0.1372543 -0.3642974 57         25.5665    178.4413   1.7563     1.7537     1.694700002670703 2.4895     3786.221300000001
3786.8     12.5737    89.0514    166.9961   180.2536   -0.2732047 0.04646819 -0.08765087 -0.2517055 57         25.4276    180.2536   1.9416     1.9376     1.896999955177307 2.4903     3786.4211 
3787       12.5771    87.0315    162.434    181.9491   -0.2954407 0.009241323 -0.1383147 -0.2793038 57         23.9468    181.9491   1.9197     1.9149     1.970199942588806 2.4886     3786.621  
3787.2     12.5496    87.2984    160.9758   178.4172   -0.2963304 0.01882937 -0.110643  -0.216865  57         21.1051    178.4172   1.7385     1.7338     1.780799984931946 2.4859     3786.8208 
3787.4     12.4746    89.6124    163.3215   167.3042   -0.305444  0.009771157 -0.113812  -0.1814006 57         19.5232    167.3042   1.6324     1.6279     1.627400040626526 2.4746     3787.0207 
3787.6     12.4952    93.2741    169.343    157.6685   -0.3159773 0.0000368  -0.1189215 -0.150067  57         20.3141    157.6685   1.6128     1.6084     1.58630001544952 2.4656     3787.220600000001
3787.8     12.6005    94.7899    171.3434   165.9211   -0.3192971 0.00121219 -0.1099675 -0.1098187 57         22.9794    165.9211   1.6285     1.6243     1.589699983596802 2.4679     3787.4204 
3788       12.6295    94.0309    170.6098   181.8615   -0.3211844 0.01076849 -0.08047496 -0.02860514 57         25.7018    181.8615   1.658      1.6541     1.606500029563904 2.4686     3787.6203 
3788.2     12.6273    93.1402    170.6656   188.0978   -0.3507642 -0.04676083 -0.1791108 -0.1374679 57         26.5183    188.0978   1.7041     1.7004     1.641899943351746 2.4724     3787.8201 
3788.4     12.6437    92.8157    170.432    183.8568   -0.3466308 -0.03406408 -0.166943  -0.1521207 57         26.0313    183.8568   1.7417     1.738      1.683500051498413 2.4836     3788.02   
3788.6     12.6534    91.872     168.6456   179.5161   -0.3421831 -0.01548208 -0.137105  -0.1435035 57         25.646     179.5161   1.7434     1.7401     1.695799946784938 2.4948     3788.219900000001
3788.8     12.6648    90.4856    168.5503   176.8673   -0.3132766 0.06786958 0.02950311 0.1021856  57         25.3772    176.8673   1.7107     1.7082     1.672299981117249 2.5038     3788.4197 
3789       12.6661    90.5844    171.0436   176.6314   -0.3518682 0.004864743 -0.05177142 0.07429972 57         24.8117    176.6314   1.6595     1.6581     1.626099944114685 2.5064     3788.6196 
3789.2     12.6799    91.8502    171.7962   175.9664   -0.3708676 -0.02963338 -0.1115111 0.007822862 57         24.9693    175.9664   1.6161     1.6159     1.581500053405762 2.5001     3788.8194 
3789.4     12.692     92.8038    172.8316   170.747    -0.3811903 -0.04609967 -0.1477904 -0.06977287 57         25.0785    170.747    1.59       1.5912     1.555999994277954 2.49       3789.0193 
3789.6     12.6924    93.2421    175.8641   167.1017   -0.3839585 -0.04356435 -0.151063  -0.1265002 57         24.6148    167.1017   1.57       1.5725     1.543599963188136 2.4838     3789.219200000001
3789.8     12.6914    93.6293    172.9357   169.5108   -0.3770721 -0.02541739 -0.1378041 -0.2052572 57         24.8621    169.5108   1.5426     1.5462     1.525599956512451 2.4857     3789.419  
3790       12.6759    94.4995    176.5358   175.2908   -0.3724286 0.002230809 -0.08695781 -0.2100354 57         25.804     175.2908   1.5153     1.5197     1.502799987792969 2.4899     3789.6189 
