~Version
 VERS              .         2.0                           : CWLS LOG ASCII STANDARD - VERSION 2.0
 WRAP              .         NO                            : ONE LINE PER DEPTH STEP
 DLM               .         SPACE                         : DELIMITING CHARACTER(SPACE TAB OR COMMA)
~Well Information
#_______________________________________________________________________________
#
#PARAMETER_NAME    .UNIT     VALUE                         : DESCRIPTION
#_______________________________________________________________________________
STRT               .m        2425                          : First reference value
STOP               .m        4697.8                        : Last reference value
STEP               .m        0.2                           : Step increment
NULL               .         -9999                         : Missing value
COMP               .         PETROLEO BRASILEIRO S/A       : Company
WELL               .         3-ESS-131_resample            : Well name
FLD                .         GOLFINHO                      : Field
LOC                .                                       : Location
CNTY               .                                       : County
STAT               .         ESPIRITO SANTO                : State
CTRY               .                                       : Country
SRVC               .                                       : Service Company
DATE               .                                       : Date
API                .         342710287600                  : API number
EDF                .M        25.00                         : Elevation Derrick Floor
GDAT               .         SIRGAS2000                    : Geodetic Datum
HZCS               .         UTM                           : Horizontal Coordinate System
LAT                .         -20.005487                    : Latitude
LONG               .         -39.535744                    : Longitude
MC                 .         39 W                          : Meridiano Central
ORIG               .         SIGEO EXPORTACAO PERFIL       : Origem dos dados
WDMS               .M        1383.00                       : Water Depth to Mean Sea Level
XCOORD             .         443959.60                     : Surface X
YCOORD             .         7787821.90                    : Surface Y
~Parameter Information Block
#_______________________________________________________________________________
#
#PARAMETER_NAME    .UNIT     VALUE                         : DESCRIPTION
#_______________________________________________________________________________
SET                .         ESS131_resample               : 
TLFamily_CALI      .         Caliper                       : 
TLFamily_DEPT      .         Measured Depth                : 
TLFamily_DT        .         Compressional Slowness        : 
TLFamily_DTS       .         Shear Slowness                : 
TLFamily_GR        .         Gamma Ray                     : 
TLFamily_INPEFA_1  .                                       : 
TLFamily_INPEFA_2  .                                       : 
TLFamily_INPEFA_3  .                                       : 
TLFamily_INPEFA_4  .                                       : 
TLFamily_LITO      .                                       : 
TLFamily_NPHI      .         Neutron Porosity              : 
TLFamily_OG        .                                       : 
TLFamily_RESD      .         Deep Resistivity              : 
TLFamily_RESM      .         Medium Resistivity            : 
TLFamily_RESS      .         Shallow Resistivity           : 
TLFamily_RHOB      .         Bulk Density                  : 
TLFamily_TVD       .         True Vertical Depth           : 
~Curve Information
#_______________________________________________________________________________
#
#LOGNAME           .UNIT     LOG_ID                        : DESCRIPTION
#_______________________________________________________________________________
DEPT               .m                                      :  
CALI               .in                                     :  
DT                 .us/ft                                  :  
DTS                .us/ft                                  :  
GR                 .gAPI                                   : GAMMA RAY 
INPEFA_1           .                                       :  
INPEFA_2           .                                       :  
INPEFA_3           .                                       :  
INPEFA_4           .                                       :  
LITO               .Sem                                    : Não definido 
NPHI               .%                                      : THERMAL NEUTRON POROSITY (ORIGINAL RATIO METHOD) IN SELECTED LITHOLOGY 
OG                 .                                       :  
RESD               .ohm.m                                  :  
RESM               .ohm.m                                  :  
RESS               .ohm-m                                  :  
RHOB               .g/cm3                                  :  
TVD                .                                       : Vertical Depth 
~Ascii
# ...
3930.2     12.3756    73.8674    138.4637   97.2118    0.08190792 -0.1335658 -0.4577996 0.1699309  49         10.7884    97.2118    0.8654     0.8628     0.8651000261306763 2.4271     3929.7237 
3930.4     12.3516    74.3032    137.6192   96.4828    0.1047542  -0.1030845 -0.4312874 0.1553199  49         10.9322    96.4828    0.9265     0.9217     0.9124000072479248 2.4251     3929.9236 
3930.6     12.3289    74.686     136.2084   98.5954    0.1042736  -0.1089725 -0.4471382 0.1084749  49         11.4287    98.5954    0.9885     0.9803     0.9800000190735804 2.4098     3930.123500000001
3930.8     12.3469    74.8664    136.9146   102.242    0.103443   -0.1229069 -0.4901725 -0.01250418 49         11.9496    102.242    1.023      1.0111     1.011299967765808 2.4004     3930.3234 
3931       12.3782    73.719     136.1376   104.855    0.1114505  -0.1135215 -0.494931  -0.127447  49         11.9782    104.855    1.0659     1.0504     1.032699942588806 2.4064     3930.5232 
3931.2     12.3784    72.1212    133.2769   108.2984   0.1383227  -0.05531403 -0.4036904 -0.1177899 49         11.7387    108.2984   1.1473     1.1282     1.091300010681152 2.4206     3930.7231 
3931.4     12.3661    70.7727    132.103    111.0207   0.1480113  -0.02700512 -0.3499507 -0.1205722 49         11.2494    111.0207   1.2307     1.208      1.171900033950806 2.4285     3930.923  
3931.6     12.3653    70.2678    131.2945   111.5838   0.1407573  -0.04048805 -0.3768294 -0.2397839 49         10.3959    111.5838   1.2807     1.2545     1.218000054359486 2.4333     3931.1229 
3931.8     12.3723    69.359     131.6046   111.4265   0.1569604  -0.006349578 -0.3297219 -0.2934399 49         9.9327     111.4265   1.3306     1.3009     1.242900013923645 2.4373     3931.3227 
3932       12.3737    68.4325    128.261    110.8529   0.1658522  0.02207239 -0.2744296 -0.2939523 49         9.7434     110.8529   1.4049     1.3714     1.297399997711182 2.4358     3931.5226 
3932.2     12.3912    68.4306    126.3417   110.4572   0.1654711  0.02219076 -0.2774741 -0.3708177 49         9.8743     110.4572   1.4704     1.4341     1.356500029563904 2.4343     3931.7225 
3932.4     12.3935    69.095     127.4672   107.1527   0.1796666  0.05931168 -0.2093154 -0.3407682 49         9.9498     107.1527   1.5013     1.4642     1.391899943351746 2.4394     3931.9224 
3932.6     12.38      68.9889    130.4053   104.7098   0.1664658  0.03473094 -0.2488666 -0.4364776 49         9.925      104.7098   1.4701     1.4346     1.384899973869198 2.4456     3932.122300000001
3932.8     12.3594    68.8833    126.2745   105.9986   0.187088   0.08058856 -0.1737019 -0.410639  49         10.1986    105.9986   1.4019     1.3701     1.324300050735474 2.4411     3932.3221 
3933       12.3621    69.4268    130.0289   106.9442   0.1937261  0.106914   -0.1105155 -0.3367842 49         10.5127    106.9442   1.3533     1.3269     1.279600024223328 2.43       3932.522  
3933.2     12.3819    69.9354    132.4004   108.8593   0.2001769  0.1283464  -0.05696231 -0.2486391 49         10.5862    108.8593   1.302      1.2828     1.251399993896484 2.4253     3932.7219 
3933.4     12.3937    69.9625    130.5038   108.9432   0.1851064  0.1041609  -0.08109135 -0.2404134 49         10.2564    108.9432   1.2294     1.2179     1.202299952507019 2.4318     3932.9218 
3933.6     12.3831    70.2448    129.5476   106.4726   0.1831863  0.09737936 -0.09332263 -0.2495729 49         9.8844     106.4726   1.1597     1.1543     1.143100023269548 2.4368     3933.121700000001
3933.8     12.3778    70.8399    132.6333   104.6969   0.1782472  0.08992868 -0.101621  -0.2501322 49         10.2661    104.6969   1.1092     1.1078     1.101600050926209 2.4354     3933.3215 
3934       12.3848    71.7373    134.2783   103.5288   0.1868715  0.1053728  -0.0794553 -0.2304478 49         11.562     103.5288   1.0623     1.0639     1.065400004386902 2.4439     3933.5214 
3934.2     12.3988    72.4402    134.43     98.3189    0.2045435  0.1535481  0.021695   -0.05454119 49         12.2219    98.3189    1.0252     1.0296     1.031000018119812 2.4575     3933.7213 
3934.4     12.4135    72.94      132.4534   92.4037    0.1911704  0.129569   -0.002411893 -0.005527283 49         12.3997    92.4037    1.0205     1.0281     1.022300004959106 2.4536     3933.9212 
3934.6     12.4273    73.2737    135.8418   91.8362    0.1818379  0.1100035  -0.02945775 0.02333716 49         12.6924    91.8362    1.0346     1.0457     1.044600009918273 2.4307     3934.121000000001
3934.8     12.414     73.7513    136.9052   93.0462    0.1747084  0.08864285 -0.07186015 0.002843556 49         12.7125    93.0462    1.0403     1.0546     1.06630003452301 2.4156     3934.3209 
3935       12.4057    74.1174    136.4053   92.5954    0.1813833  0.1014526  -0.05154185 0.0593989  49         12.6435    92.5954    1.0245     1.0408     1.064000010490418 2.4167     3934.5208 
3935.2     12.4038    74.0631    136.9081   92.6017    0.1889484  0.1183793  -0.01801235 0.1509159  49         12.5512    92.6017    0.9953     1.0123     1.042500019073486 2.4216     3934.7207 
3935.4     12.4049    74.2259    137.7004   92.9044    0.1862602  0.1156894  -0.01332095 0.2235791  49         12.6227    92.9044    0.9576     0.9744     1.008399963378906 2.4234     3934.9206 
3935.6     12.4021    74.2905    139.8429   94.6058    0.1726457  0.08513278 -0.06463789 0.211371   49         12.7976    94.6058    0.9236     0.9399     0.9682999849318789 2.4153     3935.1204 
3935.8     12.4037    75.285     139.6682   95.2341    0.1686818  0.06824435 -0.1080725 0.1606231  49         12.959     95.2341    0.912      0.9281     0.9469000101089478 2.3993     3935.3203 
3936       12.4157    76.5141    139.4783   94.0433    0.1800587  0.09159548 -0.07493597 0.2015116  49         13.2529    94.0433    0.9156     0.9318     0.9505000114440918 2.3955     3935.5202 
3936.2     12.3989    77.3234    143.0345   93.0646    0.1824287  0.09943249 -0.05889745 0.2465897  49         13.5429    93.0646    0.9157     0.9317     0.953499972820282 2.4054     3935.7201 
3936.4     12.3937    77.0728    141.9931   96.4431    0.1845941  0.1038551  -0.05267982 0.2771409  49         13.5511    96.4431    0.9146     0.9303     0.9517999887466431 2.422      3935.92   
3936.6     12.3905    76.3746    142.6261   100.9046   0.1764097  0.08521434 -0.08951877 0.2425657  49         13.5425    100.9046   0.9112     0.9262     0.9517999887466258 2.4299     3936.1198 
3936.8     12.3992    75.9135    141.1926   103.8874   0.1862916  0.1038609  -0.06534994 0.2734751  49         13.8269    103.8874   0.8987     0.9126     0.940500020980835 2.4249     3936.3197 
3937       12.4002    76.692     138.4488   103.2431   0.208658   0.1606937  0.04622056 0.4736083  49         13.8974    103.2431   0.9        0.9135     0.9286999702453613 2.4189     3936.5196 
3937.2     12.4065    77.7556    139.1897   99.6571    0.1678792  0.07826737 -0.08372911 0.3914815  49         13.7592    99.6571    0.9456     0.9604     0.9564999938011169 2.4119     3936.7195 
3937.4     12.4072    77.3724    141.1561   98.3656    0.1697521  0.06673925 -0.1340466 0.2995519  49         13.5369    98.3656    1.0383     1.0561     1.046499967575073 2.3983     3936.9194 
3937.6     12.4099    75.706     129.255    102.3777   0.1743218  0.07946758 -0.118588  0.3140305  49         12.72      102.3777   1.1401     1.1603     1.163400053978192 2.3959     3937.119200000001
3937.8     12.4076    73.5788    126.8023   107.3416   0.1827888  0.09431849 -0.1035992 0.3332434  49         11.2894    107.3416   1.2149     1.2342     1.256100058555603 2.4234     3937.3191 
3938       12.4098    70.035     135.499    108.6123   0.174868   0.07848707 -0.1393515 0.2833714  49         9.6336     108.6123   1.2361     1.2506     1.292099952697754 2.4656     3937.519  
3938.2     12.4323    66.8186    129.6776   106.1743   0.1768872  0.07939789 -0.1522096 0.2490967  49         8.4302     106.1743   1.1941     1.2015     1.245599985122681 2.5046     3937.7189 
