~Version
 VERS              .         2.0                           : CWLS LOG ASCII STANDARD - VERSION 2.0
 WRAP              .         NO                            : ONE LINE PER DEPTH STEP
 DLM               .         SPACE                         : DELIMITING CHARACTER(SPACE TAB OR COMMA)
~Well Information
#_______________________________________________________________________________
#
#PARAMETER_NAME    .UNIT     VALUE                         : DESCRIPTION
#_______________________________________________________________________________
STRT               .m        2424.989                      : First reference value
STOP               .m        5587.189                      : Last reference value
STEP               .m        0.2                           : Step increment
NULL               .         -9999                         : Missing value
COMP               .         PETROLEO BRASILEIRO S/A       : Company
WELL               .         4ESS 0138  ES                 : Well name
FLD                .         CANAPU                        : Field
LOC                .                                       : Location
CNTY               .                                       : County
STAT               .         ESPIRITO SANTO                : State
CTRY               .                                       : Country
SRVC               .                                       : Service Company
DATE               .                                       : Date
API                .         342710293200                  : API number
EDF                .M        18.00                         : Elevation Derrick Floor
GDAT               .         SIRGAS2000                    : Geodetic Datum
HZCS               .         UTM                           : Horizontal Coordinate System
LAT                .         -20.018293                    : Latitude
LONG               .         -39.316753                    : Longitude
MC                 .         39 W                          : Meridiano Central
ORIG               .         SIGEO EXPORTACAO PERFIL       : Origem dos dados
WDMS               .M        1614.00                       : Water Depth to Mean Sea Level
XCOORD             .         466869.60                     : Surface X
YCOORD             .         7786462.90                    : Surface Y
~Parameter Information Block
#_______________________________________________________________________________
#
#PARAMETER_NAME    .UNIT     VALUE                         : DESCRIPTION
#_______________________________________________________________________________
SET                .         ESS138_resample               : 
TLFamily_CALI      .         Caliper                       : 
TLFamily_DEPT      .         Measured Depth                : 
TLFamily_DT        .         Compressional Slowness        : 
TLFamily_DTS       .         Compressional Slowness        : 
TLFamily_GR        .         Gamma Ray                     : 
TLFamily_INPEFA_1  .                                       : 
TLFamily_INPEFA_2  .                                       : 
TLFamily_INPEFA_3  .                                       : 
TLFamily_INPEFA_4  .                                       : 
TLFamily_LITO      .                                       : 
TLFamily_NPHI      .         Neutron Porosity              : 
TLFamily_OG        .                                       : 
TLFamily_RESD      .         Deep Resistivity              : 
TLFamily_RESM      .         Medium Resistivity            : 
TLFamily_RESS      .         Shallow Resistivity           : 
TLFamily_RHOB      .         Bulk Density                  : 
TLFamily_TVD       .         True Vertical Depth           : 
~Curve Information
#_______________________________________________________________________________
#
#LOGNAME           .UNIT     LOG_ID                        : DESCRIPTION
#_______________________________________________________________________________
DEPT               .m                                      :  
CALI               .in                                     :  
DT                 .us/ft                                  :  
DTS                .us/ft                                  :  
GR                 .gAPI                                   : GAMMA RAY 
INPEFA_1           .                                       :  
INPEFA_2           .                                       :  
INPEFA_3           .                                       :  
INPEFA_4           .                                       :  
LITO               .Sem                                    : Não definido 
NPHI               .%                                      : THERMAL NEUTRON POROSITY (ORIGINAL RATIO METHOD) IN SELECTED LITHOLOGY 
OG                 .                                       :  
RESD               .ohm.m                                  :  
RESM               .ohm.m                                  :  
RESS               .ohm.m                                  :  
RHOB               .g/cm3                                  :  
TVD                .                                       : Vertical Depth 
~Ascii
# ...
4121.389   12.31035   97.91637344560279 190.3362   139.7538   0.2532025  0.4620058  0.02500218 -0.09453537 57         40.01727   139.7538   0.4631827463852091 0.4931524420857325 0.5778014470241795 2.32244    4120.787700000001
4121.589   12.25356   95.70748232544143 195.4493   146.3865   0.2530686  0.4927253  0.09592469 -0.004089077 57         38.82736   146.3865   0.4776485070135723 0.4880608892645816 0.5834918358097384 2.323255   4120.9877 
4121.789000000001 12.25861   92.76606792538985 199.235    151.7887   0.2503523  0.5476264  0.2434981  0.3078802  57         44.71687   151.7887   0.4768799531662681 0.4771157036204434 0.5845999717712402 2.33628    4121.1877 
4121.989   12.26563   90.10236046258773 200.1413   152.138    0.1885989  0.429862   0.1283836  0.2474419  57         37.55824   152.138    0.4834825101236393 0.4982066207249401 0.5959543519611187 2.315064   4121.387699999999
4122.189   12.26636   87.20562888317876 197.2755   147.7349   0.1600446  0.3690268  0.03966489 0.0683935  57         35.39387   147.7349   0.5109599162401776 0.5177906484918777 0.6106975476264887 2.324399   4121.5876 
4122.389   12.28255   84.33671473705378 191.2727   140.1212   0.1663077  0.4077881  0.1087227  0.1619454  57         33.42343   140.1212   0.5065616310694856 0.5216362180154749 0.6180352237113288 2.322019   4121.787600000001
4122.589   12.2383    83.16853506733845 184.0492   131.3452   0.1509474  0.3724287  0.04803927 -0.000131151 57         34.40437   131.3452   0.5065175697541173 0.5210244156397683 0.6368754693171923 2.323965   4121.9876 
4122.789000000001 12.24274   84.79260538257356 178.0434   125.7009   0.1835397  0.481921   0.2205704  0.2544895  57         31.39722   125.7009   0.4852409382653724 0.5093587202162423 0.6464520131719511 2.351548   4122.187600000001
4122.989   12.24475   87.5035189530978 173.286    123.5621   0.1401294  0.3961938  0.1284424  0.1894635  57         28.972     123.5621   0.4895511264115286 0.5036716605291715 0.6318896984596802 2.376873   4122.3876 
4123.189   12.2551    88.92248409000868 168.5954   123.2895   0.1367717  0.3969604  0.1309032  0.1898937  57         29.58151   123.2895   0.4937196272699046 0.5003285910333132 0.6085067743167772 2.370533   4122.5876 
4123.389   12.25153   88.18644808471137 163.627    120.687    0.1381118  0.4183053  0.179032   0.2907276  57         26.34636   120.687    0.4738564928055715 0.4963862534601241 0.6033682737327009 2.352216   4122.787600000001
4123.589   12.24948   86.63804145873156 158.9911   112.0935   0.1088755  0.3672889  0.1283722  0.2560982  57         24.29887   112.0935   0.4793174890018179 0.5144404938489043 0.6342152890765824 2.368946   4122.9876 
4123.789000000001 12.25136   84.3325375334086 154.8967   100.1676   0.0993686  0.3460597  0.0909292  0.1512682  57         20.42594   100.1676   0.5556947882476262 0.5824294656206855 0.7167615635517797 2.423693   4123.187600000001
4123.989   12.2405    80.65423517903435 151.3354   95.65018   0.1287241  0.4397247  0.2382665  0.3681767  49         18.35591   95.65018   0.6190107122737784 0.6580390904115441 0.8419070182787063 2.439881   4123.3875 
4124.189   12.23772   76.83210862527459 147.8631   96.24435   0.07953969 0.3441414  0.1344498  0.2752002  49         15.7796    96.24435   0.687094467495189 0.7570757695412272 0.9267233115006128 2.447897   4123.5875 
4124.389   12.2299    74.63010911115258 144.1623   97.35854   0.06619133 0.3101474  0.07255879 0.118331   49         15.65462   97.35854   0.6893126402204544 0.7745766468518136 0.9474092753689913 2.451928   4123.7875 
4124.589   12.20409   75.37777369541294 141.4282   99.73316   0.05072927 0.2790229  0.01719268 -0.07144503 49         12.3895    99.73316   0.6765711956288738 0.7687238553981188 0.9408836932868964 2.434436   4123.987499999999
4124.789000000001 12.19498   78.80012097698132 141.8627   106.2771   0.0608124  0.2958204  0.005847769 -0.2997184 49         13.47206   106.2771   0.6955946955480223 0.7791533678106095 0.936765358901359 2.438977   4124.187500000001
4124.989   12.22546   84.46861064839372 145.6635   119.6097   0.09283458 0.3971465  0.1517626  -0.2465733 49         18.43941   119.6097   0.7151926491527507 0.7903757035139649 0.9351732133176642 2.42708    4124.3875 
4125.189   12.21799   91.00934064169539 151.1486   134.9409   0.09333318 0.422404   0.2104388  -0.2541388 57         38.19357   134.9409   0.7396498870480008 0.7806046016371523 0.91405172399191 2.38914    4124.587500000001
4125.389   12.24273   95.49137566033689 157.3055   143.0352   0.08286209 0.4219083  0.2358229  -0.3132719 57         42.83512   143.0352   0.7474573132862163 0.7831314981522942 0.8745413551054481 2.383487   4124.7875 
4125.589   12.26429   96.27031801879673 164.0991   142.4419   0.07182737 0.4224963  0.2699884  -0.3547922 57         43.18111   142.4419   0.7127529985877519 0.7625043156133419 0.854175546477714 2.395061   4124.987399999999
4125.789000000001 12.23738   93.85242412095484 170.2748   137.0965   0.06819981 0.4375166  0.3226832  -0.372313  57         39.05999   137.0965   0.696948798946362 0.7342732648889883 0.8554358486387207 2.421358   4125.187400000001
4125.989   12.20077   90.64012554499249 174.4052   135.1735   0.07939468 0.5038369  0.4725545  -0.1670055 57         30.04      135.1735   0.710005399077654 0.7558928636332393 0.8630398865813855 2.386107   4125.3874 
4126.189   12.20381   88.5314618208271 177.3062   138.2435   0.05767728 0.4929107  0.5306879  -0.001796301 57         32.56364   138.2435   0.7673444038844064 0.7797733013228693 0.8866266414181747 2.432893   4125.5874 
4126.389   12.2279    88.06222041573183 179.7157   139.9673   0.01157475 0.4268265  0.5207909  0.1597412  57         29.31201   139.9673   0.7651000022888184 0.7729655751358029 0.9085487508421737 2.420951   4125.7874 
4126.589   12.19974   88.6150593795177 180.9947   141.4066   -0.05062764 0.2808139  0.3428396  -0.01857694 57         27.72767   141.4066   0.7627736708640648 0.7659720593441853 0.9021812479513381 2.426575   4125.9874 
4126.789000000001 12.1978    88.85299936930325 181.015    143.2142   -0.06180443 0.2685085  0.3449655  0.05259542 57         24.53727   143.2142   0.755766492073964 0.7569665565626533 0.8971999970875079 2.450067   4126.187400000001
4126.989   12.22482   88.37921128560905 180.1265   140.5631   -0.1025736 0.1774808  0.2334534  -0.000948755 57         28.88334   140.5631   0.7541999816894531 0.7559000253677368 0.9096392318462777 2.423238   4126.3874 
4127.189   12.18252   87.43062483419554 177.7293   139.7372   -0.1156318 0.1205348  0.1083336  -0.2162165 57         24.95338   139.7372   0.7458601290865744 0.7546858163675133 0.9363755246420457 2.380499   4126.5874 
4127.389   12.24662   85.96184890226223 173.0193   143.3941   -0.1013699 0.1665798  0.1580952  -0.1657754 57         28.31491   143.3941   0.8227910799868569 0.8168299349493809 0.9527388784820338 2.405551   4126.7873 
4127.589   12.31097   83.63800767713586 166.5134   146.7318   -0.1301085 0.09544336 0.03517272 -0.3442713 57         32.92358   146.7318   0.8286725621309192 0.8365049130891359 0.9550663973608976 2.419525   4126.9873 
4127.789000000001 12.28223   81.35664613978739 161.1094   144.3734   -0.1111733 0.1327089  0.03913709 -0.4199322 57         32.30995   144.3734   0.8653972372914104 0.8856346099286029 0.9574346584232989 2.427135   4127.187300000001
4127.989   12.27548   81.11512005422841 160.0377   136.5725   -0.1064141 0.1590364  0.06244216 -0.378317  57         30.78579   136.5725   0.8101225439872833 0.8625483258576511 0.9534720453482753 2.408021   4127.387299999999
4128.189   12.25958   83.10996584754633 164.408    129.3966   -0.1209926 0.1263892  -0.006815997 -0.4650352 57         28.42945   129.3966   0.8177295482119101 0.8664725678428942 0.9484114980011005 2.382967   4127.5873 
4128.389   12.25775   85.16951553464936 171.6738   128.4402   -0.1153301 0.139864   -0.0222348 -0.5174657 57         27.00686   128.4402   0.8617058036580039 0.8842456879134644 0.9509474464167524 2.384278   4127.7873 
4128.589   12.28537   85.2579494286103 174.9562   132.7124   -0.09752137 0.1931125  0.03382223 -0.4223685 57         26.33695   132.7124   0.8919624475611445 0.8897461022452767 0.9745361176385246 2.434122   4127.9873 
