~Version
 VERS              .         2.0                           : CWLS LOG ASCII STANDARD - VERSION 2.0
 WRAP              .         NO                            : ONE LINE PER DEPTH STEP
 DLM               .         SPACE                         : DELIMITING CHARACTER(SPACE TAB OR COMMA)
~Well Information
#_______________________________________________________________________________
#
#PARAMETER_NAME    .UNIT     VALUE                         : DESCRIPTION
#_______________________________________________________________________________
STRT               .m        2424.989                      : First reference value
STOP               .m        5587.189                      : Last reference value
STEP               .m        0.2                           : Step increment
NULL               .         -9999                         : Missing value
COMP               .         PETROLEO BRASILEIRO S/A       : Company
WELL               .         4ESS 0138  ES                 : Well name
FLD                .         CANAPU                        : Field
LOC                .                                       : Location
CNTY               .                                       : County
STAT               .         ESPIRITO SANTO                : State
CTRY               .                                       : Country
SRVC               .                                       : Service Company
DATE               .                                       : Date
API                .         342710293200                  : API number
EDF                .M        18.00                         : Elevation Derrick Floor
GDAT               .         SIRGAS2000                    : Geodetic Datum
HZCS               .         UTM                           : Horizontal Coordinate System
LAT                .         -20.018293                    : Latitude
LONG               .         -39.316753                    : Longitude
MC                 .         39 W                          : Meridiano Central
ORIG               .         SIGEO EXPORTACAO PERFIL       : Origem dos dados
WDMS               .M        1614.00                       : Water Depth to Mean Sea Level
XCOORD             .         466869.60                     : Surface X
YCOORD             .         7786462.90                    : Surface Y
~Parameter Information Block
#_______________________________________________________________________________
#
#PARAMETER_NAME    .UNIT     VALUE                         : DESCRIPTION
#_______________________________________________________________________________
SET                .         ESS138_resample               : 
TLFamily_CALI      .         Caliper                       : 
TLFamily_DEPT      .         Measured Depth                : 
TLFamily_DT        .         Compressional Slowness        : 
TLFamily_DTS       .         Compressional Slowness        : 
TLFamily_GR        .         Gamma Ray                     : 
TLFamily_INPEFA_1  .                                       : 
TLFamily_INPEFA_2  .                                       : 
TLFamily_INPEFA_3  .                                       : 
TLFamily_INPEFA_4  .                                       : 
TLFamily_LITO      .                                       : 
TLFamily_NPHI      .         Neutron Porosity              : 
TLFamily_OG        .                                       : 
TLFamily_RESD      .         Deep Resistivity              : 
TLFamily_RESM      .         Medium Resistivity            : 
TLFamily_RESS      .         Shallow Resistivity           : 
TLFamily_RHOB      .         Bulk Density                  : 
TLFamily_TVD       .         True Vertical Depth           : 
~Curve Information
#_______________________________________________________________________________
#
#LOGNAME           .UNIT     LOG_ID                        : DESCRIPTION
#_______________________________________________________________________________
DEPT               .m                                      :  
CALI               .in                                     :  
DT                 .us/ft                                  :  
DTS                .us/ft                                  :  
GR                 .gAPI                                   : GAMMA RAY 
INPEFA_1           .                                       :  
INPEFA_2           .                                       :  
INPEFA_3           .                                       :  
INPEFA_4           .                                       :  
LITO               .Sem                                    : Não definido 
NPHI               .%                                      : THERMAL NEUTRON POROSITY (ORIGINAL RATIO METHOD) IN SELECTED LITHOLOGY 
OG                 .                                       :  
RESD               .ohm.m                                  :  
RESM               .ohm.m                                  :  
RESS               .ohm.m                                  :  
RHOB               .g/cm3                                  :  
TVD                .                                       : Vertical Depth 
~Ascii
# ...
5544.189   9.452943   86.564697265625 161.7063   183.9176   -0.2243838 -0.3101945 0.1048834  -0.1691423 57         23.49511   183.9176   3.59618730123447 3.478130521095104 5.60643564790162 2.612573   5538.816203674541
5544.389   9.430605   86.56096709243893 161.8882   186.6642   -0.07571935 -0.06602727 0.3374833  0.04024422 57         22.26437   186.6642   3.585992838234639 3.487743123386334 5.945738660472318 2.616998   5539.00967952756
5544.589   9.466496   86.3948692261709 160.3063   184.4173   -0.1557059 -0.2073614 0.2206682  0.104183   57         21.69894   184.4173   3.648102517426454 3.564236401446489 6.21975661224499 2.615494   5539.203055380577
5544.789000000001 9.504503   85.59204333848039 155.4496   183.9492   -0.133371  -0.2328523 0.1267357  -0.007859332 57         21.77434   183.9492   3.738821417714147 3.657908852424805 6.424488956798548 2.61424    5539.396482677165
5544.989   9.515167   84.14608223982734 147.7671   184.3244   -0.148399  -0.2854899 0.02834545 -0.1582257 57         -9999      184.3244   3.92599765945453 3.793825641056816 6.540541814459179 2.600791   5539.589907086614
5545.189   9.526427   83.41038885642212 141.059    184.5677   -0.1167389 -0.2494957 0.03709755 -0.168456  57         -9999      184.5677   4.237196464786737 4.034684728294043 6.563801312326093 2.588665   5539.783284251968
5545.389   9.541282   85.27490234375 136.6763   185.4583   -0.1191523 -0.2786893 -0.03537904 -0.300201  57         -9999      185.4583   4.682819302325822 4.500170912328216 6.960313033512757 2.590188   5539.976758792651
5545.589   9.542258   85.19376775786634 135.248    184.2141   -0.1213322 -0.3193202 -0.1486768 -0.5939339 57         -9999      184.2141   4.829035144192287 4.818522020526455 9.273811498972259 2.603543   5540.170134645669
5545.789000000001 9.509944   83.63592567342866 137.4491   186.2134   -0.01074295 -0.07141762 0.1611576  -0.1897123 57         -9999      186.2134   4.964532389354553 5.180891090740747 12.53468596615024 2.648576   5540.363586614174
5545.989   9.44835    80.25430235775234 142.0544   186.3481   -0.1070408 -0.2902533 -0.120114  -0.4898287 57         -9999      186.3481   5.487994923973968 5.654952879595276 13.76914761485476 2.712819   5540.556986351706
5546.189   9.513324   78.85273003765943 147.3495   166.6923   -0.03800076 -0.1842447 -0.0672164 -0.5750596 57         -9999      166.6923   5.839014243503864 5.778793004977862 11.12499816885014 2.689365   5540.750388188976
5546.389   9.613455   80.39150234032499 150.4094   144.1534   -0.04248337 -0.1932112 -0.09554314 -0.6333577 57         -9999      144.1534   5.724554113765326 5.510060724871337 8.242995802195003 2.646683   5540.943838057743
5546.589   9.619296   82.93740462255273 151.7659   135.524    0.01703343 -0.06070746 0.06467818 -0.3944677 57         -9999      135.524    5.284822393021006 4.96841002047832 6.889138349339025 2.617497   5541.137213910761
5546.789000000001 9.606467   84.27269744873047 151.0024   154.4009   -0.004334665 -0.1140104 -0.0241306 -0.4572812 57         -9999      154.4009   4.867378531673401 4.572462680636808 6.333059492700603 2.614412   5541.33068976378
5546.989   9.470298   84.24586550895322 150.5638   163.6115   -0.02838551 -0.2014723 -0.1961379 -0.7161462 57         -9999      163.6115   4.251453860627722 3.999927333109176 6.097991893667178 2.623606   5541.524065616798
5547.189   9.349938   84.23456819789617 151.7059   176.0533   0.06802028 0.00419958 0.03023632 -0.437834  57         -9999      176.0533   3.858705064602725 3.681752095245614 5.865157312674798 2.627807   5541.717492125985
5547.389   9.346009   84.31828440268191 152.4411   177.7594   0.03921451 -0.04325258 -0.01768545 -0.336879  57         -9999      177.7594   3.759482893283233 3.630436884905986 5.567229478744092 2.627746   5541.910917322834
5547.589   9.353101   83.86795792867741 151.8073   173.1874   0.03998425 -0.06832378 -0.09330688 -0.37332   57         -9999      173.1874   3.688839538748974 3.614777940005108 5.372969516492984 2.633717   5542.104293700787
5547.789000000001 9.359358   82.3668576338106 149.4993   171.1429   0.01999997 -0.1364255 -0.243842  -0.6262745 57         -9999      171.1429   3.583967400150133 3.562058131240705 5.300066000623067 2.658955   5542.297769028873
5547.989   9.353537   80.12370318315365 145.4562   170.2862   -0.01106572 0.008731239 0.1026562  -0.1123949 57         -9999      170.2862   3.548002349522303 3.574064822403332 5.343566358787511 2.680148   5542.491144881889
5548.189   9.277774   78.30960083007813 141.7899   166.2738   0.04908959 -0.118948  -0.2240976 -0.4325968 57         -9999      166.2738   3.529733792531489 3.572895235280557 5.432163905406571 2.672302   5542.684596062993
5548.389   9.176813   78.25765318382435 139.7015   161.4909   -0.02235527 -0.0440232 -0.02393161 -0.2285588 57         -9999      161.4909   3.461963180290516 3.51536607962086 5.458898687604092 2.676602   5542.877996850394
5548.589   8.990829   78.4107882281929 138.5051   158.5871   0.02214937 -0.0793329 -0.1151351 -0.2519965 57         -9999      158.5871   3.392086942640443 3.481945382349631 5.463198433557876 2.68142    5543.071397637796
5548.789000000001 8.887273   78.80365598984137 137.6753   147.758    -0.001800382 -0.05791247 -0.0797523 -0.2247964 57         -9999      147.758    3.431609241408094 3.545460223002734 5.536564793662532 2.6639     5543.264848293964
5548.989   8.806844   79.67981279428139 135.9223   144.561    0.01208419 -0.05180885 -0.07478063 -0.1882793 57         -9999      144.561    3.458525689039377 3.566423195613576 5.583301928064626 2.684055   5543.458224146982
5549.189   8.7943     80.77700042724609 132.9999   145.7433   0.002359799 -0.05097624 -0.06760745 -0.1539025 57         -9999      145.7433   3.496500000000001 3.567699999999999 5.5757     2.7304     5543.6517 
5549.389   8.786702   79.50370025634766 129.7939   144.9287   0.008368328 -0.03862875 -0.05689953 -0.1309974 57         -9999      144.9287   3.517721508741761 3.565950867189664 5.747964544591575 2.736599   5543.845100787402
5549.589   8.779499   78.22791856981147 127.4344   137.8937   0.005194257 -0.03235036 -0.040135  -0.08915814 57         -9999      137.8937   3.538295129672486 3.56909605088226 6.300333063257638 2.733258   5544.038501574803
5549.789000000001 8.775627   75.97885468249635 126.5778   133.5581   0.003401369 -0.03126535 -0.03770523 -0.06885584 57         -9999      133.5581   3.585749396474055 3.625017877507259 6.876661652545017 2.672872   5544.231927559056
5549.989   8.787398   75.95230921547416 125.9018   138.9858   0.005218242 -0.01258745 -0.001342829 -0.004648408 57         -9999      138.9858   3.685388601522968 3.732187813160374 7.025998687617464 2.650503   5544.425303412073
5550.189   8.769811   77.44235599948331 125.8609   137.377    0.001309626 -0.01518455 -0.008033283 -0.02392281 57         -9999      137.377    3.844272352090286 3.885883344003646 7.038059288461124 2.662694   5544.618779265092
5550.389   8.759204   78.41781478040849 128.7172   132.5929   0.002943102 -0.001700044 0.008691793 -0.002734971 57         -9999      132.5929   3.900013322257848 3.911444022588408 7.114816085868963 2.655856   5544.81220472441
5550.589   8.739597   78.88889436897514 133.6376   134.2253   -0.002192937 -0.01160884 -0.007469832 -0.01702465 57         -9999      134.2253   3.950478110250879 3.974028516143549 7.357735597207297 2.658273   5545.005605511812
5550.789000000001 8.725411   80.77079772949219 138.3428   141.7033   -0.001331864 -0.00741325 -0.01176383 -0.02911948 57         -9999      141.7033   4.076806358181022 4.169460450791138 7.764631717548988 2.6602     5545.199006824148
5550.989   -9999      83.08129834752894 140.6323   -9999      -9999      -9999      -9999      -9999      57         -9999      -9999      4.249910713413543 4.379016592128146 8.205995050260894 -9999      5545.392407086613
5551.189   -9999      86.19531548367543 141.1009   -9999      -9999      -9999      -9999      -9999      57         -9999      -9999      4.502802280678611 4.610840300631899 8.840269516267124 -9999      5545.585858530184
