~Version
 VERS              .         3.0                           : CWLS LOG ASCII STANDARD - VERSION 3.0
 WRAP              .         NO                            : ONE LINE PER DEPTH STEP
 DLM               .         SPACE                         : DELIMITING CHARACTER(SPACE TAB OR COMMA)
~Well Information
#_______________________________________________________________________________
#
#PARAMETER_NAME    .UNIT     VALUE                         : DESCRIPTION
#_______________________________________________________________________________
STRT               .m        2108.1003                     : First reference value
STOP               .m        4106.9003                     : Last reference value
STEP               .m        0.2                           : Step increment
NULL               .         -9999                         : Missing value
COMP               .         PETROLEO BRASILEIRO S/A       : Company
WELL               .         4-ESS-167_resample            : Well name
FLD                .         GOLFINHO                      : Field
LOC                .                                       : Location
SRVC               .                                       : Service Company
CTRY               .                                       : Country
DATE               .                                       : Service Date
LATI               .         -200010.479                   : Latitude
LONG               .         -394042.854                   : Longitude
GDAT               .         SIRGAS2000                    : Geodetic Datum
API                .         342710319700                  : API number
CNTY               .                                       : County
COUNTRY            .                                       : Country
EDF                .M        25.0                          : Elevation Derrick Floor
HZCS               .         UTM                           : Horizontal Coordinate System
LMF                .         MR                            : Log Measure From
MC                 .         39 W                          : Meridiano Central
ORIG               .         SIGEO EXPORTACAO PERFIL       : Origem dos dados
ORIGINALWELLNAME   .         4ESS 0167  ES                 : 
STAT               .         ESPIRITO SANTO                : State
WDMS               .M        966.0                         : Water Depth to Mean Sea Level
X                  .         429077.0                      : Surface X
Y                  .         7788071.0                     : Surface Y
~Parameter Information Block
#_______________________________________________________________________________
#
#PARAMETER_NAME    .UNIT     VALUE                         : DESCRIPTION
#_______________________________________________________________________________
SET                .         ESS167_resample               : 
TLFAMILY_CALI      .         Caliper                       : 
TLFAMILY_COTA      .         Measured Depth                : 
TLFAMILY_DT        .         Compressional Slowness        : 
TLFAMILY_GR        .         Gamma Ray                     : 
TLFAMILY_INPEFA_1  .         Photoelectric Factor          : 
TLFAMILY_INPEFA_2  .         Photoelectric Factor          : 
TLFAMILY_INPEFA_3  .         Photoelectric Factor          : 
TLFAMILY_INPEFA_4  .         Photoelectric Factor          : 
TLFAMILY_LITO      .                                       : 
TLFAMILY_LLD       .         Deep Resistivity              : 
TLFAMILY_RHOB      .         Bulk Density                  : 
TLFamily_CALI      .         Caliper                       : 
TLFamily_COTA      .                                       : 
TLFamily_DEPT      .         Measured Depth                : 
TLFamily_DT        .         Compressional Slowness        : 
TLFamily_GR        .         Gamma Ray                     : 
TLFamily_INPEFA_1  .         Photoelectric Factor          : 
TLFamily_INPEFA_2  .         Photoelectric Factor          : 
TLFamily_INPEFA_3  .         Photoelectric Factor          : 
TLFamily_INPEFA_4  .         Photoelectric Factor          : 
TLFamily_LITO      .                                       : 
TLFamily_LLD       .         Deep Resistivity              : 
TLFamily_NPHI      .         Neutron Porosity              : 
TLFamily_RHOB      .         Bulk Density                  : 
~Curve Information
#_______________________________________________________________________________
#
#LOGNAME           .UNIT     LOG_ID                        : DESCRIPTION
#_______________________________________________________________________________
DEPT               .m                                      :  {F}
CALI               .in                                     : CALIPER {F}
COTA               .                                       :  {F}
DT                 .us/ft                                  : DELTA-T (ALSO CALLED SLOWNESS OR INTERVAL TRANSIT TIME) {F}
GR                 .gAPI                                   : GAMMA RAY {F}
INPEFA_1           .                                       :  {F}
INPEFA_2           .                                       :  {F}
INPEFA_3           .                                       :  {F}
INPEFA_4           .                                       :  {F}
LITO               .                                       :  {F}
LLD                .ohm.m                                  : LATEROLOG DEEP RESISTIVITY {F}
NPHI               .                                       :  {F}
RHOB               .g/cm3                                  : BULK DENSITY {F}
~Ascii
# ...
2235.3003  12.7538    -2235.3003 132.2999   70.5826    -0.18928   -0.37207   -0.46475   -0.2595    58         1.328099966049194 -9999      2.1477    
2235.5003  12.7649    -2235.5003 135.7001   73.7804    -0.17892   -0.35975   -0.47064   -0.30992   58         1.172600030899048 -9999      2.1373    
2235.7003  12.7644    -2235.7003 137.4519   80.31610000000001 -0.18006   -0.3758    -0.52318   -0.45131   58         1.078999996185303 -9999      2.128     
2235.9003  12.7826    -2235.9003 136.7421   83.74      -0.12957   -0.26189   -0.35528   -0.29373   58         1.059900045394898 -9999      2.1316    
2236.1003  12.838     -2236.1003 133.9935   84.65089999999999 -0.11304   -0.20752   -0.23679   -0.07391   58         1.093899965286255 -9999      2.1229    
2236.3003  12.777     -2236.3003 131.6794   85.2453    -0.12717   -0.22652   -0.22708   0.0648     58         1.083500027656555 -9999      2.1136    
2236.5003  12.785     -2236.5003 130.0672   86.25490000000001 -0.14947   -0.28592   -0.31593   0.00278    58         1.11329996585846 -9999      2.1324    
2236.7003  12.8067    -2236.7003 127.7641   85.42059999999999 -0.14601   -0.27981   -0.30126   0.05877    58         1.291499972343445 -9999      2.1546    
2236.9003  12.8054    -2236.9003 122.8999   81.4479    -0.14672   -0.29451   -0.33451   0.01933    58         1.566400051116943 -9999      2.1487    
2237.1003  12.7843    -2237.1003 118.7003   74.167     -0.11328   -0.20595   -0.16518   0.3309     58         1.770400047302246 -9999      2.1365    
2237.3003  12.7657    -2237.3003 117.4739   64.9716    -0.14284   -0.27198   -0.24045   0.36226    58         1.847499966621399 -9999      2.1465    
2237.5003  12.7617    -2237.5003 118.6462   59.2949    -0.1692    -0.34458   -0.35726   0.24311    58         1.802099943161011 -9999      2.1654    
2237.7003  12.7617    -2237.7003 121.0187   60.7002    -0.15046   -0.31079   -0.31045   0.29005    58         1.677099943161011 -9999      2.1574    
2237.9003  12.7604    -2237.9003 122.8277   63.5502    -0.14161   -0.29038   -0.27287   0.34577    58         1.559499979019165 -9999      2.1366    
2238.1003  12.763     -2238.1003 123.5634   62.5506    -0.15233   -0.31968   -0.32112   0.27625    58         1.487499952316284 -9999      2.1265    
2238.3003  12.763     -2238.3003 122.901    62.0223    -0.1762    -0.39392   -0.47177   -0.0187    58         1.497499942779541 -9999      2.1215    
2238.5003  12.763     -2238.5003 120.0866   62.0472    -0.15857   -0.36946   -0.47025   -0.16627   58         1.651900053024292 -9999      2.1255    
2238.7003  12.755     -2238.7003 116.8766   60.3833    -0.12324   -0.29974   -0.38944   -0.225     58         1.988700032234192 -9999      2.1398    
2238.9003  12.747     -2238.9003 116.0123   52.736     -0.09581   -0.22263   -0.25267   -0.12666   58         2.108200073242188 -9999      2.1964    
2239.1003  12.7364    -2239.1003 117.9922   44.9612    -0.08901   -0.20633   -0.22132   -0.16865   58         1.839800000190735 -9999      2.2707    
2239.3003  12.7431    -2239.3003 122.006    48.8259    -0.06543   -0.12789   -0.05351   0.06272    58         1.486600041389465 -9999      2.2589    
2239.5003  12.7808    -2239.5003 126.7325   58.9556    -0.10018   -0.20045   -0.13265   0.00821    58         1.422500014305115 -9999      2.1905    
2239.7003  12.7864    -2239.7003 129.9434   65.1545    -0.113     -0.23676   -0.18894   -0.11879   58         1.549600005149841 -9999      2.1499    
2239.9003  12.7807    -2239.9003 129.9068   65.2812    -0.10485   -0.21751   -0.14761   -0.11643   58         1.715299963951111 -9999      2.1374    
2240.1003  12.7884    -2240.1003 128.1131   60.838     -0.08174   -0.16174   -0.04553   -0.03194   58         1.78410005569458 -9999      2.1354    
2240.3003  12.7656    -2240.3003 126.9908   61.2704    -0.1062    -0.21003   -0.09608   -0.12355   58         1.703199982643127 -9999      2.1389    
2240.5003  12.7758    -2240.5003 127.4669   69.864     -0.11      -0.23305   -0.1475    -0.33489   58         1.645900011062622 -9999      2.1473    
2240.7003  12.7943    -2240.7003 128.587    72.1138    -0.06806   -0.12807   0.03104    -0.22821   58         1.652400016784668 -9999      2.1576    
2240.9003  12.7736    -2240.9003 129.0998   66.8685    -0.05493   -0.07886   0.15086    -0.10395   58         1.595299959182739 -9999      2.1471    
2241.1003  12.7736    -2241.1003 128.2216   65.081     -0.05806   -0.07476   0.18901    -0.0938    58         1.486600041389465 -9999      2.1266    
2241.3003  12.7723    -2241.3003 124.1046   69.48260000000001 -0.06155   -0.0703    0.22911    -0.0644    58         1.478299975395203 -9999      2.1327    
2241.5003  12.7736    -2241.5003 115.5261   70.61490000000001 -0.06751   -0.08335   0.2219     -0.13312   58         1.747599959373474 -9999      2.1384    
2241.7003  12.7749    -2241.7003 110.0488   61.282     -0.05737   -0.05147   0.29304    -0.09119   58         2.213299989700317 -9999      2.1582    
2241.9003  12.7631    -2241.9003 109.3837   50.9021    -0.06631   -0.06892   0.28056    -0.16216   58         2.658400058746338 -9999      2.2417    
2242.1003  12.7337    -2242.1003 112.636    46.7531    -0.04325   -0.00757   0.39653    -0.05962   58         2.516999959945679 -9999      2.2942    
2242.3003  12.7366    -2242.3003 117.6684   46.8235    -0.04379   0.00749    0.46021    0.05349    58         2.095999956130981 -9999      2.2421    
2242.5003  12.7459    -2242.5003 121.6273   53.8953    -0.0545    -0.01412   0.44607    0.03917    58         1.803699970245361 -9999      2.1743    
2242.7003  12.7485    -2242.7003 124.2678   64.0899    -0.03315   0.04857    0.57907    0.25849    58         1.759999990463257 -9999      2.1409    
2242.9003  12.7405    -2242.9003 124.7812   67.4059    -0.05617   0.00362    0.53789    0.28035    58         1.741400003433228 -9999      2.1256    
2243.1003  12.7362    -2243.1003 123.2042   62.3421    -0.06828   -0.0321    0.47971    0.21007    58         1.701599955558777 -9999      2.128     
2243.3003  12.7339    -2243.3003 121.4613   61.0592    -0.06406   -0.02179   0.50306    0.25873    58         1.757200002670288 -9999      2.1351    
2243.5003  12.7326    -2243.5003 120.3109   64.0885    -0.06644   -0.0333    0.48299    0.23481    58         1.975100040435791 -9999      2.1355    
2243.7003  12.7324    -2243.7003 119.7815   58.9397    -0.05787   -0.01116   0.52679    0.30636    58         2.293800115585327 -9999      2.129     
2243.9003  12.7139    -2243.9003 119.7544   51.0393    -0.04327   0.0289     0.61021    0.4761     58         2.339699983596802 -9999      2.1292    
2244.1003  12.7062    -2244.1003 120.6639   50.5761    -0.05243   0.01387    0.60942    0.56975    58         1.981400012969971 -9999      2.1441    
2244.3003  12.7457    -2244.3003 122.852    55.3396    -0.07282   -0.03773   0.53499    0.54349    58         1.638599991798401 -9999      2.1529    
2244.5003  12.7582    -2244.5003 125.8294   59.9764    -0.07137   -0.04124   0.52672    0.56634    58         1.557399988174439 -9999      2.1503    
2244.7003  12.7608    -2244.7003 127.8753   61.4207    -0.07462   -0.0535    0.50458    0.56006    58         1.659700036048889 -9999      2.1457    
2244.9003  12.7618    -2244.9003 128.4795   62.0763    -0.0797    -0.07251   0.46509    0.50914    58         1.783499956130981 -9999      2.1472    
2245.1003  12.7605    -2245.1003 127.9913   60.3472    -0.07504   -0.06779   0.46303    0.49798    58         1.842200040817261 -9999      2.1499    
2245.3003  12.7578    -2245.3003 127.6374   58.1425    -0.08784   -0.10682   0.38493    0.35805    58         1.821200013160706 -9999      2.1324    
2245.5003  12.7565    -2245.5003 127.7541   60.2158    -0.08165   -0.10607   0.35498    0.21258    58         1.755200028419495 -9999      2.1099    
2245.7003  12.7557    -2245.7003 128.3495   60.5514    -0.0529    -0.04561   0.42778    0.19638    58         1.667700052261353 -9999      2.1034    
2245.9003  12.7507    -2245.9003 129.3473   62.0023    -0.00988   0.06917    0.62806    0.46622    58         1.594599962234497 -9999      2.1079    
