~Version
 VERS              .         2.0                           : CWLS LOG ASCII STANDARD - VERSION 2.0
 WRAP              .         NO                            : ONE LINE PER DEPTH STEP
 DLM               .         SPACE                         : DELIMITING CHARACTER(SPACE TAB OR COMMA)
~Well Information
#_______________________________________________________________________________
#
#PARAMETER_NAME    .UNIT     VALUE                         : DESCRIPTION
#_______________________________________________________________________________
STRT               .m        2424.989                      : First reference value
STOP               .m        5587.189                      : Last reference value
STEP               .m        0.2                           : Step increment
NULL               .         -9999                         : Missing value
COMP               .         PETROLEO BRASILEIRO S/A       : Company
WELL               .         4ESS 0138  ES                 : Well name
FLD                .         CANAPU                        : Field
LOC                .                                       : Location
CNTY               .                                       : County
STAT               .         ESPIRITO SANTO                : State
CTRY               .                                       : Country
SRVC               .                                       : Service Company
DATE               .                                       : Date
API                .         342710293200                  : API number
EDF                .M        18.00                         : Elevation Derrick Floor
GDAT               .         SIRGAS2000                    : Geodetic Datum
HZCS               .         UTM                           : Horizontal Coordinate System
LAT                .         -20.018293                    : Latitude
LONG               .         -39.316753                    : Longitude
MC                 .         39 W                          : Meridiano Central
ORIG               .         SIGEO EXPORTACAO PERFIL       : Origem dos dados
WDMS               .M        1614.00                       : Water Depth to Mean Sea Level
XCOORD             .         466869.60                     : Surface X
YCOORD             .         7786462.90                    : Surface Y
~Parameter Information Block
#_______________________________________________________________________________
#
#PARAMETER_NAME    .UNIT     VALUE                         : DESCRIPTION
#_______________________________________________________________________________
SET                .         ESS138_resample               : 
TLFamily_CALI      .         Caliper                       : 
TLFamily_DEPT      .         Measured Depth                : 
TLFamily_DT        .         Compressional Slowness        : 
TLFamily_DTS       .         Compressional Slowness        : 
TLFamily_GR        .         Gamma Ray                     : 
TLFamily_INPEFA_1  .                                       : 
TLFamily_INPEFA_2  .                                       : 
TLFamily_INPEFA_3  .                                       : 
TLFamily_INPEFA_4  .                                       : 
TLFamily_LITO      .                                       : 
TLFamily_NPHI      .         Neutron Porosity              : 
TLFamily_OG        .                                       : 
TLFamily_RESD      .         Deep Resistivity              : 
TLFamily_RESM      .         Medium Resistivity            : 
TLFamily_RESS      .         Shallow Resistivity           : 
TLFamily_RHOB      .         Bulk Density                  : 
TLFamily_TVD       .         True Vertical Depth           : 
~Curve Information
#_______________________________________________________________________________
#
#LOGNAME           .UNIT     LOG_ID                        : DESCRIPTION
#_______________________________________________________________________________
DEPT               .m                                      :  
CALI               .in                                     :  
DT                 .us/ft                                  :  
DTS                .us/ft                                  :  
GR                 .gAPI                                   : GAMMA RAY 
INPEFA_1           .                                       :  
INPEFA_2           .                                       :  
INPEFA_3           .                                       :  
INPEFA_4           .                                       :  
LITO               .Sem                                    : Não definido 
NPHI               .%                                      : THERMAL NEUTRON POROSITY (ORIGINAL RATIO METHOD) IN SELECTED LITHOLOGY 
OG                 .                                       :  
RESD               .ohm.m                                  :  
RESM               .ohm.m                                  :  
RESS               .ohm.m                                  :  
RHOB               .g/cm3                                  :  
TVD                .                                       : Vertical Depth 
~Ascii
# ...
4533.989   8.638843   83.19457377035928 142.4495   146.2993   -0.1009626 -0.1976963 -0.2576249 -0.546245  49         17.30802   146.2993   4.824727508018083 4.716355316051187 3.800120034706433 2.459825   4533.288000000001
4534.189   8.640241   81.77781158607266 144.0127   141.3126   -0.07528484 -0.1479933 -0.1585609 -0.3425851 49         19.59532   141.3126   5.154779895191903 5.199823678537928 4.006497612282167 2.529814   4533.4879 
4534.389   8.658181   80.58706560910646 143.3018   126.6229   -0.09121951 -0.1815632 -0.1521238 -0.2124592 49         24.55467   126.6229   4.634056208924614 4.756946513898598 4.050335177032578 2.536316   4533.687800000001
4534.589   8.666325   79.97337359330817 141.5216   121.1575   -0.09590908 -0.2033124 -0.1467816 -0.1133241 49         22.19613   121.1575   3.804989496949381 3.950470575448846 3.888835111554775 2.504351   4533.887699999999
4534.789000000001 8.654358   80.25472095319525 140.0251   121.5683   -0.1091865 -0.2430487 -0.1696746 -0.06628021 49         22.01817   121.5683   2.999288409913755 3.087807493813202 3.614294811748809 2.486211   4534.087600000001
4534.989   8.657414   81.35660821308666 139.1832   121.9708   -0.1421148 -0.3512762 -0.3206266 -0.3038058 49         20.96861   121.9708   2.664491975578029 2.694363754904278 3.433935520065668 2.458047   4534.2875 
4535.189   8.642029   82.2763966237472 138.6108   119.9703   -0.1138181 -0.3060036 -0.2619819 -0.286473  49         18.44508   119.9703   2.449735708851652 2.371380255492444 3.352742217932878 2.45643    4534.4874 
4535.389   8.6363     82.2433681938585 137.4612   110.5648   -0.1156469 -0.3406417 -0.3231694 -0.5218775 49         18.53205   110.5648   2.407115222512858 2.248693000185969 3.18342957662575 2.492089   4534.687300000001
4535.589   8.658293   81.59515166595561 135.9108   100.3045   -0.07961469 -0.2622445 -0.2092161 -0.5261074 49         18.13989   100.3045   2.458559150970118 2.237768857828947 2.924014177955177 2.493215   4534.887199999999
4535.789000000001 8.621685   81.87363830326603 134.1206   106.8872   -0.03876757 -0.1646329 -0.0399095 -0.3788322 49         16.88523   106.8872   2.854622892054015 2.634570143014838 2.895692197194674 2.438599   4535.087100000001
4535.989   8.606812   83.7889052864048 132.419    122.4383   -0.0347477 -0.1450652 0.0379566  -0.3397478 49         17.45128   122.4383   3.94474157903178 3.96218575392375 3.165766592445148 2.428148   4535.286999999999
4536.189   8.621158   86.09574367493185 131.5658   129.442    -0.01786226 -0.08870708 0.1844184  -0.1453584 49         18.14441   129.442    4.212346369696026 4.358344685332467 3.66601596295396 2.48298    4535.4869 
4536.389   8.664242   85.57485841765553 130.8204   121.5354   -0.03301315 -0.09767967 0.2664     0.07750818 49         20.51785   121.5354   4.454989855214396 4.507001592369583 4.273925286979134 2.530946   4535.6868 
4536.589   8.643985   81.6785405677218 128.6549   110.1063   -0.07133266 -0.1982504 0.1782717  -0.02087632 49         16.21194   110.1063   4.992278779846324 4.749316652556259 4.601959082471857 2.531658   4535.8867 
4536.789000000001 8.645097   76.68106143178586 125.5304   100.5808   -0.06077776 -0.1687078 0.2675132  0.1075118  49         14.88728   100.5808   5.889081761635035 5.523733640571977 4.417060870706678 2.548825   4536.086600000001
4536.989   8.637293   74.12735598106099 122.5294   97.21095   -0.09546345 -0.2499742 0.209033   0.06860026 49         13.12917   97.21095   6.307845629963938 6.285493249261191 4.02043817981128 2.507976   4536.2865 
4537.189   8.636803   73.80934513522583 120.8726   96.86395   -0.0961271 -0.2764655 0.1727107  -0.08328675 49         10.44465   96.86395   6.423292973350909 6.81254371321235 4.053550453336153 2.455514   4536.4864 
4537.389   8.624557   73.15433634359815 122.0499   98.30919   -0.06848062 -0.2125926 0.283764   0.01602336 49         10.57586   98.30919   6.555715382829329 7.348164127788778 4.599270743041797 2.445063   4536.6863 
4537.589   8.611435   70.55539421021759 127.3564   101.0986   -0.06597561 -0.1994877 0.3497589  0.1774135  49         10.68764   101.0986   6.341247422203571 7.121444384622458 5.18971638198506 2.490225   4536.8862 
4537.789000000001 8.623032   68.30275686268637 133.9209   104.8657   -0.07623061 -0.2283263 0.3461741  0.2543729  49         9.214651   104.8657   5.628128668801264 5.978026790302984 5.084316167905075 2.518484   4537.0861 
4537.989   8.64308    69.17665288329138 136.8774   110.4489   -0.08751424 -0.2312743 0.4124334  0.5758317  49         10.76872   110.4489   4.837310498796929 4.840146274163321 4.220336016492166 2.533031   4537.286  
4538.189   8.643013   73.4372290663875 136.6354   111.6875   -0.1623936 -0.4317879 0.1493756  0.3670029  49         12.74099   111.6875   4.037908176885606 3.739045335774677 3.306642207246652 2.531485   4537.485900000001
4538.389   8.650953   77.99879882092252 134.6666   106.1387   -0.1727708 -0.4841236 0.04580661 0.2661534  49         16.98057   106.1387   3.778579631412106 3.203976249528009 2.977893162811747 2.456597   4537.6858 
4538.589   8.650925   80.50380776873089 132.5763   98.07314   -0.1700749 -0.5085889 -0.0307449 0.19295    49         16.66516   98.07314   5.107967896552763 3.963952359707414 3.097648708053103 2.397611   4537.8857 
4538.789000000001 8.638524   81.04848095751166 131.854    88.39569   -0.1520169 -0.5147837 -0.1288779 -0.06487519 49         15.64256   88.39569   7.531727655435364 6.374909533980087 3.575180075770001 2.384429   4538.0856 
4538.989   8.642756   80.99719831011127 132.708    82.06239   -0.1088425 -0.4073398 -0.01238795 0.1027171  49         11.96114   82.06239   8.290339015614354 8.058993278333761 4.434354644156563 2.350642   4538.285499999999
4539.189   8.650495   80.84065418794069 133.3999   81.57705   -0.1205275 -0.4602643 -0.1420212 -0.1051793 49         10.55573   81.57705   7.559222632447741 8.43181954730839 4.812069546085538 2.329425   4538.485400000001
4539.389   8.651468   80.25783935306421 132.4895   86.8104    -0.07978654 -0.3743361 -0.09283116 -0.1312321 49         10.49858   86.8104    6.399516820713044 7.801163818690632 4.196841636446165 2.345391   4538.6853 
4539.589   8.640562   79.28714125425678 131.1449   96.11729   -0.07066928 -0.3581004 -0.1194346 -0.1939768 49         11.73521   96.11729   5.74895059137609 6.661733000609099 3.495701588850919 2.386205   4538.8852 
4539.789000000001 8.648963   78.44110810287104 130.6993   103.7715   -0.04633814 -0.3125702 -0.1224922 -0.269989  49         12.44236   103.7715   5.4272551293275 5.728768135089537 3.434036127532792 2.408693   4539.085100000001
4539.989   8.634875   77.69357005442242 131.1307   109.2099   -0.02190582 -0.2541292 -0.09427871 -0.3020442 49         12.40858   109.2099   4.934766712021662 4.715663844579234 3.805736505336913 2.428945   4539.285  
4540.189   8.626678   76.75787399572283 133.3727   111.6497   0.007736681 -0.1705125 -0.01044077 -0.2024324 57         15.21177   111.6497   4.532659681263582 4.086320415707255 4.324519703747622 2.48101    4539.4849 
4540.389   8.631086   76.10368685584633 136.4466   107.8871   0.01470701 -0.1312763 0.03007642 -0.09002111 57         18.60731   107.8871   4.756499566443376 4.237988824078245 4.750258979781943 2.52257    4539.6848 
4540.589   8.661747   76.54796089713014 138.5203   102.2251   0.01484371 -0.1212302 0.01608693 -0.05708848 57         21.11383   102.2251   5.266759311998703 4.871779103896288 4.657982363045618 2.523237   4539.8847 
4540.789000000001 8.651219   78.63517058365916 138.6027   100.3683   0.0095155  -0.1275308 -0.03199002 -0.09970304 57         21.07232   100.3683   5.413059547133412 5.262685594981527 4.042728080007688 2.462363   4540.084600000001
4540.989   8.634723   81.43155101465557 137.7574   105.0888   0.006237754 -0.1339197 -0.0926893 -0.1926022 57         20.06609   105.0888   5.132053834864564 4.805827039709572 3.652798245996552 2.407025   4540.2845 
4541.189   8.662197   83.43472272016945 136.6409   116.7347   0.02755561 -0.08667134 -0.09125938 -0.2401808 57         17.53472   116.7347   5.321197162673948 4.650018864638303 3.803564155536193 2.387101   4540.4844 
