~Version
 VERS              .         3.0                           : CWLS LOG ASCII STANDARD - VERSION 3.0
 WRAP              .         NO                            : ONE LINE PER DEPTH STEP
 DLM               .         SPACE                         : DELIMITING CHARACTER(SPACE TAB OR COMMA)
~Well Information
#_______________________________________________________________________________
#
#PARAMETER_NAME    .UNIT     VALUE                         : DESCRIPTION
#_______________________________________________________________________________
STRT               .m        2108.1003                     : First reference value
STOP               .m        4106.9003                     : Last reference value
STEP               .m        0.2                           : Step increment
NULL               .         -9999                         : Missing value
COMP               .         PETROLEO BRASILEIRO S/A       : Company
WELL               .         4-ESS-167_resample            : Well name
FLD                .         GOLFINHO                      : Field
LOC                .                                       : Location
SRVC               .                                       : Service Company
CTRY               .                                       : Country
DATE               .                                       : Service Date
LATI               .         -200010.479                   : Latitude
LONG               .         -394042.854                   : Longitude
GDAT               .         SIRGAS2000                    : Geodetic Datum
API                .         342710319700                  : API number
CNTY               .                                       : County
COUNTRY            .                                       : Country
EDF                .M        25.0                          : Elevation Derrick Floor
HZCS               .         UTM                           : Horizontal Coordinate System
LMF                .         MR                            : Log Measure From
MC                 .         39 W                          : Meridiano Central
ORIG               .         SIGEO EXPORTACAO PERFIL       : Origem dos dados
ORIGINALWELLNAME   .         4ESS 0167  ES                 : 
STAT               .         ESPIRITO SANTO                : State
WDMS               .M        966.0                         : Water Depth to Mean Sea Level
X                  .         429077.0                      : Surface X
Y                  .         7788071.0                     : Surface Y
~Parameter Information Block
#_______________________________________________________________________________
#
#PARAMETER_NAME    .UNIT     VALUE                         : DESCRIPTION
#_______________________________________________________________________________
SET                .         ESS167_resample               : 
TLFAMILY_CALI      .         Caliper                       : 
TLFAMILY_COTA      .         Measured Depth                : 
TLFAMILY_DT        .         Compressional Slowness        : 
TLFAMILY_GR        .         Gamma Ray                     : 
TLFAMILY_INPEFA_1  .         Photoelectric Factor          : 
TLFAMILY_INPEFA_2  .         Photoelectric Factor          : 
TLFAMILY_INPEFA_3  .         Photoelectric Factor          : 
TLFAMILY_INPEFA_4  .         Photoelectric Factor          : 
TLFAMILY_LITO      .                                       : 
TLFAMILY_LLD       .         Deep Resistivity              : 
TLFAMILY_RHOB      .         Bulk Density                  : 
TLFamily_CALI      .         Caliper                       : 
TLFamily_COTA      .                                       : 
TLFamily_DEPT      .         Measured Depth                : 
TLFamily_DT        .         Compressional Slowness        : 
TLFamily_GR        .         Gamma Ray                     : 
TLFamily_INPEFA_1  .         Photoelectric Factor          : 
TLFamily_INPEFA_2  .         Photoelectric Factor          : 
TLFamily_INPEFA_3  .         Photoelectric Factor          : 
TLFamily_INPEFA_4  .         Photoelectric Factor          : 
TLFamily_LITO      .                                       : 
TLFamily_LLD       .         Deep Resistivity              : 
TLFamily_NPHI      .         Neutron Porosity              : 
TLFamily_RHOB      .         Bulk Density                  : 
~Curve Information
#_______________________________________________________________________________
#
#LOGNAME           .UNIT     LOG_ID                        : DESCRIPTION
#_______________________________________________________________________________
DEPT               .m                                      :  {F}
CALI               .in                                     : CALIPER {F}
COTA               .                                       :  {F}
DT                 .us/ft                                  : DELTA-T (ALSO CALLED SLOWNESS OR INTERVAL TRANSIT TIME) {F}
GR                 .gAPI                                   : GAMMA RAY {F}
INPEFA_1           .                                       :  {F}
INPEFA_2           .                                       :  {F}
INPEFA_3           .                                       :  {F}
INPEFA_4           .                                       :  {F}
LITO               .                                       :  {F}
LLD                .ohm.m                                  : LATEROLOG DEEP RESISTIVITY {F}
NPHI               .                                       :  {F}
RHOB               .g/cm3                                  : BULK DENSITY {F}
~Ascii
# ...
3276.9003  12.5086    -3276.9003 86.95375   113.0681   0.21897    0.08849    0.34977    0.26001    57         1.99491    -9999      2.482     
3277.1003  12.5083    -3277.1003 86.0984    96.44647000000001 0.21683    0.08863    0.37017    0.29337    57         1.94213    -9999      2.4865    
3277.3003  12.5072    -3277.3003 86.0416    91.94905   0.22001    0.10107    0.41375    0.3742     57         1.87413    -9999      2.4882    
3277.5003  12.50999   -3277.5003 87.10997   91.71547   0.20317    0.06426    0.37303    0.335      57         1.79624    -9999      2.4881    
3277.7003  12.52579   -3277.7003 88.68302   90.36633000000001 0.20852    0.07443    0.39714    0.35613    57         1.73442    -9999      2.4862    
3277.9003  12.5269    -3277.9003 89.99289   88.66467   0.19505    0.04492    0.36178    0.31159    57         1.67393    -9999      2.4766    
3278.1003  12.54179   -3278.1003 91.54165999999999 92.38030999999999 0.19826    0.04478    0.358      0.27677    57         1.62353    -9999      2.4683    
3278.3003  12.5406    -3278.3003 93.62405   96.15504   0.20889    0.07649    0.42591    0.39512    57         1.59542    -9999      2.4637    
3278.5003  12.5327    -3278.5003 94.97903   95.86765   0.20497    0.06923    0.43435    0.48288    57         1.57641    -9999      2.4641    
3278.7003  12.5322    -3278.7003 95.17882   99.5611    0.19232    0.04658    0.42471    0.59036    57         1.5631     -9999      2.4671    
3278.9003  12.5445    -3278.9003 94.63799   103.3079   0.14231    -0.08656   0.20199    0.34645    57         1.53871    -9999      2.4702    
3279.1003  12.55519   -3279.1003 94.32531   101.1309   0.17095    -0.03332   0.26611    0.43681    57         1.51981    -9999      2.473     
3279.3003  12.55799   -3279.3003 94.3027    99.25109999999999 0.14612    -0.10152   0.14566    0.30927    57         1.52549    -9999      2.4709    
3279.5003  12.54201   -3279.5003 94.23866   104.2172   0.16357    -0.0762    0.15762    0.30828    57         1.56877    -9999      2.4766    
3279.7003  12.54749   -3279.7003 94.04321   108.3543   0.15937    -0.09064   0.1264     0.30132    57         1.64677    -9999      2.4836    
3279.9003  12.5523    -3279.9003 93.91643999999999 105.6533   0.16947    -0.07735   0.13093    0.33256    57         1.74486    -9999      2.4862    
3280.1003  12.56869   -3280.1003 94.02240999999999 103.3522   0.15794    -0.10796   0.07493    0.3049     57         1.81936    -9999      2.49829   
3280.3003  12.60348   -3280.3003 94.40598   103.6362   0.17078    -0.09074   0.08079    0.33233    57         1.85308    -9999      2.5002    
3280.5003  12.6028    -3280.5003 94.73739000000001 106.4586   0.17377    -0.0793    0.10542    0.45148    57         1.8551     -9999      2.4893    
3280.7003  12.59011   -3280.7003 94.6541    108.2553   0.15965    -0.12065   0.0282     0.41243    57         1.83501    -9999      2.49      
3280.9003  12.57101   -3280.9003 94.30289999999999 109.537    0.15905    -0.13072   -0.01009   0.38536    57         1.8238     -9999      2.4953    
3281.1003  12.5734    -3281.1003 93.96605   109.9556   0.14925    -0.16399   -0.08969   0.29442    57         1.8334     -9999      2.4969    
3281.3003  12.5759    -3281.3003 93.76598   107.6105   0.16052    -0.14807   -0.096     0.28524    57         1.8426     -9999      2.4968    
3281.5003  12.55101   -3281.5003 93.71921   105.7983   0.13535    -0.21819   -0.24259   0.07876    57         1.83451    -9999      2.495     
3281.7003  12.5497    -3281.7003 93.90936000000001 108.3575   0.14112    -0.23027   -0.32855   -0.14774   57         1.83239    -9999      2.48611   
3281.9003  12.55759   -3281.9003 94.46098000000001 117.3337   0.17054    -0.16754   -0.26684   -0.13662   57         1.82689    -9999      2.46501   
3282.1003  12.5652    -3282.1003 95.13596   119.4668   0.16895    -0.17717   -0.31274   -0.23549   57         1.81371    -9999      2.4574    
3282.3003  12.5683    -3282.3003 95.30483   115.8871   0.17163    -0.17963   -0.35382   -0.35198   57         1.79681    -9999      2.47149   
3282.5003  12.56429   -3282.5003 94.61133   113.023    0.17798    -0.17543   -0.38639   -0.47383   57         1.783      -9999      2.48899   
3282.7003  12.57779   -3282.7003 93.66558000000001 110.047    0.20189    -0.12072   -0.32199   -0.43956   57         1.77591    -9999      2.50469   
3282.9003  12.55232   -3282.9003 93.17303   107.1094   0.1977     -0.13151   -0.35611   -0.52263   57         1.7661     -9999      2.5046    
3283.1003  12.5509    -3283.1003 93.56509   106.4286   0.22799    -0.06127   -0.25956   -0.43371   57         1.75431    -9999      2.4954    
3283.3003  12.5522    -3283.3003 94.6279    105.8491   0.2182     -0.07098   -0.26028   -0.38733   57         1.74859    -9999      2.4987    
3283.5003  12.5575    -3283.5003 95.68526   104.3408   0.22327    -0.06259   -0.25256   -0.3625    57         1.75819    -9999      2.5023    
3283.7003  12.5667    -3283.7003 95.90195   105.859    0.23928    -0.00892   -0.14074   -0.12196   57         1.77479    -9999      2.4995    
3283.9003  12.54981   -3283.9003 95.00669000000001 108.2405   0.2261     -0.0344    -0.16043   -0.02522   57         1.79709    -9999      2.4972    
3284.1003  12.56459   -3284.1003 93.83441999999999 109.7599   0.20561    -0.08218   -0.23044   -0.03196   57         1.7969     -9999      2.4934    
3284.3003  12.55781   -3284.3003 93.20232   108.5111   0.2079     -0.0812    -0.22832   0.04236    57         1.79021    -9999      2.4877    
3284.5003  12.55371   -3284.5003 93.2349    108.9628   0.18861    -0.12963   -0.30826   -0.00996   57         1.79051    -9999      2.4782    
3284.7003  12.5496    -3284.7003 93.56234000000001 109.6425   0.20592    -0.10097   -0.27869   0.03064    57         1.81918    -9999      2.4733    
3284.9003  12.5445    -3284.9003 93.74565   103.7618   0.19702    -0.1176    -0.3004    0.03151    57         1.85767    -9999      2.48179   
3285.1003  12.5378    -3285.1003 93.43362000000001 98.44196   0.2195     -0.06958   -0.22529   0.15058    57         1.8733     -9999      2.4894    
3285.3003  12.5352    -3285.3003 92.74986   98.15421000000001 0.20616    -0.09293   -0.24869   0.16602    57         1.86961    -9999      2.4896    
3285.5003  12.52961   -3285.5003 92.05243   98.43053000000001 0.214      -0.08255   -0.23768   0.18997    57         1.8686     -9999      2.4933    
3285.7003  12.52629   -3285.7003 91.5928    95.49151999999999 0.21719    -0.06609   -0.194     0.29774    57         1.8531     -9999      2.50309   
3285.9003  12.52341   -3285.9003 91.47539   93.49460000000001 0.21161    -0.08207   -0.21314   0.30826    57         1.8571     -9999      2.5122    
3286.1003  12.5204    -3286.1003 92.03167999999999 91.25020000000001 0.20603    -0.09472   -0.23044   0.28836    57         1.8746     -9999      2.5161    
3286.3003  12.50451   -3286.3003 93.67273   91.72020999999999 0.21839    -0.06411   -0.17245   0.38231    57         1.83423    -9999      2.513     
3286.5003  12.50779   -3286.5003 95.51619   94.81689   0.19109    -0.12887   -0.27523   0.23296    57         1.73056    -9999      2.50301   
3286.7003  12.54178   -3286.7003 96.50433   95.11729   0.18896    -0.1483    -0.33375   0.0436     57         1.60375    -9999      2.49211   
3286.9003  12.5471    -3286.9003 96.79462   96.58875000000001 0.2168     -0.08511   -0.24717   0.04048    57         1.53653    -9999      2.4831    
3287.1003  12.55651   -3287.1003 96.76134   102.7163   0.22229    -0.06377   -0.2048    0.03593    57         1.5204     -9999      2.4812    
3287.3003  12.54331   -3287.3003 96.40105   106.6852   0.22768    -0.05007   -0.18435   -0.01365   57         1.54279    -9999      2.4856    
3287.5003  12.5471    -3287.5003 95.42816000000001 108.8042   0.22524    -0.04709   -0.16942   -0.04344   57         1.60807    -9999      2.4851    
3287.7003  12.5389    -3287.7003 94.29131   107.3676   0.21329    -0.08247   -0.24081   -0.24606   57         1.68377    -9999      2.4854    
