~Version
 VERS              .         3.0                           : CWLS LOG ASCII STANDARD - VERSION 3.0
 WRAP              .         NO                            : ONE LINE PER DEPTH STEP
 DLM               .         SPACE                         : DELIMITING CHARACTER(SPACE TAB OR COMMA)
~Well Information
#_______________________________________________________________________________
#
#PARAMETER_NAME    .UNIT     VALUE                         : DESCRIPTION
#_______________________________________________________________________________
STRT               .m        2108.1003                     : First reference value
STOP               .m        4106.9003                     : Last reference value
STEP               .m        0.2                           : Step increment
NULL               .         -9999                         : Missing value
COMP               .         PETROLEO BRASILEIRO S/A       : Company
WELL               .         4-ESS-167_resample            : Well name
FLD                .         GOLFINHO                      : Field
LOC                .                                       : Location
SRVC               .                                       : Service Company
CTRY               .                                       : Country
DATE               .                                       : Service Date
LATI               .         -200010.479                   : Latitude
LONG               .         -394042.854                   : Longitude
GDAT               .         SIRGAS2000                    : Geodetic Datum
API                .         342710319700                  : API number
CNTY               .                                       : County
COUNTRY            .                                       : Country
EDF                .M        25.0                          : Elevation Derrick Floor
HZCS               .         UTM                           : Horizontal Coordinate System
LMF                .         MR                            : Log Measure From
MC                 .         39 W                          : Meridiano Central
ORIG               .         SIGEO EXPORTACAO PERFIL       : Origem dos dados
ORIGINALWELLNAME   .         4ESS 0167  ES                 : 
STAT               .         ESPIRITO SANTO                : State
WDMS               .M        966.0                         : Water Depth to Mean Sea Level
X                  .         429077.0                      : Surface X
Y                  .         7788071.0                     : Surface Y
~Parameter Information Block
#_______________________________________________________________________________
#
#PARAMETER_NAME    .UNIT     VALUE                         : DESCRIPTION
#_______________________________________________________________________________
SET                .         ESS167_resample               : 
TLFAMILY_CALI      .         Caliper                       : 
TLFAMILY_COTA      .         Measured Depth                : 
TLFAMILY_DT        .         Compressional Slowness        : 
TLFAMILY_GR        .         Gamma Ray                     : 
TLFAMILY_INPEFA_1  .         Photoelectric Factor          : 
TLFAMILY_INPEFA_2  .         Photoelectric Factor          : 
TLFAMILY_INPEFA_3  .         Photoelectric Factor          : 
TLFAMILY_INPEFA_4  .         Photoelectric Factor          : 
TLFAMILY_LITO      .                                       : 
TLFAMILY_LLD       .         Deep Resistivity              : 
TLFAMILY_RHOB      .         Bulk Density                  : 
TLFamily_CALI      .         Caliper                       : 
TLFamily_COTA      .                                       : 
TLFamily_DEPT      .         Measured Depth                : 
TLFamily_DT        .         Compressional Slowness        : 
TLFamily_GR        .         Gamma Ray                     : 
TLFamily_INPEFA_1  .         Photoelectric Factor          : 
TLFamily_INPEFA_2  .         Photoelectric Factor          : 
TLFamily_INPEFA_3  .         Photoelectric Factor          : 
TLFamily_INPEFA_4  .         Photoelectric Factor          : 
TLFamily_LITO      .                                       : 
TLFamily_LLD       .         Deep Resistivity              : 
TLFamily_NPHI      .         Neutron Porosity              : 
TLFamily_RHOB      .         Bulk Density                  : 
~Curve Information
#_______________________________________________________________________________
#
#LOGNAME           .UNIT     LOG_ID                        : DESCRIPTION
#_______________________________________________________________________________
DEPT               .m                                      :  {F}
CALI               .in                                     : CALIPER {F}
COTA               .                                       :  {F}
DT                 .us/ft                                  : DELTA-T (ALSO CALLED SLOWNESS OR INTERVAL TRANSIT TIME) {F}
GR                 .gAPI                                   : GAMMA RAY {F}
INPEFA_1           .                                       :  {F}
INPEFA_2           .                                       :  {F}
INPEFA_3           .                                       :  {F}
INPEFA_4           .                                       :  {F}
LITO               .                                       :  {F}
LLD                .ohm.m                                  : LATEROLOG DEEP RESISTIVITY {F}
NPHI               .                                       :  {F}
RHOB               .g/cm3                                  : BULK DENSITY {F}
~Ascii
# ...
3806.3003  12.44021   -3806.3003 71.87806999999999 96.37296000000001 0.05844    0.08475    0.13897    0.64726    57         11.50247   0.140006   2.6072    
3806.5003  12.4329    -3806.5003 72.31747   88.535     0.02463    0.0062     -0.0125    0.51695    57         10.92473   0.142002   2.6073    
3806.7003  12.46079   -3806.7003 71.99817   91.04384   0.01483    -0.03086   -0.13301   0.31166    57         11.26394   0.142193   2.62509   
3806.9003  12.47508   -3806.9003 70.65134000000001 100.3788   0.00579    -0.06168   -0.24854   0.03795    57         16.3905    0.136394   2.6279    
3807.1003  12.50439   -3807.1003 67.76124   104.166    0.08237    0.09488    -0.09154   -0.01735   49         33.97885   0.135587   2.60141   
3807.3003  12.43773   -3807.3003 64.56489999999999 104.7556   0.12387    0.23168    0.13357    0.19252    49         67.93674   0.113993   2.60429   
3807.5003  12.38451   -3807.5003 62.39881   97.85709   0.1303     0.25166    0.13886    0.02532    49         76.27476   0.055039   2.63468   
3807.7003  12.38969   -3807.7003 61.70505   84.88784   0.16688    0.38178    0.37184    0.21933    49         68.46536   0.032098   2.636     
3807.9003  12.40399   -3807.9003 63.60661   82.77385   0.14255    0.34918    0.3409     0.07312    49         40.22623   0.032706   2.62081   
3808.1003  12.4122    -3808.1003 68.23007   95.09934   0.1896     0.49814    0.61384    0.32543    57         19.44206   0.034903   2.6116    
3808.3003  12.41738   -3808.3003 70.67648   105.9703   0.18613    0.54628    0.78451    0.64095    57         11.39998   0.040352   2.59701   
3808.5003  12.46079   -3808.5003 70.38420000000001 109.2516   0.10628    0.39283    0.60247    0.45688    57         10.48119   0.084623   2.5862    
3808.7003  12.4546    -3808.7003 69.34856000000001 110.8856   0.10898    0.41481    0.66783    0.51318    57         12.50164   0.146223   2.5925    
3808.9003  12.43572   -3808.9003 69.14259   106.7279   0.092      0.40452    0.70298    0.60125    57         13.25666   0.144853   2.61299   
3809.1003  12.4153    -3809.1003 69.35330999999999 100.3321   0.04148    0.29334    0.54665    0.38813    57         10.56888   0.117351   2.63869   
3809.3003  12.4153    -3809.3003 69.45207000000001 101.2096   0.06747    0.36547    0.68336    0.56075    57         8.59243    0.091176   2.6463    
3809.5003  12.42668   -3809.5003 69.34199   107.648    0.02725    0.29101    0.60788    0.53305    57         8.24817    0.085241   2.62721   
3809.7003  12.45349   -3809.7003 68.59032999999999 112.06     0.01569    0.26199    0.56594    0.47491    57         9.66851    0.115861   2.60431   
3809.9003  12.43352   -3809.9003 66.57447999999999 112.2216   -0.02008   0.17894    0.4352     0.27626    57         13.57398   0.137169   2.5955    
3810.1003  12.42821   -3810.1003 64.10944000000001 96.77715000000001 -0.00525   0.19847    0.43706    0.15248    49         23.18911   0.111137   2.5977    
3810.3003  12.38031   -3810.3003 63.66966   76.8103    0.04129    0.32783    0.66759    0.44083    49         36.18578   0.077458   2.59241   
3810.5003  12.41208   -3810.5003 66.76199   69.47551   0.02659    0.30801    0.66931    0.50846    49         28.05354   0.056371   2.585     
3810.7003  12.4198    -3810.7003 70.67016   69.02925000000001 -0.01429   0.23953    0.61411    0.59031    49         12.37564   0.042297   2.58969   
3810.9003  12.4267    -3810.9003 73.15508   73.56917   -0.0545    0.12492    0.41497    0.34779    49         6.49692    0.047343   2.5923    
3811.1003  12.4307    -3811.1003 74.07184   76.54008   -0.05324   0.13499    0.4385     0.4369     49         4.86057    0.077584   2.58431   
3811.3003  12.4336    -3811.3003 74.66483   78.91231000000001 -0.09505   0.02434    0.24949    0.22606    49         5.79681    0.12677    2.56581   
3811.5003  12.41791   -3811.5003 75.27131   97.23281   -0.10138   -0.01383   0.13451    -0.02383   49         8.278700000000001 0.153794   2.54571   
3811.7003  12.41019   -3811.7003 75.65698   113.6682   -0.07298   0.02909    0.1448     -0.1612    49         9.726660000000001 0.148403   2.56149   
3811.9003  12.4024    -3811.9003 75.25331   116.8747   -0.06456   0.04441    0.13553    -0.29909   49         8.98311    0.154224   2.60388   
3812.1003  12.45837   -3812.1003 74.46875   121.7095   -0.01565   0.14984    0.27206    -0.25886   57         8.064780000000001 0.164678   2.6177    
3812.3003  12.4714    -3812.3003 74.03645   121.4329   0.02515    0.26583    0.47514    -0.02918   57         7.67874    0.142247   2.6149    
3812.5003  12.4741    -3812.5003 73.58645   119.9245   0.03179    0.31197    0.60617    0.24598    57         7.50298    0.12966    2.6153    
3812.7003  12.4741    -3812.7003 72.36524   122.7295   -0.01481   0.24021    0.57031    0.42092    57         7.21505    0.163808   2.59122   
3812.9003  12.4767    -3812.9003 70.40367999999999 127.2404   -0.08797   0.05423    0.27075    0.08539    57         8.18463    0.156049   2.56001   
3813.1003  12.4768    -3813.1003 68.86279   126.0556   -0.06107   0.1195     0.37925    0.27539    57         10.12761   0.127963   2.5586    
3813.3003  12.49529   -3813.3003 67.90913000000001 113.4074   -0.10728   -0.01026   0.14496    -0.0637    57         9.89123    0.108979   2.58139   
3813.5003  12.44012   -3813.5003 67.46323   105.2192   -0.07547   0.05861    0.2316     -0.0346    57         7.35633    0.0995     2.5945    
3813.7003  12.44057   -3813.7003 68.15269000000001 114.3907   -0.07973   0.05196    0.22943    -0.04112   57         6.07047    0.101696   2.57501   
3813.9003  12.48859   -3813.9003 70.2812    127.545    -0.08649   0.03365    0.18977    -0.15588   57         5.79102    0.0953     2.54521   
3814.1003  12.5017    -3814.1003 72.97133   132.7329   -0.10783   -0.02676   0.06877    -0.4363    57         5.43521    0.111715   2.5351    
3814.3003  12.5043    -3814.3003 73.43481   134.3559   -0.05117   0.10317    0.25789    -0.31005   57         5.11233    0.178975   2.54369   
3814.5003  12.507     -3814.5003 70.0014    133.6188   -0.06693   0.07954    0.237      -0.35976   57         5.67281    0.203568   2.55669   
3814.7003  12.5055    -3814.7003 64.36586   122.6342   -0.0457    0.13477    0.33843    -0.21679   57         8.320539999999999 0.177825   2.57219   
3814.9003  12.46632   -3814.9003 60.94952   109.227    -0.06865   0.09626    0.31113    -0.16686   57         15.5471    0.126479   2.59299   
3815.1003  12.39594   -3815.1003 59.55127   95.54696   -0.08814   0.03853    0.21141    -0.28049   49         26.63093   0.060132   2.60509   
3815.3003  12.41879   -3815.3003 60.12317   81.66592   -0.08689   0.04331    0.22992    -0.20693   49         25.06043   0.032999   2.6053    
3815.5003  12.4266    -3815.5003 62.67178   77.85059   -0.07244   0.07856    0.3087     0.0065     49         14.07112   0.034209   2.6069    
3815.7003  12.4292    -3815.7003 66.58376   92.70349   -0.10989   -0.00253   0.21113    0.02874    49         8.93201    0.038001   2.612     
3815.9003  12.4319    -3815.9003 70.50691999999999 117.6719   -0.11233   -0.02237   0.18226    0.08093    49         7.38294    0.038605   2.60451   
3816.1003  12.48287   -3816.1003 72.65369   128.0167   -0.12747   -0.05402   0.15521    0.17495    57         7.61275    0.044962   2.57971   
3816.3003  12.43964   -3816.3003 73.41712   126.1357   -0.14946   -0.12574   0.03121    0.07736    57         8.42845    0.093133   2.5698    
3816.5003  12.42679   -3816.5003 73.43115   120.7685   -0.14372   -0.11925   0.0384     0.13213    57         8.818199999999999 0.155037   2.5773    
3816.7003  12.4442    -3816.7003 73.03645   112.8148   -0.14805   -0.14154   0.00153    0.14872    57         8.407769999999999 0.165006   2.59349   
3816.9003  12.40172   -3816.9003 72.42699   109.4801   -0.11483   -0.05648   0.16365    0.49707    57         7.89601    0.169515   2.61719   
3817.1003  12.41528   -3817.1003 71.83618   110.5911   -0.17153   -0.18664   -0.01377   0.45945    57         8.18207    0.176701   2.6179    
