~Version
 VERS              .         2.0                           : CWLS LOG ASCII STANDARD - VERSION 2.0
 WRAP              .         NO                            : ONE LINE PER DEPTH STEP
 DLM               .         SPACE                         : DELIMITING CHARACTER(SPACE TAB OR COMMA)
~Well Information
#_______________________________________________________________________________
#
#PARAMETER_NAME    .UNIT     VALUE                         : DESCRIPTION
#_______________________________________________________________________________
STRT               .m        1542                          : First reference value
STOP               .m        5640.8                        : Last reference value
STEP               .m        0.2                           : Step increment
NULL               .         -9999                         : Missing value
COMP               .         PETROLEO BRASILEIRO S/A       : Company
WELL               .         4-ESS-174A_resample           : Well name
FLD                .         GOLFINHO                      : Field
LOC                .                                       : Location
CNTY               .                                       : County
STAT               .         ESPIRITO SANTO                : State
CTRY               .                                       : Country
SRVC               .                                       : Service Company
DATE               .                                       : Date
API                .         342710322400                  : API number
EDF                .M        19.00                         : Elevation Derrick Floor
GDAT               .         SIRGAS2000                    : Geodetic Datum
HZCS               .         UTM                           : Horizontal Coordinate System
LMF                .         MR                            : Log Measure From
LATI               .         -19_56_54.869                 : Latitude
LONG               .         -39_29_58.132                 : Longitude
MC                 .         39 W                          : Meridiano Central
ORIG               .         SIGEO EXPORTACAO PERFIL       : Origem dos dados
ORIGINALWELLNAME   .         4ESS 0174A ES                 : 
WDMS               .M        1199.00                       : Water Depth to Mean Sea Level
X                  .         447729.60                     : Surface X
Y                  .         7794048.90                    : Surface Y
~Parameter Information Block
#_______________________________________________________________________________
#
#PARAMETER_NAME    .UNIT     VALUE                         : DESCRIPTION
#_______________________________________________________________________________
SET                .         ESS174A_resample              : 
TLFamily_CALI      .         Caliper                       : 
TLFamily_DEPT      .         Measured Depth                : 
TLFamily_DT        .         Compressional Slowness        : 
TLFamily_GR        .         Gamma Ray                     : 
TLFamily_INPEFA_1  .                                       : 
TLFamily_INPEFA_2  .                                       : 
TLFamily_INPEFA_3  .                                       : 
TLFamily_INPEFA_4  .                                       : 
TLFamily_LITO      .                                       : 
TLFamily_LLD       .         Deep Resistivity              : 
TLFamily_NPHI      .         Neutron Porosity              : 
TLFamily_OG        .                                       : 
TLFamily_RHOB      .         Bulk Density                  : 
~Curve Information
#_______________________________________________________________________________
#
#LOGNAME           .UNIT     LOG_ID                        : DESCRIPTION
#_______________________________________________________________________________
DEPT               .m                                      :  
CALI               .in                                     : CALIPER 
DT                 .us/ft                                  : DELTA-T (ALSO CALLED SLOWNESS OR INTERVAL TRANSIT TIME) 
GR                 .gAPI                                   : GAMMA RAY 
INPEFA_1           .                                       :  
INPEFA_2           .                                       :  
INPEFA_3           .                                       :  
INPEFA_4           .                                       :  
LITO               .                                       :  
LLD                .ohm.m                                  : LATEROLOG DEEP RESISTIVITY 
NPHI               .%                                      : THERMAL NEUTRON POROSITY (ORIGINAL RATIO METHOD) IN SELECTED LITHOLOGY 
OG                 .                                       :  
RHOB               .g/cm3                                  : BULK DENSITY 
~Ascii
# ...
5098.6     12.148     59.78272   129.0205   -0.05801206 -0.2132384 -0.1290992 0.07586598 49         17.01205922767411 2.155036   129.0205   2.561294  
5098.8     12.1494    59.97796   127.1622   -0.06334165 -0.2350856 -0.2198531 -0.07440104 49         17.45098809971556 2.10512    127.1622   2.562501  
5099       12.1494    60.41422   124.8955   -0.07784946 -0.2828093 -0.3758429 -0.3965138 49         18.00573253567682 2.133788   124.8955   2.555705  
5099.200000000001 12.148     60.42231   123.3756   -0.0518062 -0.2480688 -0.3894916 -0.549136  49         18.53332029678314 1.967413   123.3756   2.542106  
5099.4     12.1536    59.96287   123.7127   -0.006634567 -0.1625636 -0.2908163 -0.4808271 49         18.83494080130978 1.795464   123.7127   2.542597  
5099.6     12.1566    60.04724   124.559    0.01121908 -0.1291784 -0.2789237 -0.5191674 49         19.00401942420547 1.432023   124.559    2.553695  
5099.8     12.16439   61.83163   125.5094   0.03757797 -0.07913864 -0.2374212 -0.5210278 49         19.45722319259685 0.8647444  125.5094   2.557399  
5100       12.1668    62.85029   125.4553   0.05535738 -0.04235747 -0.2133172 -0.5314594 49         20.37490128179606 0.7509854  125.4553   2.563797  
5100.200000000001 12.1688    62.56525   124.9728   0.07368463 -0.003950679 -0.1839526 -0.5249076 49         21.26021336148815 1.083204   124.9728   2.577293  
5100.4     12.1688    61.37332   122.5818   0.08433334 0.01462177 -0.199098  -0.6182219 49         21.58267821665266 1.469934   122.5818   2.587595  
5100.6     12.1699    60.55939   121.4156   0.1090468  0.06728839 -0.144094  -0.5890797 49         21.2082356714119 1.736863   121.4156   2.579506  
5100.8     12.1725    60.6325    122.1052   0.1228298  0.09706385 -0.130082  -0.6229187 49         20.63767562179763 1.927629   122.1052   2.566305  
5101       12.1752    61.21154   126.2131   0.1383752  0.130187   -0.1120275 -0.6663457 49         20.12818424536087 1.826665   126.2131   2.566798  
5101.200000000001 12.1714    61.67251   130.1349   0.1583172  0.1761351  -0.06288227 -0.6613111 49         19.611542405951 1.866542   130.1349   2.567901  
5101.4     12.1617    61.53592   129.6988   0.1756883  0.2183759  -0.01606955 -0.6911245 49         19.53393699295728 1.914608   129.6988   2.560305  
5101.6     12.15121   61.16546   127.0773   0.197036   0.2708118  0.05507854 -0.6660837 49         20.18032136963499 1.896779   127.0773   2.554101  
5101.8     12.1576    61.17434   126.0529   0.2157728  0.3210185  0.1307282  -0.6539115 49         20.83411199549111 2.174318   126.0529   2.562394  
5102       12.163     61.55358   127.5997   0.2290149  0.3634367  0.2021208  -0.634711  49         20.34790812720979 2.760656   127.5997   2.577293  
5102.200000000001 12.19288   62.08406   122.5298   0.2398587  0.3976376  0.2554206  -0.6892337 49         18.58747402963042 3.103213   122.5298   2.575005  
5102.4     12.16842   61.62      105.6125   0.2623943  0.4632154  0.381542   -0.6203    49         16.13267179817479 2.222458   105.6125   2.559308  
5102.6     12.167     59.3463    89.68742   0.2935848  0.5593172  0.5953867  -0.3253953 49         14.38937045966014 1.001613   89.68742   2.548004  
5102.8     12.1691    56.28844   81.45123   0.2927563  0.5835538  0.6760148  -0.2436743 49         14.53270244193153 0.479859   81.45123   2.541702  
5103       12.16161   54.07638   78.69461   0.3171751  0.6818506  0.9393263  0.2753823  49         17.96285983672401 0.4276927  78.69461   2.561086  
5103.200000000001 12.1719    52.98188   78.65852   0.249845   0.5867909  0.857487   0.3412205  49         27.27142008962086 0.493374   78.65852   2.619567  
5103.4     12.13931   52.41196   79.99812   0.1809405  0.4614728  0.6718586  0.1160766  49         48.59218468841745 0.4634348  79.99812   2.671578  
5103.6     12.1392    52.21205   79.71471   0.1427121  0.4081273  0.6331758  0.1681382  49         89.90542205119043 0.3876377  79.71471   2.673205  
5103.8     12.1374    52.15083   78.38221   0.1143813  0.3637552  0.5990311  0.2292897  49         145.3568786753029 0.3258353  78.38221   2.658306  
5104       12.1276    52.08224   77.71439   0.05713788 0.2538216  0.430031   0.0267827  49         182.9403590723788 0.2742195  77.71439   2.656799  
5104.200000000001 12.125     51.99454   77.16909   0.05441193 0.2572257  0.4724841  0.1737349  49         185.8425914500214 0.3039749  77.16909   2.659499  
5104.4     12.13689   52.03395   76.52814   0.03263864 0.224551   0.4590431  0.2810488  49         174.8172839073148 0.4035544  76.52814   2.667595  
5104.6     12.1319    52.41195   75.60484   0.002274961 0.1668137  0.3878779  0.2737481  49         171.8843637431684 0.417514   75.60484   2.673297  
5104.8     12.14399   53.01128   74.57909   -0.01616019 0.1359736  0.3717335  0.3766611  49         179.3088838675933 0.3918116  74.57909   2.669803  
5105       12.13231   53.04808   75.51437   -0.05459768 0.05538507 0.2512068  0.2799297  49         190.7421452827137 0.3981995  75.51437   2.6684    
5105.200000000001 12.14379   52.46139   78.28042   -0.05969123 0.04403638 0.2572003  0.4431303  49         200.7319911531531 0.3613279  78.28042   2.668699  
5105.4     12.1423    52.17779   79.78198   -0.08822401 -0.01231101 0.1894066  0.4932533  49         208.7767527888023 0.286441   79.78198   2.671     
5105.6     12.1383    52.21674   78.61491   -0.1151754 -0.07942246 0.07536367 0.4491825  49         218.8446407476223 0.2365175  78.61491   2.669201  
5105.8     12.1462    53.13414   80.78762   -0.1487918 -0.1578426 -0.05974431 0.3499314  49         228.4575918363819 0.2249086  80.78762   2.663603  
5106       12.1383    56.0957    88.09161   -0.1867327 -0.2582583 -0.2619296 0.07063596 49         230.6711029038941 0.1752165  88.09161   2.666398  
5106.200000000001 12.1383    58.11161   112.9837   -0.2037233 -0.3149998 -0.3926321 -0.1490386 49         227.6915246804748 0.8013994  112.9837   2.675995  
5106.4     12.137     60.0596    152.5174   -0.1731665 -0.2892662 -0.4048748 -0.3088575 49         213.724199297652 3.651855   152.5174   2.684796  
5106.6     12.13031   63.41671   185.5677   -0.1335604 -0.2075668 -0.2534357 -0.05710299 49         103.3894785228814 8.02125    185.5677   2.6864    
5106.8     12.1229    65.95864   199.3364   -0.1282088 -0.2191754 -0.3044049 -0.1910131 49         45.05930671902232 10.97974   199.3364   2.675407  
5107       12.162     67.42833   206.1469   -0.1210865 -0.211096  -0.3010355 -0.2202924 57         25.33965596618043 13.24784   206.1469   2.666603  
5107.200000000001 12.1593    69.10203   206.2244   -0.1065675 -0.1937963 -0.283595  -0.2165845 57         19.59349326257421 15.87986   206.2244   2.673994  
5107.4     12.1633    70.47064   200.155    -0.0950845 -0.1818958 -0.2781205 -0.2497377 57         19.06763081055262 17.08892   200.155    2.684096  
5107.6     12.163     71.79182   197.0972   -0.08561333 -0.1715242 -0.2696584 -0.2669649 57         18.22860253342145 16.3851    197.0972   2.682801  
5107.8     12.164     72.85133   198.1056   -0.078697  -0.1689611 -0.2797672 -0.3301312 57         14.88119632871049 14.74768   198.1056   2.675204  
5108       12.162     73.51594   201.4094   -0.06018884 -0.1355552 -0.2199931 -0.2469731 57         11.08606336591526 13.389     201.4094   2.668806  
5108.200000000001 12.1554    74.26276   200.8713   -0.05653876 -0.1362403 -0.2253082 -0.2655975 57         9.678523139517615 13.21038   200.8713   2.657905  
5108.4     12.17019   74.02628   198.7196   -0.05286459 -0.1376319 -0.2348351 -0.3053032 57         10.08127967806216 13.52653   198.7196   2.641708  
5108.6     12.1699    73.04507   198.5828   -0.04075874 -0.1213158 -0.2095693 -0.2857055 57         11.63887218525927 13.80644   198.5828   2.630105  
5108.8     12.1707    72.45897   201.7354   -0.02818174 -0.1019296 -0.1746651 -0.2368157 57         13.40139236662893 14.44641   201.7354   2.636293  
5109       12.1567    72.63792   206.1712   -0.02016443 -0.09145979 -0.1520067 -0.187345  57         14.26685676904287 15.66563   206.1712   2.65649   
