~Version
 VERS              .         2.0                           : CWLS LOG ASCII STANDARD - VERSION 2.0
 WRAP              .         NO                            : ONE LINE PER DEPTH STEP
 DLM               .         SPACE                         : DELIMITING CHARACTER(SPACE TAB OR COMMA)
~Well Information
#_______________________________________________________________________________
#
#PARAMETER_NAME    .UNIT     VALUE                         : DESCRIPTION
#_______________________________________________________________________________
STRT               .m        1537                          : First reference value
STOP               .m        5197.8                        : Last reference value
STEP               .m        0.2                           : Step increment
NULL               .         -9999                         : Missing value
COMP               .         PETROLEO BRASILEIRO S/A       : Company
WELL               .         4-ESS-151_resample            : Well name
FLD                .         GOLFINHO                      : Field
LOC                .                                       : Location
CNTY               .                                       : County
STAT               .         ESPIRITO SANTO                : State
CTRY               .                                       : Country
SRVC               .                                       : Service Company
DATE               .                                       : Date
API                .         342710302200                  : API number
EDF                .M        18.00                         : Elevation Derrick Floor
GDAT               .         SIRGAS2000                    : Geodetic Datum
HZCS               .         UTM                           : Horizontal Coordinate System
LMF                .         MR                            : Log Measure From
LATI               .         -19_56_15.689                 : Latitude
LONG               .         -39_25_50.073                 : Longitude
MC                 .         39 W                          : Meridiano Central
ORIG               .         SIGEO EXPORTACAO PERFIL       : Origem dos dados
ORIGINALWELLNAME   .         4ESS 0151  ES                 : 
WDMS               .M        1332.00                       : Water Depth to Mean Sea Level
X                  .         454939.60                     : Surface X
Y                  .         7795340.90                    : Surface Y
~Parameter Information Block
#_______________________________________________________________________________
#
#PARAMETER_NAME    .UNIT     VALUE                         : DESCRIPTION
#_______________________________________________________________________________
SET                .         ESS151_resample               : 
TLFamily_CALI      .         Caliper                       : 
TLFamily_DEPT      .         Measured Depth                : 
TLFamily_DT        .         Compressional Slowness        : 
TLFamily_GR        .         Gamma Ray                     : 
TLFamily_INPEFA_1  .                                       : 
TLFamily_INPEFA_2  .                                       : 
TLFamily_INPEFA_3  .                                       : 
TLFamily_INPEFA_4  .                                       : 
TLFamily_LITO      .                                       : 
TLFamily_LLD       .         Deep Resistivity              : 
TLFamily_NPHI      .         Neutron Porosity              : 
TLFamily_OG        .                                       : 
TLFamily_RHOB      .         Bulk Density                  : 
~Curve Information
#_______________________________________________________________________________
#
#LOGNAME           .UNIT     LOG_ID                        : DESCRIPTION
#_______________________________________________________________________________
DEPT               .m                                      :  
CALI               .in                                     : CALIPER 
DT                 .us/ft                                  : DELTA-T (ALSO CALLED SLOWNESS OR INTERVAL TRANSIT TIME) 
GR                 .gAPI                                   : GAMMA RAY 
INPEFA_1           .                                       :  
INPEFA_2           .                                       :  
INPEFA_3           .                                       :  
INPEFA_4           .                                       :  
LITO               .                                       :  
LLD                .ohm.m                                  : LATEROLOG DEEP RESISTIVITY 
NPHI               .%                                      : THERMAL NEUTRON POROSITY (ORIGINAL RATIO METHOD) IN SELECTED LITHOLOGY 
OG                 .                                       :  
RHOB               .g/cm3                                  : BULK DENSITY 
~Ascii
# ...
4269.200000000001 12.0851    63.2711    64.0718    -0.1983625 -0.01411986 -0.4303912 0.1628347  49         7.1508     5.2784     64.0718    2.5701    
4269.4     12.0504    67.7501    70.6648    -0.1473349 0.1291722  -0.2649145 0.2397263  49         5.8104     7.7976     70.6648    2.5615    
4269.6     12.0886    72.443     97.6296    -0.1362101 0.1633376  -0.2696607 -0.004297856 49         5.275199   12.9088    97.6296    2.5564    
4269.8     12.1648    75.9406    131.1641   -0.05502623 0.3959162  0.06068474 0.08509073 49         5.2078     18.118     131.1641   2.5688    
4270       12.4451    77.9825    139.9134   -0.0413342 0.5274356  0.3833029  0.5002019  57         5.314499   0.1941     139.9134   2.5786    
4270.200000000001 12.4552    79.0383    141.6626   -0.1398309 0.3533842  0.243105   0.4925544  57         5.3902     0.2016     141.6626   2.5762    
4270.4     12.4803    79.7465    151.5205   -0.1916088 0.2331911  0.06779183 0.1769085  57         5.2903     0.2312     151.5205   2.5737    
4270.6     12.4883    80.3266    157.2825   -0.1754566 0.3024355  0.194716   0.2713987  57         5.2147     0.2267     157.2825   2.565     
4270.8     12.4846    80.6774    165.359    -0.213161  0.2203112  0.0580546  -0.08904918 57         5.162799   0.2452     165.359    2.5591    
4271       12.4816    80.7955    169.0431   -0.2074162 0.2638228  0.1129032  -0.2751756 57         5.1665     0.243      169.0431   2.5694    
4271.200000000001 12.4843    80.6221    162.9186   -0.1715977 0.3857491  0.3104807  -0.1374963 57         5.1533     0.2331     162.9186   2.5786    
4271.4     12.4807    80.2474    161.6053   -0.1932228 0.3639764  0.3166223  -0.1401093 57         5.222401   0.233      161.6053   2.583     
4271.6     12.4811    79.8066    164.5179   -0.2172745 0.3327082  0.3126427  0.003078834 57         5.4073     0.2437     164.5179   2.5982    
4271.8     12.4677    79.4342    163.6818   -0.2497059 0.2455722  0.1872787  -0.02067294 57         5.7422     0.2439     163.6818   2.6138    
4272       12.4596    79.0456    160.2219   -0.2816283 0.1664978  0.07935527 0.03402666 57         6.3919     0.2115     160.2219   2.6181    
4272.200000000001 12.4762    78.4678    149.171    -0.2992393 0.09736731 -0.04498234 0.06156398 57         7.4556     0.1887     149.171    2.605     
4272.4     12.4496    77.8565    131.9792   -0.3250484 0.01177901 -0.1940887 0.09290966 57         8.3954     0.1763     131.9792   2.5402    
4272.6     12.4694    77.4637    120.9264   -0.3456543 -0.09691988 -0.4431485 -0.1665849 57         8.5129     0.1844     120.9264   2.4337    
4272.8     12.9918    77.5616    109.9154   -0.3111161 -0.07498874 -0.5353011 -0.5209053 57         7.774499   0.1514     109.9154   2.4153    
4273       13.0164    78.2687    107.0982   -0.1992988 0.182659   -0.2014683 -0.3791243 49         6.6722     0.1497     107.0982   2.51      
4273.200000000001 12.4821    79.267     129.6933   -0.1376543 0.3436216  0.07130805 -0.2286431 49         5.6895     0.171      129.6933   2.5706    
4273.4     12.4775    80.0522    156.994    -0.1584016 0.3354024  0.1933655  -0.04808469 49         5.2163     0.2235     156.994    2.5709    
4273.6     12.4507    80.1553    165.5905   -0.2036159 0.2543746  0.227814   0.1019316  49         5.3588     0.2252     165.5905   2.5711    
4273.8     12.4198    79.7633    163.0894   -0.2391302 0.1649176  0.2062269  0.09175194 49         5.8196     0.2095     163.0894   2.5729    
4274       12.4137    79.5175    156.927    -0.2971234 0.03021455 0.136883   0.09847007 57         6.2936     0.1922     156.927    2.5737    
4274.200000000001 12.4081    79.9979    145.9829   -0.3234265 -0.06070774 0.07860414 0.02248025 57         6.4801     0.182      145.9829   2.5779    
4274.4     12.4141    81.3782    141.5269   -0.3220405 -0.09243962 0.07485903 -0.1110364 57         6.2397     0.1868     141.5269   2.5812    
4274.6     12.4519    83.0445    148.0481   -0.3360243 -0.1332309 0.09872698 -0.1398909 57         5.6985     0.2132     148.0481   2.5747    
4274.8     12.4346    84.0125    156.4341   -0.3311076 -0.1424682 0.1456725  -0.1986265 57         5.215      0.2255     156.4341   2.561     
4275       12.4481    84.0102    162.7171   -0.3362853 -0.1668421 0.1737717  -0.3121316 57         4.968599   0.2446     162.7171   2.555     
4275.200000000001 12.4539    83.1115    162.9231   -0.3137309 -0.1121008 0.343678   -0.1974467 57         5.0366     0.2331     162.9231   2.5594    
4275.4     12.4756    81.1665    160.9827   -0.3186541 -0.1080328 0.4753606  -0.007279778 57         5.3606     0.2184     160.9827   2.56      
4275.6     12.4678    78.1101    157.787    -0.3546855 -0.176686  0.5194602  0.2468161  57         6.1462     0.2019     157.787    2.5519    
4275.8     12.467     74.8723    145.5561   -0.4112572 -0.3321175 0.3726049  0.1831491  57         7.6008     0.1787     145.5561   2.5596    
4276       12.4482    72.6394    119.0005   -0.4504431 -0.4458095 0.2570651  0.0726053  57         9.4384     0.0914     119.0005   2.5951    
4276.200000000001 12.4392    72.6318    93.6175    -0.4608067 -0.5131729 0.1586104  -0.04735636 57         10.0575    0.0849     93.6175    2.6133    
4276.4     12.3794    74.9812    93.6531    -0.4584112 -0.5642556 0.02702009 -0.3905222 57         8.8197     0.1268     93.6531    2.5874    
4276.6     12.4345    78.5831    116.2842   -0.3962459 -0.4297017 0.2200232  -0.2446341 57         7.0261     0.1619     116.2842   2.564     
4276.8     12.4596    81.2291    139.5261   -0.3568426 -0.3483741 0.3653655  0.07367149 57         5.7632     0.2075     139.5261   2.5632    
4277       12.4787    82.5425    157.8853   -0.4131159 -0.4900771 0.2119874  0.2735817  57         5.1957     0.2296     157.8853   2.5574    
4277.200000000001 12.4896    83.1367    165.6003   -0.4414043 -0.6290866 -0.06341925 0.09393321 57         5.067801   0.2366     165.6003   2.5476    
4277.4     12.4871    83.3002    159.6659   -0.417915  -0.6099069 -0.09736397 0.2006642  57         5.097001   0.2385     159.6659   2.5479    
4277.6     12.4693    83.1866    152.6204   -0.4188365 -0.6714734 -0.3015492 -0.03397771 57         4.9721     0.2193     152.6204   2.5565    
4277.8     12.4582    82.8247    147.6272   -0.3634648 -0.5612715 -0.2386144 0.02700241 57         4.7346     0.2372     147.6272   2.5695    
4278       12.4355    82.4089    144.505    -0.3490802 -0.5538082 -0.3360957 -0.09126586 57         4.726      0.2009     144.505    2.5823    
4278.200000000001 12.4777    82.1545    139.5636   -0.3043247 -0.4726502 -0.3555797 -0.2057772 57         5.0335     0.2136     139.5636   2.5889    
4278.4     12.5056    82.1622    136.0323   -0.2580994 -0.3746805 -0.3416236 -0.2787736 57         5.3682     0.1919     136.0323   2.5865    
4278.6     12.4279    82.6075    141.3146   -0.2018807 -0.2402433 -0.2681617 -0.2868627 57         5.4199     0.2103     141.3146   2.5765    
4278.8     12.4177    83.2437    152.5453   -0.1631861 -0.1333197 -0.2244095 -0.3396109 57         5.304      0.2245     152.5453   2.5651    
4279       12.406     83.8293    162.1356   -0.1158004 0.0195027  -0.08824393 -0.3834055 57         5.0186     0.2412     162.1356   2.5516    
4279.200000000001 12.3808    84.317     161.907    -0.08409416 0.1612603  0.08704734 -0.400273  57         4.254001   0.242      161.907    2.5265    
4279.4     12.3427    84.48      151.7556   -0.05938314 0.3027473  0.310573   -0.2530682 57         3.244      0.19       151.7556   2.4808    
4279.6     12.3284    84.3621    133.9261   -0.07310329 0.3825055  0.5230049  0.08565897 57         2.4101     0.2076     133.9261   2.4298    
4279.8     12.3049    84.4156    116.1714   -0.1574302 0.2570515  0.4046845  0.1018946  57         1.9556     0.1717     116.1714   2.4031    
4280       12.2279    84.9812    118.9721   -0.2129902 0.1599647  0.2602842  -0.006341692 49         1.7263     0.1871     118.9721   2.3933    
4280.200000000001 12.2878    85.6986    130.5356   -0.2365906 0.1437103  0.2545858  0.1936557  49         1.561      0.2977     130.5356   2.3833    
