~Version
 VERS              .         3.0                           : CWLS LOG ASCII STANDARD - VERSION 3.0
 WRAP              .         NO                            : ONE LINE PER DEPTH STEP
 DLM               .         SPACE                         : DELIMITING CHARACTER(SPACE TAB OR COMMA)
~Well Information
#_______________________________________________________________________________
#
#PARAMETER_NAME    .UNIT     VALUE                         : DESCRIPTION
#_______________________________________________________________________________
STRT               .m        2108.1003                     : First reference value
STOP               .m        4106.9003                     : Last reference value
STEP               .m        0.2                           : Step increment
NULL               .         -9999                         : Missing value
COMP               .         PETROLEO BRASILEIRO S/A       : Company
WELL               .         4-ESS-167_resample            : Well name
FLD                .         GOLFINHO                      : Field
LOC                .                                       : Location
SRVC               .                                       : Service Company
CTRY               .                                       : Country
DATE               .                                       : Service Date
LATI               .         -200010.479                   : Latitude
LONG               .         -394042.854                   : Longitude
GDAT               .         SIRGAS2000                    : Geodetic Datum
API                .         342710319700                  : API number
CNTY               .                                       : County
COUNTRY            .                                       : Country
EDF                .M        25.0                          : Elevation Derrick Floor
HZCS               .         UTM                           : Horizontal Coordinate System
LMF                .         MR                            : Log Measure From
MC                 .         39 W                          : Meridiano Central
ORIG               .         SIGEO EXPORTACAO PERFIL       : Origem dos dados
ORIGINALWELLNAME   .         4ESS 0167  ES                 : 
STAT               .         ESPIRITO SANTO                : State
WDMS               .M        966.0                         : Water Depth to Mean Sea Level
X                  .         429077.0                      : Surface X
Y                  .         7788071.0                     : Surface Y
~Parameter Information Block
#_______________________________________________________________________________
#
#PARAMETER_NAME    .UNIT     VALUE                         : DESCRIPTION
#_______________________________________________________________________________
SET                .         ESS167_resample               : 
TLFAMILY_CALI      .         Caliper                       : 
TLFAMILY_COTA      .         Measured Depth                : 
TLFAMILY_DT        .         Compressional Slowness        : 
TLFAMILY_GR        .         Gamma Ray                     : 
TLFAMILY_INPEFA_1  .         Photoelectric Factor          : 
TLFAMILY_INPEFA_2  .         Photoelectric Factor          : 
TLFAMILY_INPEFA_3  .         Photoelectric Factor          : 
TLFAMILY_INPEFA_4  .         Photoelectric Factor          : 
TLFAMILY_LITO      .                                       : 
TLFAMILY_LLD       .         Deep Resistivity              : 
TLFAMILY_RHOB      .         Bulk Density                  : 
TLFamily_CALI      .         Caliper                       : 
TLFamily_COTA      .                                       : 
TLFamily_DEPT      .         Measured Depth                : 
TLFamily_DT        .         Compressional Slowness        : 
TLFamily_GR        .         Gamma Ray                     : 
TLFamily_INPEFA_1  .         Photoelectric Factor          : 
TLFamily_INPEFA_2  .         Photoelectric Factor          : 
TLFamily_INPEFA_3  .         Photoelectric Factor          : 
TLFamily_INPEFA_4  .         Photoelectric Factor          : 
TLFamily_LITO      .                                       : 
TLFamily_LLD       .         Deep Resistivity              : 
TLFamily_NPHI      .         Neutron Porosity              : 
TLFamily_RHOB      .         Bulk Density                  : 
~Curve Information
#_______________________________________________________________________________
#
#LOGNAME           .UNIT     LOG_ID                        : DESCRIPTION
#_______________________________________________________________________________
DEPT               .m                                      :  {F}
CALI               .in                                     : CALIPER {F}
COTA               .                                       :  {F}
DT                 .us/ft                                  : DELTA-T (ALSO CALLED SLOWNESS OR INTERVAL TRANSIT TIME) {F}
GR                 .gAPI                                   : GAMMA RAY {F}
INPEFA_1           .                                       :  {F}
INPEFA_2           .                                       :  {F}
INPEFA_3           .                                       :  {F}
INPEFA_4           .                                       :  {F}
LITO               .                                       :  {F}
LLD                .ohm.m                                  : LATEROLOG DEEP RESISTIVITY {F}
NPHI               .                                       :  {F}
RHOB               .g/cm3                                  : BULK DENSITY {F}
~Ascii
# ...
2878.3003  12.4637    -2878.3003 79.39451   62.96845   0.49199    0.02727    0.30608    0.16787    49         2.25624    -9999      2.4335    
2878.5003  12.48488   -2878.5003 78.37358   58.61859   0.50183    0.04479    0.32672    0.09405    49         2.71614    -9999      2.4274    
2878.7003  12.47982   -2878.7003 77.04807   56.02332   0.5318     0.11959    0.44634    0.13795    49         3.18399    -9999      2.4248    
2878.9003  12.46809   -2878.9003 76.94337   58.16584   0.53306    0.12873    0.47379    0.08919    49         3.1434     -9999      2.4295    
2879.1003  12.48271   -2879.1003 77.84908   61.24879   0.56218    0.21075    0.6297     0.2424     49         2.52954    -9999      2.42381   
2879.3003  12.4764    -2879.3003 79.22578   63.8862    0.55413    0.20921    0.66932    0.31365    49         1.82819    -9999      2.39811   
2879.5003  12.4749    -2879.5003 81.14896   66.77822999999999 0.5601     0.2407     0.76682    0.52503    49         1.43535    -9999      2.37081   
2879.7003  12.45082   -2879.7003 83.73191   70.57693999999999 0.52738    0.17876    0.72007    0.62006    49         1.29385    -9999      2.3569    
2879.9003  12.42701   -2879.9003 86.70354   75.18674   0.49975    0.11288    0.64044    0.66348    49         1.2753     -9999      2.37109   
2880.1003  12.39171   -2880.1003 88.40796   78.96355   0.43673    -0.04931   0.37751    0.41589    49         1.26471    -9999      2.3882    
2880.3003  12.47085   -2880.3003 88.93765000000001 86.61551   0.44589    -0.06276   0.30652    0.30863    49         1.26949    -9999      2.37251   
2880.5003  12.48638   -2880.5003 89.53571   94.29986   0.49078    0.02366    0.41221    0.46031    49         1.34045    -9999      2.34761   
2880.7003  12.49611   -2880.7003 84.00867   87.20389   0.49117    0.02249    0.4113     0.58751    49         1.5035     -9999      2.342     
2880.9003  12.41186   -2880.9003 71.7658    74.04186   0.4599     -0.06538   0.25439    0.50328    49         2.10216    -9999      2.37518   
2881.1003  12.36221   -2881.1003 66.07896   66.44586   0.45026    -0.12666   0.08853    0.26288    49         3.55394    -9999      2.43917   
2881.3003  12.32363   -2881.3003 65.80361000000001 62.66835   0.48931    -0.05308   0.16016    0.35355    49         5.82717    -9999      2.49937   
2881.5003  12.34487   -2881.5003 67.3699    59.76111   0.47618    -0.10158   0.04306    0.22145    49         6.28093    -9999      2.54078   
2881.7003  12.43645   -2881.7003 69.74907   56.31058   0.48061    -0.12708   -0.07646   -0.04768   49         5.29992    -9999      2.56669   
2881.9003  12.48489   -2881.9003 72.67886   55.54984   0.51158    -0.07073   -0.03882   -0.09841   49         4.18861    -9999      2.58609   
2882.1003  12.49369   -2882.1003 76.20647   56.17354   0.54328    -0.01044   0.01562    -0.11731   49         3.14329    -9999      2.5838    
2882.3003  12.53368   -2882.3003 80.0292    58.81315   0.56949    0.05036    0.09494    -0.06651   49         2.23968    -9999      2.54213   
2882.5003  12.57148   -2882.5003 84.03429   64.50108   0.57298    0.05378    0.08428    -0.1297    49         1.65723    -9999      2.47264   
2882.7003  12.57601   -2882.7003 87.24970999999999 73.57443000000001 0.58051    0.06871    0.09566    -0.17119   49         1.33313    -9999      2.40003   
2882.9003  12.46485   -2882.9003 88.75123000000001 85.21648999999999 0.59428    0.09784    0.13603    -0.16317   49         1.15268    -9999      2.34373   
2883.1003  12.42031   -2883.1003 88.65376000000001 99.10993000000001 0.59079    0.09019    0.12699    -0.20495   49         1.05614    -9999      2.32791   
2883.3003  12.4282    -2883.3003 87.33790000000001 103.6602   0.58561    0.06631    0.07537    -0.35829   49         1.0396     -9999      2.34199   
2883.5003  12.4296    -2883.5003 85.94852   89.97411   0.59891    0.0944     0.11906    -0.38572   49         1.05269    -9999      2.3497    
2883.7003  12.42081   -2883.7003 85.41605   77.41453   0.62645    0.16298    0.2502     -0.23493   49         1.10107    -9999      2.3523    
2883.9003  12.39511   -2883.9003 85.18729   80.33387000000001 0.62501    0.17045    0.30421    -0.10964   49         1.20864    -9999      2.3599    
2884.1003  12.36422   -2884.1003 84.20266   86.52203   0.59342    0.09278    0.20543    -0.20697   49         1.40819    -9999      2.3692    
2884.3003  12.34411   -2884.3003 81.79141   82.00144   0.61325    0.13469    0.29489    -0.06731   49         1.67214    -9999      2.36131   
2884.5003  12.36126   -2884.5003 76.97888   76.91309   0.62782    0.18125    0.42663    0.2388     49         2.3688     -9999      2.3549    
2884.7003  12.49516   -2884.7003 71.29828000000001 77.00961   0.59158    0.10386    0.36016    0.34161    49         4.46753    -9999      2.41286   
2884.9003  12.5182    -2884.9003 67.9147    73.55821   0.55786    0.00978    0.22639    0.28892    49         10.5854    -9999      2.51765   
2885.1003  12.56428   -2885.1003 64.92249   64.97743   0.55411    -0.01131   0.2057     0.39217    49         21.17137   -9999      2.551     
2885.3003  12.56501   -2885.3003 62.47642   57.19575   0.5125     -0.12586   0.02627    0.30038    49         22.89428   -9999      2.51122   
2885.5003  12.5522    -2885.5003 62.43739   55.41961   0.47987    -0.24341   -0.20816   0.02158    49         18.53003   -9999      2.51429   
2885.7003  12.54771   -2885.7003 64.94562999999999 58.34321   0.50376    -0.25014   -0.32143   -0.30639   49         12.00446   -9999      2.55838   
2885.9003  12.53031   -2885.9003 68.41015   60.27655   0.58666    -0.07141   -0.07419   -0.06905   49         6.45368    -9999      2.5615    
2886.1003  12.50501   -2886.1003 70.77267000000001 63.05992   0.59224    -0.07694   -0.11018   -0.16961   49         3.54632    -9999      2.54191   
2886.3003  12.5147    -2886.3003 72.96122   67.96362000000001 0.61617    -0.02961   -0.05222   -0.15447   49         2.23876    -9999      2.51792   
2886.5003  12.43364   -2886.5003 76.23842999999999 70.33501   0.62624    -0.01715   -0.04227   -0.18739   49         1.67531    -9999      2.46982   
2886.7003  12.39652   -2886.7003 80.64404999999999 66.86687000000001 0.64644    0.01846    0.00035    -0.21912   49         1.4329     -9999      2.42782   
2886.9003  12.355     -2886.9003 83.47019   65.01237999999999 0.66978    0.08325    0.13696    -0.01866   49         1.36012    -9999      2.39302   
2887.1003  12.3505    -2887.1003 83.44266   72.66752   0.65878    0.05907    0.12904    0.00304    49         1.37908    -9999      2.37181   
2887.3003  12.38309   -2887.3003 82.40989999999999 78.39209   0.62462    -0.02933   -0.0029    -0.22197   49         1.45576    -9999      2.39018   
2887.5003  12.3871    -2887.5003 81.92194000000001 76.7021    0.65337    0.02457    0.07939    -0.22519   49         1.51937    -9999      2.43658   
2887.7003  12.37511   -2887.7003 83.35194   81.78171   0.6669     0.05906    0.15874    -0.17517   49         1.5336     -9999      2.49637   
2887.9003  12.38169   -2887.9003 87.08559   93.77571   0.67442    0.07894    0.22461    -0.09774   49         1.47423    -9999      2.52539   
2888.1003  12.3872    -2888.1003 89.68541000000001 100.3907   0.66746    0.06488    0.23654    -0.08154   49         1.37235    -9999      2.48883   
2888.3003  12.41599   -2888.3003 88.00158999999999 105.4527   0.69234    0.12409    0.36872    0.12984    49         1.34698    -9999      2.42623   
2888.5003  12.36961   -2888.5003 82.95634   111.974    0.68504    0.11975    0.42374    0.34121    49         1.71493    -9999      2.40331   
2888.7003  12.38909   -2888.7003 78.41573   105.4172   0.66162    0.07234    0.41019    0.53581    49         2.76727    -9999      2.43798   
2888.9003  12.40539   -2888.9003 74.67421   82.20299   0.60824    -0.06984   0.20042    0.4046     49         4.53696    -9999      2.49097   
2889.1003  12.42709   -2889.1003 74.6377    63.90305   0.60037    -0.10705   0.14243    0.45005    49         5.42428    -9999      2.52348   
