~Version
 VERS              .         2.0                           : CWLS LOG ASCII STANDARD - VERSION 2.0
 WRAP              .         NO                            : ONE LINE PER DEPTH STEP
 DLM               .         SPACE                         : DELIMITING CHARACTER(SPACE TAB OR COMMA)
~Well Information
#_______________________________________________________________________________
#
#PARAMETER_NAME    .UNIT     VALUE                         : DESCRIPTION
#_______________________________________________________________________________
STRT               .m        1537                          : First reference value
STOP               .m        5197.8                        : Last reference value
STEP               .m        0.2                           : Step increment
NULL               .         -9999                         : Missing value
COMP               .         PETROLEO BRASILEIRO S/A       : Company
WELL               .         4-ESS-151_resample            : Well name
FLD                .         GOLFINHO                      : Field
LOC                .                                       : Location
CNTY               .                                       : County
STAT               .         ESPIRITO SANTO                : State
CTRY               .                                       : Country
SRVC               .                                       : Service Company
DATE               .                                       : Date
API                .         342710302200                  : API number
EDF                .M        18.00                         : Elevation Derrick Floor
GDAT               .         SIRGAS2000                    : Geodetic Datum
HZCS               .         UTM                           : Horizontal Coordinate System
LMF                .         MR                            : Log Measure From
LATI               .         -19_56_15.689                 : Latitude
LONG               .         -39_25_50.073                 : Longitude
MC                 .         39 W                          : Meridiano Central
ORIG               .         SIGEO EXPORTACAO PERFIL       : Origem dos dados
ORIGINALWELLNAME   .         4ESS 0151  ES                 : 
WDMS               .M        1332.00                       : Water Depth to Mean Sea Level
X                  .         454939.60                     : Surface X
Y                  .         7795340.90                    : Surface Y
~Parameter Information Block
#_______________________________________________________________________________
#
#PARAMETER_NAME    .UNIT     VALUE                         : DESCRIPTION
#_______________________________________________________________________________
SET                .         ESS151_resample               : 
TLFamily_CALI      .         Caliper                       : 
TLFamily_DEPT      .         Measured Depth                : 
TLFamily_DT        .         Compressional Slowness        : 
TLFamily_GR        .         Gamma Ray                     : 
TLFamily_INPEFA_1  .                                       : 
TLFamily_INPEFA_2  .                                       : 
TLFamily_INPEFA_3  .                                       : 
TLFamily_INPEFA_4  .                                       : 
TLFamily_LITO      .                                       : 
TLFamily_LLD       .         Deep Resistivity              : 
TLFamily_NPHI      .         Neutron Porosity              : 
TLFamily_OG        .                                       : 
TLFamily_RHOB      .         Bulk Density                  : 
~Curve Information
#_______________________________________________________________________________
#
#LOGNAME           .UNIT     LOG_ID                        : DESCRIPTION
#_______________________________________________________________________________
DEPT               .m                                      :  
CALI               .in                                     : CALIPER 
DT                 .us/ft                                  : DELTA-T (ALSO CALLED SLOWNESS OR INTERVAL TRANSIT TIME) 
GR                 .gAPI                                   : GAMMA RAY 
INPEFA_1           .                                       :  
INPEFA_2           .                                       :  
INPEFA_3           .                                       :  
INPEFA_4           .                                       :  
LITO               .                                       :  
LLD                .ohm.m                                  : LATEROLOG DEEP RESISTIVITY 
NPHI               .%                                      : THERMAL NEUTRON POROSITY (ORIGINAL RATIO METHOD) IN SELECTED LITHOLOGY 
OG                 .                                       :  
RHOB               .g/cm3                                  : BULK DENSITY 
~Ascii
# ...
4448       -9999      -9999      62.5994    -0.04648855 -0.2205403 -0.2682832 -0.5679857 49         -9999      -9999      62.5994    -9999     
4448.200000000001 -9999      -9999      63.9624    -0.03126777 -0.1676419 -0.171429  -0.4844016 49         -9999      -9999      63.9624    -9999     
4448.4     -9999      -9999      65.242     -0.03918492 -0.1727825 -0.157077  -0.4715995 49         -9999      -9999      65.242     -9999     
4448.6     -9999      -9999      65.7775    -0.04247776 -0.172513  -0.1486106 -0.5062163 49         -9999      -9999      65.7775    -9999     
4448.8     -9999      -9999      65.4414    -0.04608176 -0.1739358 -0.1488919 -0.5824793 49         -9999      -9999      65.4414    -9999     
4449       -9999      -9999      64.0534    -0.03659806 -0.1432907 -0.103993  -0.6318364 49         -9999      -9999      64.0534    -9999     
4449.200000000001 -9999      -9999      63.6129    -0.02621393 -0.09735981 -0.0135297 -0.572006  49         -9999      -9999      63.6129    -9999     
4449.4     -9999      -9999      64.0917    -0.03314544 -0.1026362 -0.007004579 -0.6051642 49         -9999      -9999      64.0917    -9999     
4449.6     -9999      -9999      60.4928    -0.03040569 -0.08796026 0.02001845 -0.641295  49         -9999      -9999      60.4928    -9999     
4449.8     -9999      -9999      56.9162    -0.02412152 -0.06026636 0.07525663 -0.6283727 49         -9999      -9999      56.9162    -9999     
4450       -9999      -9999      60.5485    -0.01492191 -0.0214487 0.1591666  -0.5427364 49         -9999      -9999      60.5485    -9999     
4450.200000000001 -9999      -9999      64.0199    -0.01245725 0.005018392 0.2389946  -0.4006787 49         -9999      -9999      64.0199    -9999     
4450.4     -9999      -9999      63.5573    -0.0222322 -0.003864789 0.2620282  -0.3148943 49         -9999      -9999      63.5573    -9999     
4450.6     -9999      -9999      61.3695    -0.02994393 -0.01430145 0.2665336  -0.3037477 49         -9999      -9999      61.3695    -9999     
4450.8     -9999      -9999      60.5359    -0.02180088 0.01862686 0.3384368  -0.2162677 49         -9999      -9999      60.5359    -9999     
4451       -9999      -9999      61.1269    -0.02287353 0.03010359 0.3843086  -0.1320512 49         -9999      -9999      61.1269    -9999     
4451.200000000001 -9999      -9999      60.5522    -0.02472635 0.03736759 0.4211866  -0.05869613 49         -9999      -9999      60.5522    -9999     
4451.4     -9999      -9999      61.1844    -0.0191985 0.06763267 0.5008675  0.1000436  49         -9999      -9999      61.1844    -9999     
4451.6     -9999      -9999      63.002     -0.0296745 0.05428438 0.5109335  0.1913256  49         -9999      -9999      63.002     -9999     
4451.8     -9999      -9999      64.2642    -0.02883759 0.06353935 0.5427843  0.2942393  49         -9999      -9999      64.2642    -9999     
4452       -9999      -9999      63.2123    -0.02722509 0.08245362 0.6036937  0.4964009  49         -9999      -9999      63.2123    -9999     
4452.200000000001 -9999      -9999      61.1111    -0.03665193 0.06782807 0.6076301  0.6586242  49         -9999      -9999      61.1111    -9999     
4452.4     -9999      -9999      61.1527    -0.05366235 0.027793   0.5561036  0.7250821  49         -9999      -9999      61.1527    -9999     
4452.6     -9999      -9999      61.9162    -0.06164582 0.00524941 0.5132532  0.7535054  49         -9999      -9999      61.9162    -9999     
4452.8     -9999      -9999      61.8594    -0.06079678 0.005476642 0.4980749  0.8001624  49         -9999      -9999      61.8594    -9999     
4453       -9999      -9999      60.8664    -0.08175191 -0.05720826 0.3675137  0.642001   57         -9999      -9999      60.8664    -9999     
4453.200000000001 -9999      -9999      60.4248    -0.07257852 -0.04799157 0.3238824  0.473912   57         -9999      -9999      60.4248    -9999     
4453.4     -9999      -9999      62.389     -0.05440206 0.00075045 0.3633225  0.4418143  57         -9999      -9999      62.389     -9999     
4453.6     -9999      -9999      65.1097    -0.05035223 0.01170231 0.3493918  0.3764364  57         -9999      -9999      65.1097    -9999     
4453.8     -9999      -9999      65.6669    -0.04466237 0.03246135 0.3622877  0.3999221  57         -9999      -9999      65.6669    -9999     
4454       -9999      -9999      65.1327    -0.06114946 -0.007528667 0.2792442  0.3274207  57         -9999      -9999      65.1327    -9999     
4454.200000000001 -9999      -9999      65.0289    -0.06909236 -0.03782019 0.1818284  0.1523507  57         -9999      -9999      65.0289    -9999     
4454.4     -9999      -9999      64.6919    -0.06629737 -0.03680428 0.1314728  0.01569507 57         -9999      -9999      64.6919    -9999     
4454.6     -9999      -9999      65.7342    -0.05107135 -0.003409299 0.1343064  -0.04573762 57         -9999      -9999      65.7342    -9999     
4454.8     -9999      -9999      67.1126    -0.04666857 0.01561073 0.1403058  -0.02338132 57         -9999      -9999      67.1126    -9999     
4455       -9999      -9999      67.391     -0.05900987 -0.01922598 0.05033882 -0.1239392 57         -9999      -9999      67.391     -9999     
4455.200000000001 -9999      -9999      68.1259    -0.04425152 0.01641161 0.06962888 -0.07059133 57         -9999      -9999      68.1259    -9999     
4455.4     -9999      -9999      70.8014    -0.05221945 -0.004165666 0.01099271 -0.07495849 57         -9999      -9999      70.8014    -9999     
4455.6     -9999      -9999      73.2321    -0.04837486 0.002986889 -0.009101318 -0.03530385 57         -9999      -9999      73.2321    -9999     
4455.8     -9999      -9999      73.1685    -0.0439321 0.01856692 -0.0008038 0.0997272  57         -9999      -9999      73.1685    -9999     
4456       -9999      -9999      73.5455    -0.05775652 -0.02183833 -0.09207077 0.09219884 57         -9999      -9999      73.5455    -9999     
4456.200000000001 -9999      -9999      71.8904    -0.04949056 -0.00607377 -0.1003373 0.1778773  57         -9999      -9999      71.8904    -9999     
4456.4     -9999      -9999      67.0872    -0.04953215 -0.007141099 -0.1223685 0.2864954  57         -9999      -9999      67.0872    -9999     
4456.6     -9999      -9999      63.1737    -0.05637757 -0.03046914 -0.1860029 0.3218803  57         -9999      -9999      63.1737    -9999     
4456.8     -9999      -9999      61.9296    -0.05692824 -0.04065154 -0.236937  0.3326747  57         -9999      -9999      61.9296    -9999     
4457       -9999      -9999      64.6036    -0.04742128 -0.0214503 -0.235098  0.4172162  57         -9999      -9999      64.6036    -9999     
4457.200000000001 -9999      -9999      68.1597    -0.04850327 -0.02856058 -0.2661321 0.4750966  57         -9999      -9999      68.1597    -9999     
4457.4     -9999      -9999      69.1335    -0.05473351 -0.05214111 -0.328292  0.450813   57         -9999      -9999      69.1335    -9999     
4457.6     -9999      -9999      65.9735    -0.05722415 -0.0694822 -0.3891729 0.3590335  57         -9999      -9999      65.9735    -9999     
4457.8     -9999      -9999      62.6596    -0.04164291 -0.03687935 -0.3671075 0.3391976  57         -9999      -9999      62.6596    -9999     
4458       -9999      -9999      63.353     -0.04927205 -0.06190415 -0.4304659 0.1581073  57         -9999      -9999      63.353     -9999     
4458.200000000001 -9999      -9999      63.9034    -0.03198446 -0.02740033 -0.4100146 -0.001058717 57         -9999      -9999      63.9034    -9999     
4458.4     -9999      -9999      64.5937    0.00452266 0.07637466 -0.23905   0.1011667  57         -9999      -9999      64.5937    -9999     
4458.6     -9999      -9999      65.1438    -0.002027171 0.07365115 -0.2100266 0.06964862 57         -9999      -9999      65.1438    -9999     
4458.8     -9999      -9999      64.5878    0.007831675 0.1183168  -0.09069024 0.2103534  57         -9999      -9999      64.5878    -9999     
