~Version
 VERS              .         2.0                           : CWLS LOG ASCII STANDARD - VERSION 2.0
 WRAP              .         NO                            : ONE LINE PER DEPTH STEP
 DLM               .         SPACE                         : DELIMITING CHARACTER(SPACE TAB OR COMMA)
~Well Information
#_______________________________________________________________________________
#
#PARAMETER_NAME    .UNIT     VALUE                         : DESCRIPTION
#_______________________________________________________________________________
STRT               .m        2424.989                      : First reference value
STOP               .m        5587.189                      : Last reference value
STEP               .m        0.2                           : Step increment
NULL               .         -9999                         : Missing value
COMP               .         PETROLEO BRASILEIRO S/A       : Company
WELL               .         4ESS 0138  ES                 : Well name
FLD                .         CANAPU                        : Field
LOC                .                                       : Location
CNTY               .                                       : County
STAT               .         ESPIRITO SANTO                : State
CTRY               .                                       : Country
SRVC               .                                       : Service Company
DATE               .                                       : Date
API                .         342710293200                  : API number
EDF                .M        18.00                         : Elevation Derrick Floor
GDAT               .         SIRGAS2000                    : Geodetic Datum
HZCS               .         UTM                           : Horizontal Coordinate System
LAT                .         -20.018293                    : Latitude
LONG               .         -39.316753                    : Longitude
MC                 .         39 W                          : Meridiano Central
ORIG               .         SIGEO EXPORTACAO PERFIL       : Origem dos dados
WDMS               .M        1614.00                       : Water Depth to Mean Sea Level
XCOORD             .         466869.60                     : Surface X
YCOORD             .         7786462.90                    : Surface Y
~Parameter Information Block
#_______________________________________________________________________________
#
#PARAMETER_NAME    .UNIT     VALUE                         : DESCRIPTION
#_______________________________________________________________________________
SET                .         ESS138_resample               : 
TLFamily_CALI      .         Caliper                       : 
TLFamily_DEPT      .         Measured Depth                : 
TLFamily_DT        .         Compressional Slowness        : 
TLFamily_DTS       .         Compressional Slowness        : 
TLFamily_GR        .         Gamma Ray                     : 
TLFamily_INPEFA_1  .                                       : 
TLFamily_INPEFA_2  .                                       : 
TLFamily_INPEFA_3  .                                       : 
TLFamily_INPEFA_4  .                                       : 
TLFamily_LITO      .                                       : 
TLFamily_NPHI      .         Neutron Porosity              : 
TLFamily_OG        .                                       : 
TLFamily_RESD      .         Deep Resistivity              : 
TLFamily_RESM      .         Medium Resistivity            : 
TLFamily_RESS      .         Shallow Resistivity           : 
TLFamily_RHOB      .         Bulk Density                  : 
TLFamily_TVD       .         True Vertical Depth           : 
~Curve Information
#_______________________________________________________________________________
#
#LOGNAME           .UNIT     LOG_ID                        : DESCRIPTION
#_______________________________________________________________________________
DEPT               .m                                      :  
CALI               .in                                     :  
DT                 .us/ft                                  :  
DTS                .us/ft                                  :  
GR                 .gAPI                                   : GAMMA RAY 
INPEFA_1           .                                       :  
INPEFA_2           .                                       :  
INPEFA_3           .                                       :  
INPEFA_4           .                                       :  
LITO               .Sem                                    : Não definido 
NPHI               .%                                      : THERMAL NEUTRON POROSITY (ORIGINAL RATIO METHOD) IN SELECTED LITHOLOGY 
OG                 .                                       :  
RESD               .ohm.m                                  :  
RESM               .ohm.m                                  :  
RESS               .ohm.m                                  :  
RHOB               .g/cm3                                  :  
TVD                .                                       : Vertical Depth 
~Ascii
# ...
2690.389   12.57823   112.0896998127661 246.2666   86.16228   -0.2029753 0.2092782  0.1098698  -0.4211211 58         34.55777   86.16228   0.9961036511648864 1.070599587934545 1.088854798098906 2.272973   2690.2876 
2690.589   12.57299   115.7086376881026 251.8156   89.61309   -0.1577383 0.3135904  0.2305613  -0.37683   58         49.75189   89.61309   0.9238168871741321 0.954704108088599 1.025474612664765 2.22305    2690.4875 
2690.789   12.59836   117.6081090011004 257.6911   86.36363   -0.1503457 0.3391272  0.2780187  -0.3410694 58         44.94482   86.36363   0.9327502247119488 0.9557515035418425 1.041517947608393 2.280354   2690.6875 
2690.989   12.47058   119.4821635368929 266.7693   81.48392   -0.1240479 0.4140553  0.4060117  -0.1359639 57         43.29492   81.48392   0.9396590100506534 0.970220507217112 1.080980941968099 2.341751   2690.8875 
2691.189   12.25392   122.7485631907708 282.6429   85.65069   -0.1727093 0.3237481  0.340182   -0.08388644 57         39.77032   85.65069   0.8673247331423672 0.9078800483878596 1.048292591018156 2.363976   2691.0874 
2691.389   12.23794   125.5097206896685 303.3258   96.74362   -0.1925702 0.2500499  0.2282557  -0.2593448 57         35.22054   96.74362   0.8210739634379315 0.8562487366497079 0.9296307005085503 2.206984   2691.2874 
2691.589   12.21518   125.1267154923894 319.6876   102.5624   -0.1935227 0.2542957  0.24969    -0.2462252 57         42.05968   102.5624   0.8128598686230918 0.8501494042540445 0.8459588404677537 2.156876   2691.4874 
2691.789   12.32886   124.1010296839109 326.8048   106.3334   -0.2090712 0.2009198  0.1726846  -0.4273597 57         61.48164   106.3334   0.8110607535014225 0.8456251377174568 0.8472328738864526 2.077058   2691.687337532809
2691.989   12.46882   125.4914378969674 326.0086   112.3896   -0.1699225 0.2853577  0.2829905  -0.3961423 57         61.42575   112.3896   0.8202234907621103 0.8296903599548762 0.851762979323474 2.060984   2691.8873 
2692.189   12.49546   128.0458702828313 320.6006   114.866    -0.1469072 0.3688501  0.4615764  -0.07030462 57         51.56736   114.866    0.7867709170745646 0.8102426509727101 0.8090963954977786 2.144311   2692.0873 
2692.389   12.58127   125.8643773597013 313.3251   108.8589   -0.192286  0.2684536  0.3808713  -0.07279447 57         72.29765   108.8589   0.7572683945117016 0.7961779304030271 0.8057834471959349 2.133024   2692.2873 
2692.589   12.92087   116.746622100596 303.12     97.1739    -0.2081534 0.2291324  0.3614608  -0.03760686 57         65.25743   97.1739    0.831777916742947 0.8605992825317299 0.967337045741518 2.226652   2692.4872 
2692.789   12.69464   105.9646479288697 287.2718   85.97995   -0.2404149 0.1392033  0.2596326  -0.16438   57         52.88234   85.97995   1.000901352837603 0.9967836268122655 1.247224157675752 2.250495   2692.6872 
2692.989   12.5306    102.771850826235 269.4916   79.84466   -0.2117887 0.1935834  0.3479623  -0.05669496 57         49.02697   79.84466   1.051064661357286 1.069910641447 1.34455289563886 2.326587   2692.8872 
2693.189   12.52553   108.4877360786897 257.571    82.30362   -0.2298757 0.1676106  0.3770516  0.107885   57         34.33232   82.30362   0.9943970722626919 1.058315509108589 1.202320728007777 2.336963   2693.0871 
2693.389   12.53024   115.4068955549116 256.2068   88.32047   -0.2372427 0.136806   0.3701099  0.2088951  57         30.75775   88.32047   0.9009719947480441 1.011681226421118 0.9991628025913538 2.286903   2693.2871 
2693.589   12.51033   114.7773530814924 260.3131   87.34712   -0.2723328 0.06017007 0.3227858  0.3305867  57         46.39474   87.34712   0.8977838906828883 1.02566331747808 0.9703452622551115 2.29259    2693.4871 
2693.789   12.53108   109.0038938747605 262.8752   80.62682   -0.3068009 -0.05531121 0.1741818  0.2664148  57         46.54242   80.62682   0.9840467064718617 1.095068935508282 1.152885042411506 2.36408    2693.6871 
2693.989   12.52228   106.3977367170849 262.1879   74.64906   -0.3304366 -0.1314794 0.07852414 0.2488049  57         37.59045   74.64906   1.133413689140292 1.217914812973534 1.388889694042212 2.40771    2693.887  
2694.189   12.48919   111.8761862206619 261.3998   78.79401   -0.3627524 -0.2444403 -0.08578722 0.1336096  57         30.02881   78.79401   1.152781016271027 1.246736950910346 1.380130297679672 2.38737    2694.087  
2694.389   12.47935   119.7144336850665 263.206    89.00748   -0.3599376 -0.302     -0.2312927 -0.1514921 57         31.27636   89.00748   1.03906920981796 1.133574986493421 1.147529949755678 2.268285   2694.287  
2694.589   12.48838   122.3719666048031 266.968    96.34048   -0.3196791 -0.228855  -0.1573259 -0.100068  57         37.09848   96.34048   0.8133943120587496 0.8977653717830355 0.9493951565312002 2.209407   2694.4869 
2694.789   12.52201   115.757872654057 269.2548   98.26733   -0.3066372 -0.2140076 -0.1378746 -0.02585263 57         48.49487   98.26733   0.8748592127857872 0.9065564662735101 0.9537307804463472 2.201516   2694.6869 
2694.989   12.57909   107.1424632635678 268.8005   93.20063   -0.3262487 -0.2941046 -0.2754987 -0.2486816 57         52.95185   93.20063   0.9375501282511168 0.9335413809700359 1.033107718545304 2.287406   2694.8869 
2695.189   12.60957   104.9420866878641 269.0591   85.33025   -0.2829251 -0.2093774 -0.1703748 -0.1032811 57         36.83694   85.33025   0.9614626225213285 0.9839535207798626 1.091567275776473 2.323241   2695.0869 
2695.389   12.62049   113.854728338292 277.9529   85.75266   -0.299778  -0.2594079 -0.2264468 -0.1050644 57         36.80865   85.75266   0.8996737532860002 0.9404133457050048 1.032404789540868 2.265064   2695.2868 
2695.589   12.66057   125.4441802257528 294.7885   94.20882   -0.3072624 -0.3085072 -0.315235  -0.2531992 57         37.62376   94.20882   0.7880670384719123 0.8425113524705516 0.9121969673329756 1.975164   2695.4868 
2695.789   12.73192   131.0620205296021 312.0787   102.9854   -0.2972504 -0.3065706 -0.3295737 -0.337483  57         57.16642   102.9854   0.7370843842602347 0.7841550866471959 0.8060977971269696 2.031987   2695.6868 
2695.989   12.57909   127.393828785007 321.4109   103.3094   -0.2706708 -0.2585657 -0.2683809 -0.3017788 57         52.60202   103.3094   0.7111581917892799 0.7604779207473489 0.7945774817474216 2.072591   2695.8867 
2696.189   12.32351   120.5233622273176 322.2638   100.0705   -0.25238   -0.2104226 -0.1745838 -0.134109  57         56.16908   100.0705   0.7560590918284545 0.7615850489162821 0.8664169040988259 2.231395   2696.0867 
2696.389   12.31547   116.3617867897806 318.6474   99.08571   -0.2688034 -0.254999  -0.2146799 -0.1552704 57         59.0334    99.08571   0.7790208771141522 0.7788491485154399 0.9215898437877892 2.212451   2696.2867 
2696.589   12.29781   117.7035913342243 316.2398   103.7708   -0.2694269 -0.2664806 -0.2233516 -0.1785212 57         54.50681   103.7708   0.7611851198665536 0.7801253261047543 0.90027796597268 2.212964   2696.4866 
2696.789   12.31245   123.367721317322 320.6355   110.9538   -0.2613213 -0.258121  -0.2084154 -0.1812864 57         49.9052    110.9538   0.7385972993011643 0.7740425002553909 0.8314022566835037 2.150097   2696.6866 
2696.989   12.288     129.7701293064253 331.0632   116.8775   -0.2283306 -0.1783435 -0.07582244 0.06021829 57         46.81265   116.8775   0.7263305487923376 0.7522652974581882 0.7797568770109392 2.122639   2696.8866 
2697.189   12.28649   132.7555857981298 340.1296   120.571    -0.2691372 -0.2748736 -0.1766427 0.02352339 57         59.95997   120.571    0.7138857791452566 0.735356809061837 0.7537786307347647 2.093674   2697.0866 
2697.389   12.29417   129.6803367794908 338.605    117.696    -0.2946033 -0.3661835 -0.3245207 -0.2379997 57         68.25689   117.696    0.7123424898413622 0.7413091091297684 0.760392556807769 2.044158   2697.2865 
2697.589   12.35859   123.3966944336639 328.1901   106.3921   -0.246627  -0.2682943 -0.2064853 -0.153736  57         80.19883   106.3921   0.7314726444586336 0.7576487402028034 0.8136372193509407 2.062234   2697.4865 
