~Version
 VERS              .         2.0                           : CWLS LOG ASCII STANDARD - VERSION 2.0
 WRAP              .         NO                            : ONE LINE PER DEPTH STEP
 DLM               .         SPACE                         : DELIMITING CHARACTER(SPACE TAB OR COMMA)
~Well Information
#_______________________________________________________________________________
#
#PARAMETER_NAME    .UNIT     VALUE                         : DESCRIPTION
#_______________________________________________________________________________
STRT               .m        1542                          : First reference value
STOP               .m        5640.8                        : Last reference value
STEP               .m        0.2                           : Step increment
NULL               .         -9999                         : Missing value
COMP               .         PETROLEO BRASILEIRO S/A       : Company
WELL               .         4-ESS-174A_resample           : Well name
FLD                .         GOLFINHO                      : Field
LOC                .                                       : Location
CNTY               .                                       : County
STAT               .         ESPIRITO SANTO                : State
CTRY               .                                       : Country
SRVC               .                                       : Service Company
DATE               .                                       : Date
API                .         342710322400                  : API number
EDF                .M        19.00                         : Elevation Derrick Floor
GDAT               .         SIRGAS2000                    : Geodetic Datum
HZCS               .         UTM                           : Horizontal Coordinate System
LMF                .         MR                            : Log Measure From
LATI               .         -19_56_54.869                 : Latitude
LONG               .         -39_29_58.132                 : Longitude
MC                 .         39 W                          : Meridiano Central
ORIG               .         SIGEO EXPORTACAO PERFIL       : Origem dos dados
ORIGINALWELLNAME   .         4ESS 0174A ES                 : 
WDMS               .M        1199.00                       : Water Depth to Mean Sea Level
X                  .         447729.60                     : Surface X
Y                  .         7794048.90                    : Surface Y
~Parameter Information Block
#_______________________________________________________________________________
#
#PARAMETER_NAME    .UNIT     VALUE                         : DESCRIPTION
#_______________________________________________________________________________
SET                .         ESS174A_resample              : 
TLFamily_CALI      .         Caliper                       : 
TLFamily_DEPT      .         Measured Depth                : 
TLFamily_DT        .         Compressional Slowness        : 
TLFamily_GR        .         Gamma Ray                     : 
TLFamily_INPEFA_1  .                                       : 
TLFamily_INPEFA_2  .                                       : 
TLFamily_INPEFA_3  .                                       : 
TLFamily_INPEFA_4  .                                       : 
TLFamily_LITO      .                                       : 
TLFamily_LLD       .         Deep Resistivity              : 
TLFamily_NPHI      .         Neutron Porosity              : 
TLFamily_OG        .                                       : 
TLFamily_RHOB      .         Bulk Density                  : 
~Curve Information
#_______________________________________________________________________________
#
#LOGNAME           .UNIT     LOG_ID                        : DESCRIPTION
#_______________________________________________________________________________
DEPT               .m                                      :  
CALI               .in                                     : CALIPER 
DT                 .us/ft                                  : DELTA-T (ALSO CALLED SLOWNESS OR INTERVAL TRANSIT TIME) 
GR                 .gAPI                                   : GAMMA RAY 
INPEFA_1           .                                       :  
INPEFA_2           .                                       :  
INPEFA_3           .                                       :  
INPEFA_4           .                                       :  
LITO               .                                       :  
LLD                .ohm.m                                  : LATEROLOG DEEP RESISTIVITY 
NPHI               .%                                      : THERMAL NEUTRON POROSITY (ORIGINAL RATIO METHOD) IN SELECTED LITHOLOGY 
OG                 .                                       :  
RHOB               .g/cm3                                  : BULK DENSITY 
~Ascii
# ...
2722       13.269     111.8713   66.7144    0.1353245  -0.002726143 0.04537839 -0.3050101 58         1.211300015449524 28.8534    66.7144    2.3489    
2722.2     13.4269    113.4307   67.2816    0.1149376  -0.05074688 -0.04641616 -0.4484965 58         1.115499973297119 29.2297    67.2816    2.3614    
2722.4     13.3442    113.8495   67.0715    0.1098684  -0.07452018 -0.1097829 -0.6050385 58         1.052000045776367 29.5519    67.0715    2.3352    
2722.6     14.0334    113.3839   67.057     0.1253329  -0.04997713 -0.07520665 -0.5934442 58         1.082399964332846 32.7712    67.057     2.3054    
2722.8     13.9407    112.9959   65.2303    0.1298351  -0.04460176 -0.06800567 -0.6014451 58         1.109799981117249 33.314     65.2303    2.3116    
2723       13.6567    113.3695   63.2697    0.1335996  -0.04292721 -0.07137761 -0.6370696 58         1.059200048446655 33.0378    63.2697    2.3295    
2723.2     13.3068    113.9082   65.7392    0.1422238  -0.02941817 -0.04973646 -0.6251332 58         0.906000018119812 34.2707    65.7392    2.2953    
2723.4     13.5675    113.9896   71.1572    0.1530574  -0.009331556 -0.01072944 -0.5645383 58         0.9431999921798706 35.0167    71.1572    2.1862    
2723.6     14.3632    113.727    73.0536    0.1592241  0.001220841 0.01222168 -0.5181505 58         1.076799988746729 37.9061    73.0536    2.1004    
2723.8     14.3362    113.6569   71.4297    0.1652848  0.01237165 0.03886814 -0.4517676 58         1.099499940872192 39.2098    71.4297    2.126     
2724       13.4018    114.9595   70.3976    0.1773416  0.03747287 0.09594481 -0.3114887 49         1.032400012016296 34.8567    70.3976    2.1372    
2724.2     13.4431    116.1973   69.7282    0.1765194  0.03935654 0.1193299  -0.1821263 49         0.881600022315979 35.6566    69.7282    2.0904    
2724.4     14.4578    115.8103   67.2205    0.1626222  0.006494831 0.06585766 -0.2032155 49         0.8565000295639038 39.4434    67.2205    2.1129    
2724.6     13.6657    113.4697   65.02      0.1640883  0.006122442 0.07092176 -0.1406808 49         1.017699956894387 40.8798    65.02      2.1614    
2724.8     14.3745    109.59     63.421     0.1583504  -0.009718942 0.04638293 -0.1251468 49         1.212800025939941 39.8345    63.421     2.2169    
2725       13.8134    109.3914   62.477     0.175111   0.02033704 0.1048272  0.02084646 49         1.141700029373169 33.8457    62.477     2.303     
2725.2     13.2884    115.3013   67.1302    0.1790859  0.03316624 0.1504921  0.2138273  49         0.9690999984741211 29.0317    67.1302    2.2715    
2725.4     13.3845    118.8532   73.5625    0.1626774  -0.003689864 0.09334609 0.2289607  49         0.8809999823570252 33.5005    73.5625    2.0822    
2725.6     14.8568    119.1466   72.4976    0.1425828  -0.0537115 -0.002066565 0.1358144  49         0.9219999909404483 38.7454    72.4976    2.0098    
2725.8     13.3791    116.978    66.9691    0.1400998  -0.06786535 -0.03465481 0.1261036  49         0.9847999811172485 40.0917    66.9691    2.0894    
2726       13.3188    113.4182   63.4705    0.1287098  -0.1041764 -0.1172108 -0.000423318 49         1.090299963951111 37.3449    63.4705    2.0696    
2726.2     13.394     109.844    61.5362    0.1426853  -0.08690702 -0.1022937 0.007322396 49         1.095499992370606 37.8553    61.5362    2.0729    
2726.4     13.6952    107.1848   59.0199    0.1612422  -0.04971206 -0.02997313 0.1691142  49         1.12880003452301 38.1759    59.0199    2.2238    
2726.6     13.7339    105.8322   57.0702    0.1549152  -0.0692179 -0.06888873 0.1430225  49         1.172999978065503 34.8301    57.0702    2.3466    
2726.8     13.3464    106.0568   56.6443    0.1544272  -0.07417233 -0.07929837 0.162525   49         1.147300004959106 31.216     56.6443    2.3474    
2727       13.3758    108.1648   55.7919    0.1510364  -0.09271071 -0.1273567 0.08707185 57         1.133499979972839 32.0315    55.7919    2.3187    
2727.2     13.9858    112.0456   56.64      0.1638     -0.07046768 -0.08974015 0.1687052  57         1.006100058555603 30.3864    56.64      2.3183    
2727.4     13.4273    115.5418   62.0891    0.1669215  -0.06772614 -0.08321609 0.2251855  57         0.8790000081062317 31.9212    62.0891    2.2707    
2727.6     14.0923    116.5306   67.4797    0.1617003  -0.0847605 -0.1189942 0.1958814  57         0.8313000202181219 36.0968    67.4797    2.1928    
2727.8     14.18      115.8101   70.268     0.1581495  -0.100524  -0.1575558 0.1396037  57         0.9508000016212463 37.4435    70.268     2.1657    
2728       14.4533    115.1156   67.6514    0.1614475  -0.101351  -0.1685214 0.118678   57         1.118899941444397 37.1538    67.6514    2.2119    
2728.2     13.5304    116.1108   63.6993    0.1687316  -0.09177244 -0.1567588 0.1402172  57         1.100200057029724 32.003     63.6993    2.26      
2728.4     13.4206    119.2314   66.1816    0.1631384  -0.1105483 -0.2003593 0.06129187 57         0.8817999958992004 31.5557    66.1816    2.2062    
2728.6     13.9052    121.7234   74.9868    0.1641678  -0.1170414 -0.2259611 -0.01359084 57         0.7190999984743511 39.478     74.9868    2.1126    
2728.8     14.4683    120.9624   81.1467    0.1771541  -0.09758027 -0.2023423 -0.01205309 57         0.8162000179290772 42.168     81.1467    2.0818    
2729       14.2446    118.0778   82.355     0.1919795  -0.06856475 -0.1493255 0.07509032 57         1.04229998588562 39.5524    82.355     2.145     
2729.2     13.8517    114.7181   77.7212    0.1961091  -0.0631114 -0.1391045 0.1052968  57         1.146299958229065 36.8117    77.7212    2.2564    
2729.4     13.4724    112.9351   68.8252    0.1943106  -0.06749608 -0.1427693 0.1271199  57         1.071900010108948 33.5112    68.8252    2.2951    
2729.6     13.5975    113.9428   63.7174    0.1925933  -0.07775119 -0.167411  0.08900628 57         0.9663000106810048 32.3578    63.7174    2.2302    
2729.8     14.1249    115.7209   65.2108    0.1984258  -0.06820244 -0.1503044 0.1272001  57         0.9534000158309937 35.4745    65.2108    2.1733    
2730       13.9211    116.2946   67.9019    0.2035435  -0.06075761 -0.13596   0.1726697  57         1.008499979972839 37.7792    67.9019    2.1847    
2730.2     13.9198    115.9592   67.2769    0.2090715  -0.04996339 -0.1111586 0.2531872  57         1.000800013542175 35.7881    67.2769    2.2357    
2730.4     13.9291    115.4101   64.917     0.2046502  -0.06223647 -0.132146  0.2622283  57         0.8844000101089478 33.2308    64.917     2.2805    
2730.6     13.4499    115.0052   65.0067    0.1964522  -0.08388271 -0.1745116 0.2277072  57         0.9358000159262673 32.5827    65.0067    2.2305    
2730.8     13.7816    114.7716   67.2936    0.1896507  -0.1067585 -0.2280342 0.1483821  57         0.9549999833106995 36.2258    67.2936    2.1166    
2731       13.7984    114.5798   68.3011    0.1844392  -0.125744  -0.2760642 0.0672732  49         1.010300040245056 38.1825    68.3011    2.1185    
2731.2     13.4038    114.1004   66.6137    0.1815847  -0.1423393 -0.3247479 -0.03123027 49         0.9609000086784363 33.4832    66.6137    2.1803    
2731.4     13.4159    112.5355   65.881     0.1840616  -0.1504656 -0.3646109 -0.1471034 49         0.892300009727478 32.692     65.881     2.1033    
2731.6     13.8532    109.847    66.5117    0.1905242  -0.1437883 -0.3675588 -0.1834169 49         1.022600054741602 37.1097    66.5117    2.045     
2731.8     13.4286    106.9371   64.2365    0.196922   -0.1395555 -0.3763383 -0.2344397 49         1.255399942398071 36.58      64.2365    2.1748    
2732       13.1446    105.6653   59.0909    0.206233   -0.1258332 -0.3641213 -0.2459479 58         1.431699991226196 32.1318    59.0909    2.3177    
2732.2     13.1467    106.3075   55.7115    0.2131152  -0.1177851 -0.3612851 -0.2641812 58         1.372400045394898 27.5864    55.7115    2.3504    
2732.4     13.1533    108.2932   57.1906    0.2208493  -0.1054912 -0.3458375 -0.2460782 58         1.405500054359436 27.4852    57.1906    2.3529    
