~Version
 VERS              .         2.0                           : CWLS LOG ASCII STANDARD - VERSION 2.0
 WRAP              .         NO                            : ONE LINE PER DEPTH STEP
 DLM               .         SPACE                         : DELIMITING CHARACTER(SPACE TAB OR COMMA)
~Well Information
#_______________________________________________________________________________
#
#PARAMETER_NAME    .UNIT     VALUE                         : DESCRIPTION
#_______________________________________________________________________________
STRT               .m        1537                          : First reference value
STOP               .m        5197.8                        : Last reference value
STEP               .m        0.2                           : Step increment
NULL               .         -9999                         : Missing value
COMP               .         PETROLEO BRASILEIRO S/A       : Company
WELL               .         4-ESS-151_resample            : Well name
FLD                .         GOLFINHO                      : Field
LOC                .                                       : Location
CNTY               .                                       : County
STAT               .         ESPIRITO SANTO                : State
CTRY               .                                       : Country
SRVC               .                                       : Service Company
DATE               .                                       : Date
API                .         342710302200                  : API number
EDF                .M        18.00                         : Elevation Derrick Floor
GDAT               .         SIRGAS2000                    : Geodetic Datum
HZCS               .         UTM                           : Horizontal Coordinate System
LMF                .         MR                            : Log Measure From
LATI               .         -19_56_15.689                 : Latitude
LONG               .         -39_25_50.073                 : Longitude
MC                 .         39 W                          : Meridiano Central
ORIG               .         SIGEO EXPORTACAO PERFIL       : Origem dos dados
ORIGINALWELLNAME   .         4ESS 0151  ES                 : 
WDMS               .M        1332.00                       : Water Depth to Mean Sea Level
X                  .         454939.60                     : Surface X
Y                  .         7795340.90                    : Surface Y
~Parameter Information Block
#_______________________________________________________________________________
#
#PARAMETER_NAME    .UNIT     VALUE                         : DESCRIPTION
#_______________________________________________________________________________
SET                .         ESS151_resample               : 
TLFamily_CALI      .         Caliper                       : 
TLFamily_DEPT      .         Measured Depth                : 
TLFamily_DT        .         Compressional Slowness        : 
TLFamily_GR        .         Gamma Ray                     : 
TLFamily_INPEFA_1  .                                       : 
TLFamily_INPEFA_2  .                                       : 
TLFamily_INPEFA_3  .                                       : 
TLFamily_INPEFA_4  .                                       : 
TLFamily_LITO      .                                       : 
TLFamily_LLD       .         Deep Resistivity              : 
TLFamily_NPHI      .         Neutron Porosity              : 
TLFamily_OG        .                                       : 
TLFamily_RHOB      .         Bulk Density                  : 
~Curve Information
#_______________________________________________________________________________
#
#LOGNAME           .UNIT     LOG_ID                        : DESCRIPTION
#_______________________________________________________________________________
DEPT               .m                                      :  
CALI               .in                                     : CALIPER 
DT                 .us/ft                                  : DELTA-T (ALSO CALLED SLOWNESS OR INTERVAL TRANSIT TIME) 
GR                 .gAPI                                   : GAMMA RAY 
INPEFA_1           .                                       :  
INPEFA_2           .                                       :  
INPEFA_3           .                                       :  
INPEFA_4           .                                       :  
LITO               .                                       :  
LLD                .ohm.m                                  : LATEROLOG DEEP RESISTIVITY 
NPHI               .%                                      : THERMAL NEUTRON POROSITY (ORIGINAL RATIO METHOD) IN SELECTED LITHOLOGY 
OG                 .                                       :  
RHOB               .g/cm3                                  : BULK DENSITY 
~Ascii
# ...
4638       8.5241     75.3956    131.8271   -0.3531894 -0.3456599 -0.6717925 -0.4390587 57         -9999      15.5093    131.8271   2.5381    
4638.200000000001 8.5253     77.0962    120.1521   -0.2353843 -0.07834334 -0.3431942 -0.4158091 57         -9999      18.881     120.1521   2.5298    
4638.4     8.5231     76.8455    135.9121   -0.1444517 0.1937459  0.1395613  0.03490805 57         -9999      20.0605    135.9121   2.5371    
4638.6     8.5279     75.2       157.1986   -0.1988927 0.1264053  0.1942413  0.1540029  57         -9999      19.4031    157.1986   2.539     
4638.8     8.5123     74.1338    168.5048   -0.2462274 0.04389504 0.1974087  0.2166961  57         -9999      17.0486    168.5048   2.5326    
4639       8.5058     74.4241    171.0734   -0.2806949 -0.03695432 0.1618725  0.1386043  49         -9999      14.2192    171.0734   2.5361    
4639.200000000001 8.5115     75.1848    157.7983   -0.2876844 -0.04703746 0.2365561  0.1576654  49         -9999      14.5664    157.7983   2.5472    
4639.4     8.5112     76.2482    145.4291   -0.2987931 -0.05696347 0.3326726  0.2504777  49         -9999      17.5812    145.4291   2.5463    
4639.6     8.5033     77.3449    154.5161   -0.3230423 -0.1085893 0.3621709  0.2897599  49         -9999      18.7232    154.5161   2.5306    
4639.8     8.4927     77.9197    166.0668   -0.3301705 -0.1311749 0.4194692  0.3773704  49         -9999      17.8589    166.0668   2.5291    
4640       8.485      78.1728    161.1362   -0.3503281 -0.1892555 0.4305854  0.4748557  49         -9999      18.4368    161.1362   2.5406    
4640.200000000001 8.4839     78.3179    158.0232   -0.3846312 -0.300987  0.333528   0.3689477  49         -9999      20.0597    158.0232   2.5348    
4640.4     8.4829     77.818     165.7592   -0.3970849 -0.3534702 0.3247239  0.3103877  49         -9999      20.8876    165.7592   2.5335    
4640.6     8.4842     75.9094    173.135    -0.3817989 -0.3380944 0.4212117  0.362529   49         -9999      19.8401    173.135    2.5544    
4640.8     8.4695     73.8316    176.9925   -0.3755061 -0.3177372 0.583907   0.6564782  49         -9999      16.0539    176.9925   2.5795    
4641       8.4566     73.9086    172.5088   -0.4530228 -0.5350547 0.3471844  0.6153339  57         -9999      12.4081    172.5088   2.5914    
4641.200000000001 8.4611     76.1454    147.1636   -0.4779051 -0.6618339 0.1431001  0.4314241  57         -9999      13.4019    147.1636   2.5774    
4641.4     8.4667     78.8146    115.5473   -0.4468029 -0.6736146 0.03941406 0.2212106  57         -9999      17.8938    115.5473   2.5476    
4641.6     8.4729     80.2472    115.0971   -0.3989093 -0.5975576 0.1030554  0.3177391  57         -9999      21.0779    115.0971   2.5349    
4641.8     8.4712     80.5093    142.196    -0.3970103 -0.6536192 -0.07055142 0.1339436  57         -9999      21.037     142.196    2.544     
4642       8.4599     80.3278    166.9082   -0.3567151 -0.6358381 -0.2077717 -0.1476742 49         -9999      19.9174    166.9082   2.5532    
4642.200000000001 8.4586     80.2065    174.9445   -0.2815332 -0.5078098 -0.1633753 -0.1836469 49         -9999      19.8598    174.9445   2.5593    
4642.4     8.4581     80.117     172.8314   -0.2276366 -0.419442  -0.1739239 -0.24595   49         -9999      20.5502    172.8314   2.5597    
4642.6     8.4601     79.728     171.2236   -0.1766247 -0.3344671 -0.2049921 -0.3777783 49         -9999      21.0366    171.2236   2.5461    
4642.8     8.4595     79.0617    171.4066   -0.1120463 -0.1999345 -0.169094  -0.474103  49         -9999      20.4761    171.4066   2.5282    
4643       8.4436     77.9723    173.8503   -0.05801544 -0.07023309 -0.1342319 -0.5361696 57         -9999      19.0231    173.8503   2.5211    
4643.200000000001 8.4418     76.0537    178.4707   -0.002520823 0.06434647 -0.1180124 -0.6412663 57         -9999      18.4332    178.4707   2.5291    
4643.4     8.4478     73.0621    180.4796   0.06497002 0.2744825  0.09242895 -0.7081172 57         -9999      19.0871    180.4796   2.5333    
4643.6     8.4407     69.4341    174.9895   0.09236    0.4041102  0.228128   -0.6982679 57         -9999      16.3476    174.9895   2.5347    
4643.8     8.4285     66.3603    167.9556   0.1081141  0.5490025  0.4874077  -0.3821512 57         -9999      10.8955    167.9556   2.5567    
4644       8.4249     64.8835    172.6413   0.0477151  0.4810001  0.4353429  -0.3132412 49         -9999      8.0234     172.6413   2.5844    
4644.200000000001 8.4224     65.6566    179.5264   0.005730616 0.4411077  0.4063598  -0.2628998 49         -9999      7.5028     179.5264   2.5828    
4644.4     8.4105     68.474     170.1238   -0.0659905 0.3337302  0.3058155  -0.189396  49         -9999      7.6819     170.1238   2.5452    
4644.6     8.3922     72.0123    150.3655   -0.1079824 0.2685304  0.2398707  -0.03217805 49         -9999      8.2158     150.3655   2.4795    
4644.8     8.3746     74.8197    136.1342   -0.131151  0.228253   0.1693715  -0.1035484 49         -9999      8.952      136.1342   2.4123    
4645       8.3609     76.3464    126.0985   -0.1462663 0.2138782  0.1273817  0.0212904  49         -9999      10.09      126.0985   2.3657    
4645.200000000001 8.3638     77.0707    111.286    -0.1387642 0.2569886  0.1850274  0.2557177  49         -9999      11.5557    111.286    2.3443    
4645.4     8.3717     77.4141    96.0876    -0.1778781 0.1551791  -0.01191884 0.2142637  49         -9999      12.7015    96.0876    2.3385    
4645.6     8.3722     77.3642    85.4028    -0.1947742 0.08672347 -0.2111688 -0.06527662 49         -9999      13.2236    85.4028    2.3382    
4645.8     8.3709     77.1686    76.9403    -0.1611883 0.152119   -0.2109786 -0.2817088 49         -9999      13.2592    76.9403    2.3382    
4646       8.3728     77.1353    71.9599    -0.0527572 0.4432344  0.2020318  0.02046099 49         -9999      13.2247    71.9599    2.3428    
4646.200000000001 8.3762     77.1738    70.0357    -0.04137448 0.5313106  0.4031171  0.1747547  49         -9999      13.1353    70.0357    2.3462    
4646.4     8.3771     77.3779    70.0477    -0.1073477 0.4767278  0.5106137  0.6563088  49         -9999      13.1859    70.0477    2.345     
4646.6     8.4027     77.8914    75.5972    -0.2142632 0.1993181  0.1108506  0.2285464  49         -9999      13.3841    75.5972    2.381     
4646.8     8.4353     78.4086    91.0797    -0.221261  0.2000096  0.1316143  0.3147355  49         -9999      13.6381    91.0797    2.442     
4647       8.4607     78.9218    119.1229   -0.2408191 0.1075274  -0.08496708 -0.1703106 57         -9999      14.6019    119.1229   2.4969    
4647.200000000001 8.4858     79.4971    149.0412   -0.1797229 0.2934886  0.2074069  0.08033831 57         -9999      17.3569    149.0412   2.5419    
4647.4     8.4951     79.9183    175.6816   -0.1890089 0.300245   0.2608576  0.221995   57         -9999      20.6434    175.6816   2.5551    
4647.6     8.4927     80.1774    192.0605   -0.2358353 0.22031    0.1893023  0.3549369  57         -9999      21.9854    192.0605   2.5547    
4647.8     8.4807     79.8373    193.1786   -0.2565392 0.1504498  0.04503488 0.2823824  57         -9999      21.8849    193.1786   2.5561    
4648       8.4735     78.4961    187.1015   -0.2573798 0.1660114  0.05926255 0.4583443  57         -9999      21.1235    187.1015   2.5581    
4648.200000000001 8.4664     76.3647    179.663    -0.3106566 0.03984526 -0.1594353 0.3805268  57         -9999      20.0849    179.663    2.5655    
4648.4     8.4535     73.7068    177.0094   -0.3242308 -0.008800324 -0.3235403 0.2335761  57         -9999      19.2547    177.0094   2.5711    
4648.6     8.4345     71.8514    176.7808   -0.3130233 -0.0164536 -0.4852993 -0.1315737 57         -9999      17.5571    176.7808   2.5882    
4648.8     8.428      71.9736    168.4275   -0.2366226 0.1646416  -0.3463042 -0.2855948 57         -9999      13.9253    168.4275   2.5934    
4649       8.4365     73.6886    143.9959   -0.131844  0.4788033  0.1164799  0.1679625  49         -9999      12.5583    143.9959   2.5684    
