~Version
 VERS              .         2.0                           : CWLS LOG ASCII STANDARD - VERSION 2.0
 WRAP              .         NO                            : ONE LINE PER DEPTH STEP
 DLM               .         SPACE                         : DELIMITING CHARACTER(SPACE TAB OR COMMA)
~Well Information
#_______________________________________________________________________________
#
#PARAMETER_NAME    .UNIT     VALUE                         : DESCRIPTION
#_______________________________________________________________________________
STRT               .m        1537                          : First reference value
STOP               .m        5197.8                        : Last reference value
STEP               .m        0.2                           : Step increment
NULL               .         -9999                         : Missing value
COMP               .         PETROLEO BRASILEIRO S/A       : Company
WELL               .         4-ESS-151_resample            : Well name
FLD                .         GOLFINHO                      : Field
LOC                .                                       : Location
CNTY               .                                       : County
STAT               .         ESPIRITO SANTO                : State
CTRY               .                                       : Country
SRVC               .                                       : Service Company
DATE               .                                       : Date
API                .         342710302200                  : API number
EDF                .M        18.00                         : Elevation Derrick Floor
GDAT               .         SIRGAS2000                    : Geodetic Datum
HZCS               .         UTM                           : Horizontal Coordinate System
LMF                .         MR                            : Log Measure From
LATI               .         -19_56_15.689                 : Latitude
LONG               .         -39_25_50.073                 : Longitude
MC                 .         39 W                          : Meridiano Central
ORIG               .         SIGEO EXPORTACAO PERFIL       : Origem dos dados
ORIGINALWELLNAME   .         4ESS 0151  ES                 : 
WDMS               .M        1332.00                       : Water Depth to Mean Sea Level
X                  .         454939.60                     : Surface X
Y                  .         7795340.90                    : Surface Y
~Parameter Information Block
#_______________________________________________________________________________
#
#PARAMETER_NAME    .UNIT     VALUE                         : DESCRIPTION
#_______________________________________________________________________________
SET                .         ESS151_resample               : 
TLFamily_CALI      .         Caliper                       : 
TLFamily_DEPT      .         Measured Depth                : 
TLFamily_DT        .         Compressional Slowness        : 
TLFamily_GR        .         Gamma Ray                     : 
TLFamily_INPEFA_1  .                                       : 
TLFamily_INPEFA_2  .                                       : 
TLFamily_INPEFA_3  .                                       : 
TLFamily_INPEFA_4  .                                       : 
TLFamily_LITO      .                                       : 
TLFamily_LLD       .         Deep Resistivity              : 
TLFamily_NPHI      .         Neutron Porosity              : 
TLFamily_OG        .                                       : 
TLFamily_RHOB      .         Bulk Density                  : 
~Curve Information
#_______________________________________________________________________________
#
#LOGNAME           .UNIT     LOG_ID                        : DESCRIPTION
#_______________________________________________________________________________
DEPT               .m                                      :  
CALI               .in                                     : CALIPER 
DT                 .us/ft                                  : DELTA-T (ALSO CALLED SLOWNESS OR INTERVAL TRANSIT TIME) 
GR                 .gAPI                                   : GAMMA RAY 
INPEFA_1           .                                       :  
INPEFA_2           .                                       :  
INPEFA_3           .                                       :  
INPEFA_4           .                                       :  
LITO               .                                       :  
LLD                .ohm.m                                  : LATEROLOG DEEP RESISTIVITY 
NPHI               .%                                      : THERMAL NEUTRON POROSITY (ORIGINAL RATIO METHOD) IN SELECTED LITHOLOGY 
OG                 .                                       :  
RHOB               .g/cm3                                  : BULK DENSITY 
~Ascii
# ...
2433       20.5259    136.931    -9999      -9999      -9999      -9999      -9999      49         -9999      64.7751    -9999      1.2284    
2433.2     20.5241    139.8099   52.6261    0.02878857 -0.1462282 -0.1188058 -0.2363263 49         -9999      58.7178    52.6261    1.2112    
2433.4     20.5249    143.3522   50.4881    0.04355927 -0.1257264 -0.09786091 -0.2673056 49         -9999      57.0692    50.4881    1.2029    
2433.6     20.526     142.4969   52.1235    0.04875783 -0.122467  -0.09284668 -0.2810996 49         -9999      59.0066    52.1235    1.3296    
2433.8     20.5228    136.5603   56.4045    0.05651854 -0.1191812 -0.08463571 -0.2808559 49         -9999      56.8051    56.4045    1.5821    
2434       20.5221    118.4968   57.1115    0.05883051 -0.1212744 -0.08100534 -0.2587508 49         -9999      53.9901    57.1115    1.5944    
2434.2     20.5211    90.1074    53.8011    0.0621997  -0.1282189 -0.08786292 -0.251949  49         -9999      55.1782    53.8011    1.3351    
2434.4     20.5232    83.7173    54.36      0.07293262 -0.1110495 -0.05000124 -0.1609726 49         -9999      60.6807    54.36      1.2108    
2434.6     20.5229    82.4661    62.3398    0.08043198 -0.09886102 -0.00834224 -0.004252831 49         -9999      59.8063    62.3398    1.476     
2434.8     20.2806    87.8478    68.1561    0.0670993  -0.1487285 -0.07444345 -0.005278811 49         -9999      53.3382    68.1561    1.9464    
2435       17.6722    118.9764   66.7941    0.07468783 -0.1467151 -0.07341557 0.03639659 49         -9999      48.3923    66.7941    2.0561    
2435.2     19.5488    137.9699   61.112     0.09110775 -0.1157913 -0.008940757 0.2088013  49         -9999      49.6741    61.112     1.8253    
2435.4     20.4891    141.017    56.4277    0.08019954 -0.1532713 -0.04925436 0.2697946  49         -9999      53.0426    56.4277    1.6625    
2435.6     20.5085    145.169    52.3538    0.07646497 -0.1868766 -0.1091077 0.2266191  49         -9999      56.9149    52.3538    1.5325    
2435.8     20.5116    146.0924   49.4741    0.08580251 -0.1838666 -0.1164708 0.1990505  49         -9999      60.0741    49.4741    1.391     
2436       20.5135    146.0924   50.6232    0.1043889  -0.1499101 -0.06277304 0.2657148  49         -9999      62.5195    50.6232    1.3511    
2436.2     20.5138    146.0924   53.51      0.1121016  -0.1386367 -0.02828651 0.3490098  49         0.8038     64.7317    53.51      1.3752    
2436.4     20.5149    146.0924   53.7067    0.1170523  -0.1343066 -0.004206643 0.4408844  49         0.6671     61.6555    53.7067    1.3671    
2436.6     20.5157    141.3277   52.3932    0.1166826  -0.1428746 0.005530373 0.5490665  49         0.5823     58.5314    52.3932    1.3053    
2436.8     20.5139    122.39     51.5295    0.1086126  -0.1821126 -0.05125452 0.5291451  49         0.6445     62.685     51.5295    1.2337    
2437       20.5141    110.2605   51.7294    0.1184892  -0.1700219 -0.02883357 0.5948364  49         0.8309     62.1142    51.7294    1.1929    
2437.2     20.462     109.5      52.2604    0.1135473  -0.1990205 -0.07457329 0.5710089  49         1.0086     57.0795    52.2604    1.2041    
2437.4     20.2717    109.8736   52.218     0.1144953  -0.2216978 -0.131856  0.4643779  49         0.981      53.4264    52.218     1.2455    
2437.6     20.2146    120.4073   51.8548    0.1229597  -0.2221009 -0.1558034 0.3539767  49         0.7989     51.7011    51.8548    1.2477    
2437.8     20.368     132.0846   54.0059    0.1383861  -0.1962122 -0.1288954 0.3003865  49         0.6807     54.1181    54.0059    1.213     
2438       20.4772    115.3836   55.535     0.1507753  -0.1759626 -0.1052932 0.2603446  49         0.6366     62.1184    55.535     1.1947    
2438.2     20.5161    101.3779   53.689     0.1620953  -0.1571618 -0.07708475 0.2560793  49         0.6125     66.3703    53.689     1.199     
2438.4     20.5172    100.3049   53.6768    0.1627988  -0.1623439 -0.07808895 0.2504317  49         0.604      66.2479    53.6768    1.2088    
2438.6     20.5164    100.3049   55.8156    0.1648266  -0.1708434 -0.0977098 0.1814888  49         0.5822     66.9138    55.8156    1.2109    
2438.8     20.5163    100.3049   56.129     0.1849584  -0.1208264 -0.01198645 0.2831015  49         0.5699     63.505     56.129     1.2007    
2439       20.5182    100.3049   53.3753    0.1765139  -0.1457789 -0.04216353 0.2627523  49         0.5766     61.9122    53.3753    1.1874    
2439.2     20.5163    100.3049   50.7813    0.1842741  -0.1356796 -0.03778019 0.2422996  49         0.5921     61.5604    50.7813    1.1775    
2439.4     20.516     100.3049   50.1809    0.1947281  -0.1103038 0.001137108 0.3064338  49         0.6162     57.4855    50.1809    1.1695    
2439.6     20.5161    100.3049   51.774     0.1908075  -0.1309979 -0.04805338 0.2421044  49         0.728      56.0696    51.774     1.1703    
2439.8     20.5151    100.3049   54.7028    0.2052404  -0.1031381 -0.02490422 0.2674097  49         0.9085     56.8846    54.7028    1.2838    
2440       20.5121    100.3049   56.0624    0.2049034  -0.1115786 -0.05531789 0.2366469  49         1.0482     54.9301    56.0624    1.5825    
2440.2     19.4428    105.6226   56.5744    0.2104301  -0.1088774 -0.08141282 0.1688921  49         1.0322     53.8675    56.5744    1.777     
2440.4     19.6107    124.656    56.5912    0.2213207  -0.08949208 -0.08077744 0.1257526  49         0.9591     57.8791    56.5912    1.6402    
2440.6     20.4264    137.2607   55.2659    0.2303893  -0.07137339 -0.08306541 0.08619285 49         0.9066     65.0456    55.2659    1.4237    
2440.8     20.4908    138.268    52.9045    0.2332706  -0.07288352 -0.1216535 -0.02267826 49         0.8846     60.0424    52.9045    1.3126    
2441       20.4748    138.1274   50.6383    0.2417931  -0.06036238 -0.1488732 -0.1641826 49         0.8526     58.3367    50.6383    1.2514    
2441.2     20.4904    136.2908   49.2284    0.2583379  -0.02127581 -0.1289792 -0.2497611 49         0.7756     61.5944    49.2284    1.2116    
2441.4     20.493     132.8221   50.0805    0.2634978  -0.01272054 -0.159513  -0.4459408 49         0.7116     63.2317    50.0805    1.199     
2441.6     20.4933    130.9368   51.7559    0.2971018  0.07926371 -0.04127906 -0.4137453 49         0.6572     60.3639    51.7559    1.2044    
2441.8     20.4939    130.6284   51.3108    0.296251   0.08939584 -0.03175498 -0.4913452 49         0.6264     58.094     51.3108    1.2185    
2442       20.4937    130.6284   51.6791    0.3061624  0.1253207  0.01442978 -0.5380041 49         0.5974     60.1388    51.6791    1.2342    
2442.2     20.4937    130.6284   52.4879    0.3105496  0.1461535  0.03962719 -0.6222177 49         0.5796     60.5935    52.4879    1.2385    
2442.4     20.494     130.6284   52.1935    0.3179284  0.177266   0.08450172 -0.7005873 49         0.5557     61.1626    52.1935    1.2292    
2442.6     20.494     130.6284   52.9748    0.3308734  0.229173   0.1770086  -0.6968967 49         0.5236     58.5819    52.9748    1.2157    
2442.8     20.493     130.7229   53.0636    0.3305455  0.2491507  0.2284346  -0.719493  49         0.5017     57.6662    53.0636    1.2039    
2443       20.493     131.1845   52.8772    0.3355138  0.2800086  0.2956769  -0.7195252 49         0.492      61.2983    52.8772    1.197     
2443.2     20.493     132.5219   53.007     0.3417583  0.3167506  0.3806539  -0.6566204 49         0.4808     59.8385    53.007     1.1907    
2443.4     20.493     136.4914   52.2988    0.3503425  0.3648603  0.5024368  -0.4495529 49         0.4592     62.0427    52.2988    1.1812    
2443.6     20.4932    137.5672   51.3837    0.3324642  0.3437925  0.5231624  -0.2980766 49         0.424      64.2649    51.3837    1.1729    
2443.8     20.4933    137.5591   51.3458    0.3159389  0.3110806  0.4977924  -0.2423887 49         0.395      62.4966    51.3458    1.17      
2444       20.4953    144.9239   51.3574    0.3156846  0.322611   0.5390391  -0.09024807 49         0.4365     65.153     51.3574    1.1955    
