~Version
 VERS              .         2.0                           : CWLS LOG ASCII STANDARD - VERSION 2.0
 WRAP              .         NO                            : ONE LINE PER DEPTH STEP
 DLM               .         SPACE                         : DELIMITING CHARACTER(SPACE TAB OR COMMA)
~Well Information
#_______________________________________________________________________________
#
#PARAMETER_NAME    .UNIT     VALUE                         : DESCRIPTION
#_______________________________________________________________________________
STRT               .m        1537                          : First reference value
STOP               .m        5197.8                        : Last reference value
STEP               .m        0.2                           : Step increment
NULL               .         -9999                         : Missing value
COMP               .         PETROLEO BRASILEIRO S/A       : Company
WELL               .         4-ESS-151_resample            : Well name
FLD                .         GOLFINHO                      : Field
LOC                .                                       : Location
CNTY               .                                       : County
STAT               .         ESPIRITO SANTO                : State
CTRY               .                                       : Country
SRVC               .                                       : Service Company
DATE               .                                       : Date
API                .         342710302200                  : API number
EDF                .M        18.00                         : Elevation Derrick Floor
GDAT               .         SIRGAS2000                    : Geodetic Datum
HZCS               .         UTM                           : Horizontal Coordinate System
LMF                .         MR                            : Log Measure From
LATI               .         -19_56_15.689                 : Latitude
LONG               .         -39_25_50.073                 : Longitude
MC                 .         39 W                          : Meridiano Central
ORIG               .         SIGEO EXPORTACAO PERFIL       : Origem dos dados
ORIGINALWELLNAME   .         4ESS 0151  ES                 : 
WDMS               .M        1332.00                       : Water Depth to Mean Sea Level
X                  .         454939.60                     : Surface X
Y                  .         7795340.90                    : Surface Y
~Parameter Information Block
#_______________________________________________________________________________
#
#PARAMETER_NAME    .UNIT     VALUE                         : DESCRIPTION
#_______________________________________________________________________________
SET                .         ESS151_resample               : 
TLFamily_CALI      .         Caliper                       : 
TLFamily_DEPT      .         Measured Depth                : 
TLFamily_DT        .         Compressional Slowness        : 
TLFamily_GR        .         Gamma Ray                     : 
TLFamily_INPEFA_1  .                                       : 
TLFamily_INPEFA_2  .                                       : 
TLFamily_INPEFA_3  .                                       : 
TLFamily_INPEFA_4  .                                       : 
TLFamily_LITO      .                                       : 
TLFamily_LLD       .         Deep Resistivity              : 
TLFamily_NPHI      .         Neutron Porosity              : 
TLFamily_OG        .                                       : 
TLFamily_RHOB      .         Bulk Density                  : 
~Curve Information
#_______________________________________________________________________________
#
#LOGNAME           .UNIT     LOG_ID                        : DESCRIPTION
#_______________________________________________________________________________
DEPT               .m                                      :  
CALI               .in                                     : CALIPER 
DT                 .us/ft                                  : DELTA-T (ALSO CALLED SLOWNESS OR INTERVAL TRANSIT TIME) 
GR                 .gAPI                                   : GAMMA RAY 
INPEFA_1           .                                       :  
INPEFA_2           .                                       :  
INPEFA_3           .                                       :  
INPEFA_4           .                                       :  
LITO               .                                       :  
LLD                .ohm.m                                  : LATEROLOG DEEP RESISTIVITY 
NPHI               .%                                      : THERMAL NEUTRON POROSITY (ORIGINAL RATIO METHOD) IN SELECTED LITHOLOGY 
OG                 .                                       :  
RHOB               .g/cm3                                  : BULK DENSITY 
~Ascii
# ...
3351.4     12.2574    108.0014   91.0352    0.1347064  -0.1289771 -0.4107392 -0.235594  57         1.7863     30.8003    91.0352    2.3933    
3351.6     12.24      109.3297   92.5075    0.175555   -0.006653573 -0.2979384 -0.2389541 57         1.7235     31.4555    92.5075    2.37      
3351.8     12.2331    110.6972   95.0366    0.1838543  0.03463637 -0.3030421 -0.4239781 57         1.4987     32.0765    95.0366    2.3418    
3352       12.263     112.2312   96.5664    0.2166763  0.142252   -0.2033337 -0.5234229 57         1.3065     33.1608    96.5664    2.3414    
3352.2     12.4218    112.5815   95.9396    0.2485824  0.2726224  -0.01088786 -0.4347092 57         1.1937     32.8337    95.9396    2.3656    
3352.4     12.2344    111.2267   94.6246    0.2404266  0.3131098  0.08495233 -0.3254713 57         1.2289     31.916     94.6246    2.3896    
3352.6     12.219     109.5435   96.7872    0.2356775  0.3516379  0.1721034  -0.2254081 57         1.279      32.5254    96.7872    2.3966    
3352.8     12.2112    108.8409   98.5775    0.2085319  0.3290083  0.1606104  -0.2569332 57         1.3132     33.0757    98.5775    2.3963    
3353       12.2037    109.4941   98.9153    0.2084657  0.3668934  0.2321699  -0.1851064 57         1.2981     33.7067    98.9153    2.3932    
3353.2     12.206     110.4911   98.2251    0.1853287  0.3519633  0.2363355  -0.1773381 57         1.2839     34.4487    98.2251    2.3843    
3353.4     12.2256    110.3634   95.3384    0.1833905  0.3769775  0.2766009  -0.1458635 57         1.26       34.5529    95.3384    2.375     
3353.6     12.2373    109.7408   95.3832    0.180592   0.4053388  0.3398182  -0.007321329 57         1.2416     34.0074    95.3832    2.367     
3353.8     12.2172    108.3344   96.3943    0.1476783  0.3362465  0.2250287  -0.1252165 57         1.2852     33.8986    96.3943    2.3626    
3354       12.2225    104.3529   92.8767    0.1530891  0.3535126  0.2253204  -0.1472664 57         1.3907     32.8289    92.8767    2.371     
3354.2     12.2474    98.6947    87.4867    0.1626273  0.3946951  0.2975418  0.01766834 57         1.6113     28.9807    87.4867    2.4088    
3354.4     12.2568    93.2667    79.659     0.1424279  0.3624331  0.2717381  0.1077347  57         1.9007     23.3916    79.659     2.449     
3354.6     12.2584    89.5551    69.7794    0.1193773  0.3061393  0.1804096  0.04386896 58         2.1193     20.8417    69.7794    2.4603    
3354.8     12.2627    88.2638    64.5977    0.128539   0.3340427  0.2208107  0.1253553  58         2.1746     21.016     64.5977    2.4517    
3355       12.2889    89.0402    63.0575    0.1286782  0.352376   0.2756216  0.3274295  58         2.1318     22.1094    63.0575    2.4409    
3355.2     12.2882    91.4314    61.86      0.09700015 0.2780114  0.1720207  0.3098597  58         1.9997     23.6288    61.86      2.4335    
3355.4     12.2786    95.1166    66.4243    0.09387501 0.2674262  0.1427895  0.3195954  58         1.8435     25.6148    66.4243    2.4245    
3355.6     12.2814    99.2756    74.7811    0.0894511  0.2606587  0.1285931  0.3657293  57         1.713      28.1239    74.7811    2.4171    
3355.8     12.2479    103.106    84.5438    0.08041617 0.2391427  0.08407081 0.3433567  57         1.6273     29.885     84.5438    2.4108    
3356       12.2253    105.7516   91.1718    0.07992485 0.2446599  0.08434494 0.3787668  57         1.5543     30.1888    91.1718    2.4005    
3356.2     12.1895    107.2605   95.2487    0.07542097 0.2383285  0.06563634 0.4071209  57         1.489      30.7273    95.2487    2.3904    
3356.4     12.2398    108.2619   96.7149    0.06561716 0.2175433  0.01875318 0.3791011  57         1.4417     32.5645    96.7149    2.3891    
3356.6     12.191     108.8733   96.515     0.06033891 0.2042712  -0.02873015 0.3060111  57         1.4093     33.1295    96.515     2.3946    
3356.8     12.2028    108.8669   99.4566    0.07066789 0.2396113  0.01186507 0.3658528  57         1.3938     33.3067    99.4566    2.3934    
3357       12.19      108.4718   100.9707   0.05568027 0.2119267  -0.0412178 0.3080498  57         1.4049     34.261     100.9707   2.3907    
3357.2     12.1838    108.1358   97.9163    0.05037973 0.1993368  -0.09324513 0.1761224  57         1.4184     33.9796    97.9163    2.3976    
3357.4     12.1972    108.1311   96.7956    0.04890355 0.2010677  -0.1201199 0.03768155 57         1.4579     33.4077    96.7956    2.4051    
3357.6     12.2185    108.3826   99.7476    0.04799885 0.2050006  -0.1453708 -0.1540431 57         1.4723     32.8469    99.7476    2.4014    
3357.8     12.2196    108.6303   100.2504   0.05762811 0.2344174  -0.136094  -0.3818547 57         1.4354     33.1085    100.2504   2.3882    
3358       12.2022    109.0092   98.0445    0.08943836 0.3427068  0.03862698 -0.335279  57         1.388      33.2765    98.0445    2.3782    
3358.2     12.2221    109.5334   99.856     0.09187318 0.3821158  0.133921   -0.3241457 57         1.3445     32.9532    99.856     2.37      
3358.4     12.1731    109.8985   101.8276   0.08031864 0.3967947  0.2250736  -0.1684598 57         1.3045     32.5524    101.8276   2.3709    
3358.6     12.1163    109.835    101.3686   0.04833466 0.3295994  0.1585452  -0.2288271 57         1.2995     32.3457    101.3686   2.4058    
3358.8     12.2423    109.6821   100.74     0.03230092 0.3001938  0.1400998  -0.2561077 57         1.3046     33.3587    100.74     2.4295    
3359       12.2577    109.7765   99.7615    0.03042593 0.2957839  0.1514953  -0.2647816 57         1.3282     34.382     99.7615    2.3966    
3359.2     12.2623    109.7632   98.6664    0.02993794 0.3080342  0.2171195  -0.1134085 57         1.3548     34.7599    98.6664    2.36      
3359.4     12.23      109.4005   98.5306    -0.000201464 0.2318673  0.1432116  -0.1062041 57         1.3586     34.4699    98.5306    2.3558    
3359.6     12.1591    108.7096   98.8744    -0.01175802 0.1899105  0.1009808  -0.1400185 57         1.378      33.633     98.8744    2.3719    
3359.8     12.0679    107.5811   97.4472    -0.01183137 0.1854473  0.1306723  -0.06994642 57         1.3854     32.6145    97.4472    2.3948    
3360       12.1565    106.2815   96.9487    -0.03225648 0.1256269  0.075629   -0.1450269 57         1.4539     31.8089    96.9487    2.4084    
3360.2     12.2003    105.1929   97.7084    -0.01861704 0.1592063  0.1754378  -0.01662932 57         1.5024     31.4679    97.7084    2.4042    
3360.4     12.2137    104.4869   97.6823    -0.03122873 0.1308128  0.2025038  0.09993438 57         1.5096     31.5976    97.6823    2.3878    
3360.6     12.16      103.9157   96.8096    -0.0523186 0.07503109 0.1819794  0.1584432  58         1.4788     32.4324    96.8096    2.3868    
3360.8     12.1921    103.128    93.8027    -0.06739476 0.02627622 0.1559968  0.1486318  58         1.5142     30.3682    93.8027    2.4139    
3361       12.2274    101.7802   87.4694    -0.07510351 0.000653482 0.1667085  0.1674602  58         1.6198     26.8881    87.4694    2.4451    
3361.2     12.2412    100.0674   83.1562    -0.07971274 -0.02014372 0.1856728  0.2039468  58         1.7734     26.9393    83.1562    2.4624    
3361.4     12.2106    98.8242    86.6185    -0.08957574 -0.04886835 0.2017953  0.2515036  58         1.8719     27.2493    86.6185    2.4591    
3361.6     12.2002    99.1019    95.4941    -0.1015549 -0.08474893 0.2062552  0.288521   57         1.836      28.0702    95.4941    2.4303    
3361.8     12.1997    100.807    103.3221   -0.1214806 -0.1510234 0.144665   0.1823769  57         1.7932     29.4678    103.3221   2.409     
3362       12.1889    103.3412   104.661    -0.1203737 -0.1597439 0.1738427  0.160679   57         1.7643     29.9044    104.661    2.4125    
3362.2     12.2245    105.5239   102.3438   -0.1211933 -0.1649869 0.2285978  0.220514   57         1.7521     30.9719    102.3438   2.4094    
3362.4     12.1969    106.8723   103.3369   -0.1444277 -0.2315488 0.18474    0.1497361  57         1.672      31.8103    103.3369   2.405     
