~Version
 VERS              .         2.0                           : CWLS LOG ASCII STANDARD - VERSION 2.0
 WRAP              .         NO                            : ONE LINE PER DEPTH STEP
 DLM               .         SPACE                         : DELIMITING CHARACTER(SPACE TAB OR COMMA)
~Well Information
#_______________________________________________________________________________
#
#PARAMETER_NAME    .UNIT     VALUE                         : DESCRIPTION
#_______________________________________________________________________________
STRT               .m        1542                          : First reference value
STOP               .m        5640.8                        : Last reference value
STEP               .m        0.2                           : Step increment
NULL               .         -9999                         : Missing value
COMP               .         PETROLEO BRASILEIRO S/A       : Company
WELL               .         4-ESS-174A_resample           : Well name
FLD                .         GOLFINHO                      : Field
LOC                .                                       : Location
CNTY               .                                       : County
STAT               .         ESPIRITO SANTO                : State
CTRY               .                                       : Country
SRVC               .                                       : Service Company
DATE               .                                       : Date
API                .         342710322400                  : API number
EDF                .M        19.00                         : Elevation Derrick Floor
GDAT               .         SIRGAS2000                    : Geodetic Datum
HZCS               .         UTM                           : Horizontal Coordinate System
LMF                .         MR                            : Log Measure From
LATI               .         -19_56_54.869                 : Latitude
LONG               .         -39_29_58.132                 : Longitude
MC                 .         39 W                          : Meridiano Central
ORIG               .         SIGEO EXPORTACAO PERFIL       : Origem dos dados
ORIGINALWELLNAME   .         4ESS 0174A ES                 : 
WDMS               .M        1199.00                       : Water Depth to Mean Sea Level
X                  .         447729.60                     : Surface X
Y                  .         7794048.90                    : Surface Y
~Parameter Information Block
#_______________________________________________________________________________
#
#PARAMETER_NAME    .UNIT     VALUE                         : DESCRIPTION
#_______________________________________________________________________________
SET                .         ESS174A_resample              : 
TLFamily_CALI      .         Caliper                       : 
TLFamily_DEPT      .         Measured Depth                : 
TLFamily_DT        .         Compressional Slowness        : 
TLFamily_GR        .         Gamma Ray                     : 
TLFamily_INPEFA_1  .                                       : 
TLFamily_INPEFA_2  .                                       : 
TLFamily_INPEFA_3  .                                       : 
TLFamily_INPEFA_4  .                                       : 
TLFamily_LITO      .                                       : 
TLFamily_LLD       .         Deep Resistivity              : 
TLFamily_NPHI      .         Neutron Porosity              : 
TLFamily_OG        .                                       : 
TLFamily_RHOB      .         Bulk Density                  : 
~Curve Information
#_______________________________________________________________________________
#
#LOGNAME           .UNIT     LOG_ID                        : DESCRIPTION
#_______________________________________________________________________________
DEPT               .m                                      :  
CALI               .in                                     : CALIPER 
DT                 .us/ft                                  : DELTA-T (ALSO CALLED SLOWNESS OR INTERVAL TRANSIT TIME) 
GR                 .gAPI                                   : GAMMA RAY 
INPEFA_1           .                                       :  
INPEFA_2           .                                       :  
INPEFA_3           .                                       :  
INPEFA_4           .                                       :  
LITO               .                                       :  
LLD                .ohm.m                                  : LATEROLOG DEEP RESISTIVITY 
NPHI               .%                                      : THERMAL NEUTRON POROSITY (ORIGINAL RATIO METHOD) IN SELECTED LITHOLOGY 
OG                 .                                       :  
RHOB               .g/cm3                                  : BULK DENSITY 
~Ascii
# ...
2989       12.4716    107.0782   52.1814    0.1744956  0.1777729  0.03419022 -0.4791205 49         1.026600003242493 28.8396    52.1814    2.1432    
2989.2     12.4618    102.3595   48.7563    0.1873414  0.2060484  0.08193005 -0.4809536 49         1.056599974632263 27.7102    48.7563    2.1481    
2989.4     12.4621    96.6391    44.6143    0.2061607  0.2470417  0.155129   -0.4409471 49         1.32260000705719 26.0004    44.6143    2.1499    
2989.6     12.4621    92.8292    38.6855    0.2190641  0.2785415  0.217398   -0.4062716 49         1.531900048256137 24.214     38.6855    2.1738    
2989.8     12.4608    92.869     33.0025    0.2376626  0.3237764  0.3103629  -0.3093923 49         1.520900011062622 21.8428    33.0025    2.2358    
2990       12.4635    96.8166    30.8219    0.2545769  0.3682348  0.4094842  -0.1807251 49         1.295600056648254 20.1631    30.8219    2.2494    
2990.2     12.4701    105.1988   32.9945    0.2495326  0.373211   0.4491798  -0.1007209 49         1.016299962997437 21.3703    32.9945    2.1845    
2990.4     12.4845    114.2321   38.8517    0.2457626  0.3668342  0.4446209  -0.1567327 49         0.9528999924659729 25.22      38.8517    2.1682    
2990.6     12.4778    117.5625   49.5395    0.2811328  0.4567503  0.643917   0.1829355  49         0.9958999752998489 29.2525    49.5395    2.1873    
2990.8     12.4801    117.8732   56.4888    0.276655   0.468516   0.7165953  0.4095943  49         1.071200013160706 29.8456    56.4888    2.1533    
2991       12.4719    116.9077   55.9481    0.2513717  0.4287044  0.6796592  0.4404496  49         1.11710000038147 30.166     55.9481    2.1205    
2991.2     12.4653    115.7518   56.34      0.2335206  0.3992222  0.651564   0.4641626  49         1.228399991989136 29.1161    56.34      2.1299    
2991.4     12.4527    114.8168   57.3021    0.2057706  0.345897   0.5715088  0.3890385  49         1.252699971199036 28.5334    57.3021    2.1398    
2991.6     12.4694    114.1816   58.7212    0.1900821  0.3131426  0.5192305  0.3315213  49         1.142199993133552 28.4836    58.7212    2.1282    
2991.8     12.4671    113.4812   60.6898    0.1826292  0.289442   0.4666876  0.2159893  49         1.058899998664856 27.4757    60.6898    2.114     
2992       12.4728    112.001    57.1676    0.1830254  0.2925017  0.4784596  0.2350919  49         0.9781000018119812 26.7991    57.1676    2.1056    
2992.2     12.4712    109.1304   49.3108    0.1844206  0.2936401  0.4833738  0.2478045  49         0.9451000094413757 27.3925    49.3108    2.097     
2992.4     12.4715    104.8399   41.7309    0.1890013  0.305329   0.5134529  0.3175101  49         0.9545999765396118 29.3916    41.7309    2.0877    
2992.6     12.4728    99.6959    36.8364    0.183678   0.2951168  0.5026982  0.3310735  49         1.080999970436466 28.2169    36.8364    2.0967    
2992.8     12.4783    95.516     33.6777    0.1840509  0.2981741  0.5184247  0.3987125  49         1.161900043487549 25.0252    33.6777    2.1508    
2993       12.4817    93.8434    31.2656    0.1767004  0.2827562  0.4963722  0.4045931  49         1.133299946784973 23.0045    31.2656    2.2229    
2993.2     12.479     93.9748    34.9982    0.1642135  0.2536153  0.4412339  0.3336187  49         1.049200057983398 22.0999    34.9982    2.2378    
2993.4     12.4808    95.2021    42.5807    0.1655049  0.2538117  0.4397456  0.343835   49         1.078999996185303 24.2572    42.5807    2.2102    
2993.6     12.4795    97.3233    42.8227    0.1499642  0.2162854  0.3618552  0.2128888  49         1.228099942207892 25.2933    42.8227    2.2373    
2993.8     12.4853    100.6546   41.9127    0.1552557  0.2186041  0.3487209  0.1516655  49         1.398300051689148 24.0075    41.9127    2.3051    
2994       12.4856    105.7521   51.553     0.1717392  0.2535653  0.4127151  0.2660077  49         1.410599946975708 23.7894    51.553     2.3088    
2994.2     12.4939    116.7612   66.4691    0.1649927  0.2363287  0.376032   0.2262812  49         1.165500044822693 25.1418    66.4691    2.2882    
2994.4     12.4856    129.3031   79.7228    0.159434   0.2212741  0.3416406  0.186528   49         0.9638000130653381 28.1569    79.7228    2.2945    
2994.6     12.5364    132.747    88.3402    0.1624085  0.2213837  0.3319585  0.1801122  49         0.7577000260349451 32.8562    88.3402    2.2576    
2994.8     12.9584    132.7186   89.0478    0.1610959  0.2159787  0.3170539  0.1791947  49         0.6654999852180481 36.6515    89.0478    2.1812    
2995       13.4359    131.542    84.724     0.1689062  0.2299642  0.3410453  0.2624878  57         0.6722999811172485 38.8531    84.724     2.13      
2995.2     13.4137    128.1122   79.1317    0.1629223  0.2158805  0.3149503  0.2763278  57         0.8321999907493591 39.785     79.1317    2.1312    
2995.4     12.6272    118.9648   74.0107    0.1608371  0.2083766  0.2984234  0.3074594  57         1.017099976539612 36.9329    74.0107    2.1718    
2995.6     12.5477    112.0375   71.809     0.1570191  0.1976223  0.2773601  0.3416082  57         1.030500054359732 34.1267    71.809     2.2033    
2995.8     12.4937    110.8295   72.2963    0.1494206  0.1781182  0.2383307  0.346572   57         1.072199940681458 35.0577    72.2963    2.2219    
2996       12.516     112.1268   74.0891    0.1287044  0.1265349  0.12919    0.2038376  57         1.071699976921082 34.076     74.0891    2.2502    
2996.2     12.5653    114.441    77.2518    0.1270929  0.1141291  0.08823016 0.1485223  57         0.9886999726295471 34.0888    77.2518    2.266     
2996.4     12.5606    115.9019   78.8208    0.1232592  0.0943473  0.02706397 0.03608876 57         0.9785000085830689 36.1646    78.8208    2.2449    
2996.6     12.6165    115.4169   80.4525    0.130461   0.09986507 0.01461862 -0.003011179 57         0.9577999711035595 36.3734    80.4525    2.2151    
2996.8     12.5327    112.5983   79.9167    0.1325451  0.09668174 -0.01038969 -0.0511848 57         0.9380999803543091 34.0127    79.9167    2.2047    
2997       12.4928    107.8711   74.1139    0.1348626  0.09034429 -0.04823626 -0.139477  57         1.008599996566773 32.9242    74.1139    2.1971    
2997.2     12.5636    104.9957   69.5474    0.1350359  0.08369049 -0.07946962 -0.2016343 57         1.149600028991699 31.1418    69.5474    2.1944    
2997.4     12.4905    104.8663   71.0389    0.1307027  0.06185543 -0.149049  -0.3582733 57         1.164499998092651 28.967     71.0389    2.2081    
2997.6     12.4749    107.1644   72.9564    0.1295605  0.04705032 -0.2085234 -0.5241593 57         1.162600040435632 29.3288    72.9564    2.2308    
2997.8     12.4627    110.9257   72.8847    0.1459242  0.06726638 -0.2056062 -0.6063852 57         1.08299994468689 29.8409    72.8847    2.2537    
2998       12.4695    114.6391   70.9698    0.1560156  0.07718866 -0.2166956 -0.7101687 57         0.9319999814033508 30.3872    70.9698    2.2413    
2998.2     12.4725    117.1012   70.499     0.1808541  0.1215884  -0.1553674 -0.6822796 57         0.9193000197410584 32.8977    70.499     2.1897    
2998.4     12.6064    118.8291   72.3112    0.2092618  0.1793744  -0.05387416 -0.5455967 57         0.9089000225067139 35.2798    72.3112    2.1637    
2998.6     12.4906    120.3361   74.6877    0.2285911  0.2205266  0.02490833 -0.4207716 57         0.9067999720576614 34.4941    74.6877    2.2023    
2998.8     12.6495    122.2208   77.4487    0.2368155  0.2476812  0.09810065 -0.2382949 57         1.042899966239929 32.1005    77.4487    2.266     
2999       13.1266    112.1734   82.8116    0.2331374  0.2476635  0.122595   -0.1072953 58         1.268499970436096 31.5451    82.8116    2.3179    
2999.2     13.1834    91.7788    86.9323    0.2258011  0.2335457  0.1097133  -0.06301533 58         1.731500029563904 29.7913    86.9323    2.369     
2999.4     12.4388    86.0791    86.4017    0.2180435  0.2226002  0.1098918  0.02567041 58         2.097899913787842 24.2464    86.4017    2.4037    
2999.6     12.4513    86.3179    81.6608    0.2052017  0.1948802  0.06949911 0.03236458 58         2.25480008125331 21.6788    81.6608    2.4092    
