~Version
 VERS              .         2.0                           : CWLS LOG ASCII STANDARD - VERSION 2.0
 WRAP              .         NO                            : ONE LINE PER DEPTH STEP
 DLM               .         SPACE                         : DELIMITING CHARACTER(SPACE TAB OR COMMA)
~Well Information
#_______________________________________________________________________________
#
#PARAMETER_NAME    .UNIT     VALUE                         : DESCRIPTION
#_______________________________________________________________________________
STRT               .m        2424.989                      : First reference value
STOP               .m        5587.189                      : Last reference value
STEP               .m        0.2                           : Step increment
NULL               .         -9999                         : Missing value
COMP               .         PETROLEO BRASILEIRO S/A       : Company
WELL               .         4ESS 0138  ES                 : Well name
FLD                .         CANAPU                        : Field
LOC                .                                       : Location
CNTY               .                                       : County
STAT               .         ESPIRITO SANTO                : State
CTRY               .                                       : Country
SRVC               .                                       : Service Company
DATE               .                                       : Date
API                .         342710293200                  : API number
EDF                .M        18.00                         : Elevation Derrick Floor
GDAT               .         SIRGAS2000                    : Geodetic Datum
HZCS               .         UTM                           : Horizontal Coordinate System
LAT                .         -20.018293                    : Latitude
LONG               .         -39.316753                    : Longitude
MC                 .         39 W                          : Meridiano Central
ORIG               .         SIGEO EXPORTACAO PERFIL       : Origem dos dados
WDMS               .M        1614.00                       : Water Depth to Mean Sea Level
XCOORD             .         466869.60                     : Surface X
YCOORD             .         7786462.90                    : Surface Y
~Parameter Information Block
#_______________________________________________________________________________
#
#PARAMETER_NAME    .UNIT     VALUE                         : DESCRIPTION
#_______________________________________________________________________________
SET                .         ESS138_resample               : 
TLFamily_CALI      .         Caliper                       : 
TLFamily_DEPT      .         Measured Depth                : 
TLFamily_DT        .         Compressional Slowness        : 
TLFamily_DTS       .         Compressional Slowness        : 
TLFamily_GR        .         Gamma Ray                     : 
TLFamily_INPEFA_1  .                                       : 
TLFamily_INPEFA_2  .                                       : 
TLFamily_INPEFA_3  .                                       : 
TLFamily_INPEFA_4  .                                       : 
TLFamily_LITO      .                                       : 
TLFamily_NPHI      .         Neutron Porosity              : 
TLFamily_OG        .                                       : 
TLFamily_RESD      .         Deep Resistivity              : 
TLFamily_RESM      .         Medium Resistivity            : 
TLFamily_RESS      .         Shallow Resistivity           : 
TLFamily_RHOB      .         Bulk Density                  : 
TLFamily_TVD       .         True Vertical Depth           : 
~Curve Information
#_______________________________________________________________________________
#
#LOGNAME           .UNIT     LOG_ID                        : DESCRIPTION
#_______________________________________________________________________________
DEPT               .m                                      :  
CALI               .in                                     :  
DT                 .us/ft                                  :  
DTS                .us/ft                                  :  
GR                 .gAPI                                   : GAMMA RAY 
INPEFA_1           .                                       :  
INPEFA_2           .                                       :  
INPEFA_3           .                                       :  
INPEFA_4           .                                       :  
LITO               .Sem                                    : Não definido 
NPHI               .%                                      : THERMAL NEUTRON POROSITY (ORIGINAL RATIO METHOD) IN SELECTED LITHOLOGY 
OG                 .                                       :  
RESD               .ohm.m                                  :  
RESM               .ohm.m                                  :  
RESS               .ohm.m                                  :  
RHOB               .g/cm3                                  :  
TVD                .                                       : Vertical Depth 
~Ascii
# ...
3304.989   12.68777   103.4454426402488 255.3492   103.6814   -0.003345961 -0.180679  -0.007109453 0.1271683  57         30.48752   103.6814   0.3808720981357965 0.3507286161073914 0.3719260317883173 2.129474   3304.5892 
3305.189   12.68889   99.43748978741949 232.1418   95.64709   0.002058632 -0.1921345 -0.04842778 0.0439675  57         28.66293   95.64709   0.7168810108199253 0.6076207693340089 0.6383277100308872 2.171296   3304.7891 
3305.389   12.7688    97.22544504400825 217.3727   86.2896    0.008886028 -0.2146184 -0.1307338 -0.2072738 57         25.21161   86.2896    1.037449136707063 0.9688577671961053 1.055077783469052 2.384749   3304.989  
3305.589   12.88305   98.70151059208001 215.2162   89.34596   0.07482316 -0.06841671 0.04297729 -0.09617939 57         25.87673   89.34596   1.085796002255767 1.153591942928349 1.262955696965575 2.324312   3305.188813910761
3305.789   12.94805   99.97026560625655 215.8157   103.0388   0.1037578  0.01487343 0.1822097  0.1156289  57         24.3555    103.0388   1.023514152776858 1.118292596976767 1.191380683776109 2.325314   3305.3887 
3305.989   12.92588   97.1126199557074 212.311    110.1892   0.07956313 -0.03318118 0.1408312  0.1051136  57         34.62304   110.1892   0.9889282879655286 1.04002718765951 1.050103404224729 2.242419   3305.5886 
3306.189   12.95107   90.45475304470126 205.785    104.7979   0.06595758 -0.07321439 0.08424933 0.01641108 57         40.0935    104.7979   0.9803979413289012 0.9761633928440839 1.012435556255835 2.180269   3305.7885 
3306.389   12.94003   84.79272226648966 199.8777   96.10992   0.06901117 -0.07441897 0.07303389 -0.04223299 57         38.42476   96.10992   0.9418844216683724 0.928183215388953 1.092243678998905 2.278989   3305.988314173228
3306.589   12.94079   83.18627204794892 195.3884   92.62246   0.08697936 -0.03435086 0.1241118  -0.000387549 57         46.539     92.62246   0.9337974374715398 0.9253537974169216 1.169542832595095 2.244441   3306.1882 
3306.789   12.94646   85.40362618914698 194.2696   93.63885   0.08439398 -0.03346967 0.1395342  0.05650634 57         41.81217   93.63885   0.9171448385728538 0.9192516657421053 1.160279368691416 2.296598   3306.3881 
3306.989   13.02408   88.9591469952446 199.1227   98.62249   0.08175749 -0.04495928 0.1236935  0.05712834 57         34.88933   98.62249   0.8282158139785965 0.8638253278100474 1.076477923384866 2.306466   3306.587939370079
3307.189   13.27142   91.93363387941744 207.7963   108.9468   0.06403357 -0.09277873 0.05094006 -0.05023495 57         35.77446   108.9468   0.7920028103666067 0.8231133490555394 1.001580570315495 2.314895   3306.7878 
3307.389   12.85919   94.61901709288635 218.0122   120.9474   0.07396554 -0.08282497 0.04378105 -0.10608   57         35.99564   120.9474   0.7889190090140468 0.8053782946000649 0.9618999599007138 2.348259   3306.9877 
3307.589   12.62606   98.04378173107136 228.2941   129.0158   0.09146342 -0.04138797 0.09663591 -0.04143272 57         32.80738   129.0158   0.8051062900991011 0.8124354209482477 0.9310628406962284 2.326001   3307.187564566929
3307.789   12.57072   101.3784901576447 235.8413   130.9823   0.09295742 -0.03201217 0.1222702  0.05472304 57         39.68026   130.9823   0.732931102405761 0.7753751702589208 0.8990337036759735 2.225216   3307.387400000001
3307.989   12.54093   102.8321948714773 238.719    128.7519   0.08687582 -0.049241  0.1024284  0.08342411 57         42.33108   128.7519   0.6145851931228537 0.6948856178417968 0.8634399170032348 2.300562   3307.5873 
3308.189   12.48899   101.7219721275975 240.2647   124.3803   0.09145644 -0.03478672 0.132595   0.2144612  57         43.32965   124.3803   0.5177351579946533 0.5721964405424652 0.7681892530749761 2.332932   3307.7872 
3308.389   12.45543   100.5632697478361 246.0547   117.1807   0.08421979 -0.05202356 0.1198708  0.3200792  57         41.38695   117.1807   0.3402220462632641 0.3800308966624815 0.5793656981566893 2.315188   3307.987064829396
3308.589   12.46148   101.1800951019036 255.534    103.9762   0.06238484 -0.1122416 0.03363027 0.2959602  57         32.25917   103.9762   0.2280734300917333 0.2548919452834553 0.3787703130986544 2.268788   3308.1869 
3308.789   12.44944   103.2686556117768 263.552    89.3476    0.05996125 -0.1294785 -0.004703982 0.305654   57         27.52494   89.3476    0.1919939293580671 0.206281725016001 0.2817336615281582 2.223257   3308.3868 
3308.989   12.45127   105.0321375328723 266.7752   85.29732   0.06510204 -0.1205754 0.003077083 0.4121686  49         27.07609   85.29732   0.1914787764719975 0.192739857076728 0.2626398730327602 2.197469   3308.586690026247
3309.189   12.44805   105.9797717517459 267.561    92.14386   0.03953623 -0.1915233 -0.1116442 0.3214191  49         26.13089   92.14386   0.2045076813653561 0.2020691959795568 0.2769243553988386 2.213796   3308.786500000001
3309.389   12.45806   106.537646316168 270.2874   98.96262   0.04860341 -0.1940173 -0.1574714 0.263306   49         25.94213   98.96262   0.2199753891737635 0.212613792561622 0.2989742474418885 2.24463    3308.9864 
3309.589   12.45437   107.0155235751096 275.1767   99.31422   0.05500406 -0.1965706 -0.2004852 0.1860223  49         25.48208   99.31422   0.2356009099658466 0.229316230759823 0.306345663105761 2.234079   3309.1863 
3309.789   12.44944   107.3286119195735 278.1257   97.59451   0.08201525 -0.1391876 -0.1442848 0.2833557  49         24.17061   97.59451   0.2287302148398193 0.2259491322414826 0.2997051819824118 2.192766   3309.3861 
3309.989   12.45051   107.3953832791546 277.5406   97.74609   0.1000086  -0.09125277 -0.07767949 0.4659206  49         27.52843   97.74609   0.2126256674608607 0.2145659488537957 0.2910385147885616 2.188632   3309.586  
3310.189   12.44466   107.2454455318097 277.1225   100.8591   0.08021293 -0.1309716 -0.1230255 0.5405399  49         27.8259    100.8591   0.2363547623400388 0.2298011818348775 0.2961275798533969 2.195738   3309.7859 
3310.389   12.43645   106.9058701122207 278.9923   102.9808   0.03951862 -0.2520458 -0.3272215 0.2620593  49         31.50159   102.9808   0.2396690218796415 0.2399759372388387 0.3091115420431596 2.196943   3309.9858 
3310.589   12.43342   106.1351535226417 280.9045   101.2099   0.06142915 -0.2256514 -0.3513443 0.1121186  49         33.04566   101.2099   0.261924599856774 0.2487863630915398 0.3138864260711399 2.213068   3310.1856 
3310.789   12.4579    104.4936804783918 279.8763   98.90979   0.084662   -0.1937053 -0.3673216 -0.1001683 49         29.35499   98.90979   0.243534352314767 0.2395560808257962 0.3082935676658782 2.188312   3310.3855 
3310.989   12.46457   102.4142889989005 276.62     99.32693   0.1265944  -0.1035871 -0.2894397 -0.2216629 49         32.00135   99.32693   0.2316557203379469 0.2263685061358761 0.3098112463621182 2.191417   3310.5854 
3311.189   12.4642    100.7696021973604 272.3637   101.3588   0.1593087  -0.02293956 -0.1968024 -0.3152705 49         30.42188   101.3588   0.2609205502288894 0.2518684325132927 0.3233257035416742 2.203495   3310.785215748032
3311.389   12.46146   100.3607757247967 268.2034   103.415    0.2366201  0.176082   0.08440837 -0.1312331 49         30.44202   103.415    0.2902271160833084 0.2880063054564018 0.3562084316064732 2.205673   3310.9851 
3311.589   12.48548   100.4921821534164 263.5737   106.629    0.2323304  0.2018688  0.172331   -0.1581159 49         28.59426   106.629    0.3305429077563534 0.3312064479796779 0.4107222543077208 2.229032   3311.185  
3311.789   12.48881   100.1595783383823 256.8874   109.5607   0.2456393  0.3070132  0.4401826  0.3122031  49         29.96285   109.5607   0.359156806256699 0.3811073067174648 0.4929428364559628 2.25754    3311.384840944882
3311.989   12.51543   99.49186292032557 248.1765   109.5069   0.1651055  0.133935   0.2820977  0.1661207  57         32.26915   109.5069   0.4239308679821688 0.4401150678225708 0.6026664833642332 2.258848   3311.584716010499
3312.189   12.54211   100.1455723719999 240.6719   109.883    0.1407138  0.08324083 0.2469069  0.04148443 57         34.95646   109.883    0.4810314530251854 0.5123283454759485 0.6777747768122472 2.294511   3311.7846 
