~Version
 VERS              .         2.0                           : CWLS LOG ASCII STANDARD - VERSION 2.0
 WRAP              .         NO                            : ONE LINE PER DEPTH STEP
 DLM               .         SPACE                         : DELIMITING CHARACTER(SPACE TAB OR COMMA)
~Well Information
#_______________________________________________________________________________
#
#PARAMETER_NAME    .UNIT     VALUE                         : DESCRIPTION
#_______________________________________________________________________________
STRT               .m        1542                          : First reference value
STOP               .m        5640.8                        : Last reference value
STEP               .m        0.2                           : Step increment
NULL               .         -9999                         : Missing value
COMP               .         PETROLEO BRASILEIRO S/A       : Company
WELL               .         4-ESS-174A_resample           : Well name
FLD                .         GOLFINHO                      : Field
LOC                .                                       : Location
CNTY               .                                       : County
STAT               .         ESPIRITO SANTO                : State
CTRY               .                                       : Country
SRVC               .                                       : Service Company
DATE               .                                       : Date
API                .         342710322400                  : API number
EDF                .M        19.00                         : Elevation Derrick Floor
GDAT               .         SIRGAS2000                    : Geodetic Datum
HZCS               .         UTM                           : Horizontal Coordinate System
LMF                .         MR                            : Log Measure From
LATI               .         -19_56_54.869                 : Latitude
LONG               .         -39_29_58.132                 : Longitude
MC                 .         39 W                          : Meridiano Central
ORIG               .         SIGEO EXPORTACAO PERFIL       : Origem dos dados
ORIGINALWELLNAME   .         4ESS 0174A ES                 : 
WDMS               .M        1199.00                       : Water Depth to Mean Sea Level
X                  .         447729.60                     : Surface X
Y                  .         7794048.90                    : Surface Y
~Parameter Information Block
#_______________________________________________________________________________
#
#PARAMETER_NAME    .UNIT     VALUE                         : DESCRIPTION
#_______________________________________________________________________________
SET                .         ESS174A_resample              : 
TLFamily_CALI      .         Caliper                       : 
TLFamily_DEPT      .         Measured Depth                : 
TLFamily_DT        .         Compressional Slowness        : 
TLFamily_GR        .         Gamma Ray                     : 
TLFamily_INPEFA_1  .                                       : 
TLFamily_INPEFA_2  .                                       : 
TLFamily_INPEFA_3  .                                       : 
TLFamily_INPEFA_4  .                                       : 
TLFamily_LITO      .                                       : 
TLFamily_LLD       .         Deep Resistivity              : 
TLFamily_NPHI      .         Neutron Porosity              : 
TLFamily_OG        .                                       : 
TLFamily_RHOB      .         Bulk Density                  : 
~Curve Information
#_______________________________________________________________________________
#
#LOGNAME           .UNIT     LOG_ID                        : DESCRIPTION
#_______________________________________________________________________________
DEPT               .m                                      :  
CALI               .in                                     : CALIPER 
DT                 .us/ft                                  : DELTA-T (ALSO CALLED SLOWNESS OR INTERVAL TRANSIT TIME) 
GR                 .gAPI                                   : GAMMA RAY 
INPEFA_1           .                                       :  
INPEFA_2           .                                       :  
INPEFA_3           .                                       :  
INPEFA_4           .                                       :  
LITO               .                                       :  
LLD                .ohm.m                                  : LATEROLOG DEEP RESISTIVITY 
NPHI               .%                                      : THERMAL NEUTRON POROSITY (ORIGINAL RATIO METHOD) IN SELECTED LITHOLOGY 
OG                 .                                       :  
RHOB               .g/cm3                                  : BULK DENSITY 
~Ascii
# ...
5618       8.369304   52.82634   92.94175   0.009032341 0.1627144  0.2083052  0.4642072  49         490.3100537145819 1.297589   92.94175   2.665507  
5618.200000000001 8.359012   52.55045   95.03074   0.0000132  0.141594   0.1673875  0.4374506  49         344.4058746163111 1.045454   95.03074   2.652406  
5618.4     8.3637     52.44333   98.48238   -0.02963363 0.06672394 0.005934176 0.1485323  49         340.8138556781954 0.7142701  98.48238   2.659193  
5618.6     8.356299   52.55184   100.3524   -0.01679387 0.08365122 0.01492428 0.1142909  49         437.797186474176 0.4273253  100.3524   2.666797  
5618.8     8.364899   52.69173   97.81742   -0.00578964 0.09971305 0.03145767 0.1200702  49         861.7708058142983 0.3665038  97.81742   2.660508  
5619       8.374099   52.79066   96.99961   -0.01873775 0.06839302 -0.03679619 -0.006237545 49         1828.570867402875 0.4065872  96.99961   2.651405  
5619.200000000001 8.374099   52.81069   98.35023   -0.006757099 0.08301251 -0.02966902 -0.03984805 49         3744.37887508737 0.3734285  98.35023   2.650696  
5619.4     8.3741     52.79541   104.2394   0.000696605 0.09925855 0.001660444 0.02625076 49         4002.605261297907 0.3322147  104.2394   2.647403  
5619.6     8.370001   52.62671   105.6864   -0.01638877 0.05655208 -0.08806065 -0.1287918 49         4557.338468514347 0.4242279  105.6864   2.644404  
5619.8     8.3713     52.31796   99.92944   -0.005524851 0.07148099 -0.07452828 -0.1389638 49         4987.44114857115 0.6905522  99.92944   2.657092  
5620       8.3672     52.01164   99.2571    -0.0076249 0.06538076 -0.08711604 -0.1530062 49         4035.343135059303 0.9278968  99.2571    2.661998  
5620.200000000001 8.379493   51.84756   100.2495   -0.01732912 0.03529636 -0.1590121 -0.3071043 49         2614.47551441767 0.9865967  100.2495   2.649407  
5620.4     8.387897   51.81341   103.0186   0.002248896 0.07295188 -0.09450894 -0.2196376 49         1949.697588042236 0.9355265  103.0186   2.639501  
5620.6     8.390697   51.85277   103.1987   0.000482579 0.0685636  -0.09888297 -0.2025174 49         1704.796066182203 0.8853327  103.1987   2.655589  
5620.8     8.3935     51.89738   97.42078   -0.00402974 0.05397398 -0.130705  -0.2538837 49         1709.696732723169 0.8201372  97.42078   2.676295  
5621       8.393497   51.87753   94.44215   -0.005125724 0.04686818 -0.1485659 -0.2834545 49         1786.422033337798 0.6816911  94.44215   2.667206  
5621.200000000001 8.3949     51.71541   98.53339   -0.001955246 0.04950918 -0.1449282 -0.2640344 49         1903.140344340446 0.5543499  98.53339   2.654805  
5621.4     8.3949     51.44685   107.2002   -0.02249369 -0.001565067 -0.24936   -0.4504586 49         2093.595998384845 0.5580966  107.2002   2.656499  
5621.6     8.383805   51.44103   110.7284   -0.004820662 0.02879186 -0.2006549 -0.3928118 49         2425.55176911153 0.5545051  110.7284   2.650903  
5621.8     8.374698   51.99116   104.7848   -0.01617085 -0.000867031 -0.260438  -0.5059565 49         2949.131953904 0.5469079  104.7848   2.635108  
5622       8.36691    52.58001   100.9855   0.000738836 0.0298968  -0.2065611 -0.4361397 49         3582.010296640142 -9999      100.9855   2.628503  
5622.200000000001 8.367293   52.93882   99.33383   0.001696649 0.03115161 -0.1958227 -0.3965701 49         4122.651690037484 -9999      99.33383   2.630999  
5622.4     8.365903   53.24146   96.28027   -0.008482638 0.005783279 -0.2409885 -0.468801  49         4539.528877662298 -9999      96.28027   2.627103  
5622.6     8.345902   53.36147   97.74059   0.003263245 0.02610415 -0.2005419 -0.4067761 49         5011.28236389077 -9999      97.74059   2.618104  
5622.8     8.33781    53.39159   99.83565   0.003020009 0.02661419 -0.1861673 -0.3566525 49         5656.679608237117 -9999      99.83565   2.624095  
5623       8.3351     53.35583   99.67475   -0.00432432 0.005373024 -0.2241278 -0.4246702 49         6236.417900583919 -9999      99.67475   2.629498  
5623.200000000001 8.329606   53.28064   100.6206   0.0037802  0.02079665 -0.1858241 -0.35688   49         6519.336395636386 -9999      100.6206   2.621605  
5623.4     8.327697   53.23722   99.0015    0.01567737 0.04795822 -0.1154267 -0.2015602 49         6625.717214050673 -9999      99.0015    2.620799  
5623.6     8.328703   53.18633   96.23871   0.003420204 0.02307265 -0.1429577 -0.2043033 49         6631.886761075558 -9999      96.23871   2.626398  
5623.8     8.319803   53.14532   96.86829   -0.01664063 -0.02543156 -0.2297334 -0.3627633 49         6519.531633823245 -9999      96.86829   2.6296    
5624       8.313405   53.11892   99.40237   0.00568839 0.01715248 -0.1447264 -0.2507695 49         6440.207075633779 -9999      99.40237   2.6285    
5624.200000000001 8.312199   53.02346   100.1706   0.01626953 0.04486684 -0.06525076 -0.07755013 49         6356.114896520914 -9999      100.1706   2.636093  
5624.4     8.317699   52.94593   103.4466   -0.004887132 0.000545676 -0.1281949 -0.1562906 49         5658.866451674096 -9999      103.4466   2.647294  
5624.6     8.318501   52.94719   104.1605   -0.01102328 -0.01768788 -0.1549984 -0.2300266 49         5700.784177033736 -9999      104.1605   2.646904  
5624.8     8.33319    53.0829    102.6853   0.008103912 0.02360667 -0.05894963 -0.07759559 49         6495.961635999139 -9999      102.6853   2.645202  
5625       8.339705   53.45179   99.56561   -0.005342645 -0.008222931 -0.142569  -0.1576719 49         6343.661144927215 -9999      99.56561   2.647298  
5625.200000000001 8.335103   53.79395   96.37217   0.001167238 0.006321417 -0.07380561 -0.09974566 49         6336.735161686436 -9999      96.37217   2.648399  
5625.4     8.334496   54.03956   97.85686   -0.000944434 -0.0000159 -0.1016352 -0.08943946 49         6480.169204609967 -9999      97.85686   2.642903  
5625.6     8.341394   54.46307   99.14167   -0.001097885 0.000104048 -0.07765909 -0.07425911 49         7116.072250796724 -9999      99.14167   2.642     
5625.8     8.347992   54.82646   98.30363   0.000367421 0.002279486 -0.0716058 -0.04932445 49         4084.629640562803 -9999      98.30363   2.65659   
5626       8.354602   54.9806    99.21281   -0.001111072 -0.000339367 -0.06528973 -0.03863042 49         620.1533188600758 -9999      99.21281   2.675791  
5626.200000000001 8.394559   55.98737   99.95168   0.000314667 0.002101307 -0.05250297 -0.02327965 49         262.6653795128906 -9999      99.95168   2.700888  
5626.4     8.357232   57.13556   97.44022   -0.000351465 0.00071029 -0.04811966 -0.01515921 49         149.2208290736169 -9999      97.44022   2.709499  
5626.6     8.318714   57.5927    97.35728   -0.000903715 -0.000874367 -0.04276   -0.01435746 49         133.9540955353844 -9999      97.35728   2.682018  
5626.8     8.317193   59.03133   103.6144   -0.000314681 0.000108222 -0.03498222 -0.007117465 49         145.3668520010117 -9999      103.6144   2.674598  
5627       8.36458    60.9098    104.7479   -0.00071672 -0.001036367 -0.02996801 -0.005872254 49         210.3898440696574 -9999      104.7479   2.702486  
5627.200000000001 8.298258   63.09058   98.78842   -0.0000989 0.000608763 -0.01999204 0.005195042 49         290.3331677101762 -9999      98.78842   2.704005  
5627.4     8.272012   63.74989   98.96924   -0.0000334 0.000585077 -0.01368607 0.005175294 49         394.2098697255397 -9999      98.96924   2.673515  
5627.6     8.264293   63.61286   104.7919   -0.001337496 -0.00224429 -0.01341426 -0.001250125 49         211.0558430571426 -9999      104.7919   2.644313  
5627.8     8.258883   63.34683   104.0673   -0.000723958 -0.001620158 -0.008285995 -0.006240209 49         122.0082052074298 -9999      104.0673   2.636202  
5628       -9999      61.76848   -9999      -9999      -9999      -9999      -9999      49         82.97241550720011 -9999      -9999      -9999     
5628.200000000001 -9999      58.60602   -9999      -9999      -9999      -9999      -9999      49         69.19392988953055 -9999      -9999      -9999     
5628.4     -9999      55.45754   -9999      -9999      -9999      -9999      -9999      49         56.5107251134096 -9999      -9999      -9999     
