~Version
 VERS              .         2.0                           : CWLS LOG ASCII STANDARD - VERSION 2.0
 WRAP              .         NO                            : ONE LINE PER DEPTH STEP
 DLM               .         SPACE                         : DELIMITING CHARACTER(SPACE TAB OR COMMA)
~Well Information
#_______________________________________________________________________________
#
#PARAMETER_NAME    .UNIT     VALUE                         : DESCRIPTION
#_______________________________________________________________________________
STRT               .m        1542                          : First reference value
STOP               .m        5640.8                        : Last reference value
STEP               .m        0.2                           : Step increment
NULL               .         -9999                         : Missing value
COMP               .         PETROLEO BRASILEIRO S/A       : Company
WELL               .         4-ESS-174A_resample           : Well name
FLD                .         GOLFINHO                      : Field
LOC                .                                       : Location
CNTY               .                                       : County
STAT               .         ESPIRITO SANTO                : State
CTRY               .                                       : Country
SRVC               .                                       : Service Company
DATE               .                                       : Date
API                .         342710322400                  : API number
EDF                .M        19.00                         : Elevation Derrick Floor
GDAT               .         SIRGAS2000                    : Geodetic Datum
HZCS               .         UTM                           : Horizontal Coordinate System
LMF                .         MR                            : Log Measure From
LATI               .         -19_56_54.869                 : Latitude
LONG               .         -39_29_58.132                 : Longitude
MC                 .         39 W                          : Meridiano Central
ORIG               .         SIGEO EXPORTACAO PERFIL       : Origem dos dados
ORIGINALWELLNAME   .         4ESS 0174A ES                 : 
WDMS               .M        1199.00                       : Water Depth to Mean Sea Level
X                  .         447729.60                     : Surface X
Y                  .         7794048.90                    : Surface Y
~Parameter Information Block
#_______________________________________________________________________________
#
#PARAMETER_NAME    .UNIT     VALUE                         : DESCRIPTION
#_______________________________________________________________________________
SET                .         ESS174A_resample              : 
TLFamily_CALI      .         Caliper                       : 
TLFamily_DEPT      .         Measured Depth                : 
TLFamily_DT        .         Compressional Slowness        : 
TLFamily_GR        .         Gamma Ray                     : 
TLFamily_INPEFA_1  .                                       : 
TLFamily_INPEFA_2  .                                       : 
TLFamily_INPEFA_3  .                                       : 
TLFamily_INPEFA_4  .                                       : 
TLFamily_LITO      .                                       : 
TLFamily_LLD       .         Deep Resistivity              : 
TLFamily_NPHI      .         Neutron Porosity              : 
TLFamily_OG        .                                       : 
TLFamily_RHOB      .         Bulk Density                  : 
~Curve Information
#_______________________________________________________________________________
#
#LOGNAME           .UNIT     LOG_ID                        : DESCRIPTION
#_______________________________________________________________________________
DEPT               .m                                      :  
CALI               .in                                     : CALIPER 
DT                 .us/ft                                  : DELTA-T (ALSO CALLED SLOWNESS OR INTERVAL TRANSIT TIME) 
GR                 .gAPI                                   : GAMMA RAY 
INPEFA_1           .                                       :  
INPEFA_2           .                                       :  
INPEFA_3           .                                       :  
INPEFA_4           .                                       :  
LITO               .                                       :  
LLD                .ohm.m                                  : LATEROLOG DEEP RESISTIVITY 
NPHI               .%                                      : THERMAL NEUTRON POROSITY (ORIGINAL RATIO METHOD) IN SELECTED LITHOLOGY 
OG                 .                                       :  
RHOB               .g/cm3                                  : BULK DENSITY 
~Ascii
# ...
1822       -9999      -9999      129.9867   0.1904488  -0.172842  -0.2837826 -0.04338958 57         -9999      -9999      129.9867   -9999     
1822.2     -9999      -9999      133.2667   0.1960664  -0.1593678 -0.2653455 -0.03732772 57         -9999      -9999      133.2667   -9999     
1822.4     -9999      -9999      135.6902   0.2042704  -0.1395586 -0.2311765 0.01159836 57         -9999      -9999      135.6902   -9999     
1822.6     -9999      -9999      136.5387   0.1988804  -0.1458314 -0.2406689 0.008416558 57         -9999      -9999      136.5387   -9999     
1822.8     -9999      -9999      132.4935   0.1967247  -0.1476328 -0.2448812 0.008440132 57         -9999      -9999      132.4935   -9999     
1823       -9999      -9999      129.0714   0.1818392  -0.1789382 -0.3114579 -0.1170069 57         -9999      -9999      129.0714   -9999     
1823.2     -9999      -9999      129.4      0.1696393  -0.2088178 -0.3854006 -0.2944153 57         -9999      -9999      129.4      -9999     
1823.4     -9999      -9999      129.4995   0.1725576  -0.2071947 -0.4032479 -0.405519  57         -9999      -9999      129.4995   -9999     
1823.6     -9999      -9999      130.4823   0.1916577  -0.1659421 -0.336957  -0.3553703 57         -9999      -9999      130.4823   -9999     
1823.8     -9999      -9999      133.955    0.1861606  -0.1733059 -0.3537343 -0.4149566 57         -9999      -9999      133.955    -9999     
1824       -9999      -9999      137.4329   0.1818637  -0.1830566 -0.3844469 -0.5300819 57         -9999      -9999      137.4329   -9999     
1824.2     -9999      -9999      141.44     0.2086806  -0.1223658 -0.2752877 -0.3924988 57         -9999      -9999      141.44     -9999     
1824.4     -9999      -9999      142.4986   0.2018389  -0.1293229 -0.2831708 -0.4001289 57         -9999      -9999      142.4986   -9999     
1824.6     -9999      -9999      138.3176   0.1911785  -0.1486934 -0.3218593 -0.4735875 57         -9999      -9999      138.3176   -9999     
1824.8     -9999      -9999      131.7711   0.1816261  -0.1711272 -0.3772737 -0.6116869 57         -9999      -9999      131.7711   -9999     
1825       -9999      -9999      127.5106   0.1884153  -0.1558186 -0.3580105 -0.6241922 57         -9999      -9999      127.5106   -9999     
1825.2     -9999      -9999      125.33     0.2004143  -0.1284834 -0.3118745 -0.5766551 57         -9999      -9999      125.33     -9999     
1825.4     -9999      -9999      122.8292   0.2034922  -0.1144524 -0.279975  -0.5184464 57         -9999      -9999      122.8292   -9999     
1825.6     -9999      -9999      122.8882   0.2006161  -0.1157657 -0.2799833 -0.511026  57         -9999      -9999      122.8882   -9999     
1825.8     -9999      -9999      125.344    0.1884966  -0.1408939 -0.3336503 -0.6224927 57         -9999      -9999      125.344    -9999     
1826       -9999      -9999      129.5401   0.2069192  -0.09862936 -0.256622  -0.5111341 57         -9999      -9999      129.5401   -9999     
1826.2     -9999      -9999      134.3293   0.2026114  -0.100488  -0.2523808 -0.4812561 57         -9999      -9999      134.3293   -9999     
1826.4     -9999      -9999      134.9648   0.1958277  -0.1134319 -0.2796372 -0.5373026 57         -9999      -9999      134.9648   -9999     
1826.6     -9999      -9999      128.5879   0.2091413  -0.07945995 -0.2119563 -0.4238023 57         -9999      -9999      128.5879   -9999     
1826.8     -9999      -9999      123.3985   0.2116253  -0.06666866 -0.1781098 -0.3378841 57         -9999      -9999      123.3985   -9999     
1827       -9999      -9999      123.4981   0.2132721  -0.05578444 -0.1475402 -0.2523381 57         -9999      -9999      123.4981   -9999     
1827.2     -9999      -9999      120.2052   0.2175038  -0.03811939 -0.100399  -0.1191347 57         -9999      -9999      120.2052   -9999     
1827.4     -9999      -9999      117.0472   0.2090834  -0.04690901 -0.1010467 -0.04889437 57         -9999      -9999      117.0472   -9999     
1827.6     -9999      -9999      120.7256   0.2006775  -0.06121514 -0.1226351 -0.0412603 57         -9999      -9999      120.7256   -9999     
1827.8     -9999      -9999      126.787    0.1933502  -0.07179023 -0.1359723 -0.02132333 57         -9999      -9999      126.787    -9999     
1828       -9999      -9999      128.1608   0.2043006  -0.04302255 -0.07292155 0.1359673  57         -9999      -9999      128.1608   -9999     
1828.2     -9999      -9999      123.5319   0.167285   -0.1173748 -0.2074077 -0.04906197 57         -9999      -9999      123.5319   -9999     
1828.4     -9999      -9999      119.0867   0.1864552  -0.07726929 -0.1374709 0.05796229 57         -9999      -9999      119.0867   -9999     
1828.6     -9999      -9999      119.1406   0.1818788  -0.0802405 -0.1350416 0.0886762  57         -9999      -9999      119.1406   -9999     
1828.8     -9999      -9999      122.9545   0.1673235  -0.108932  -0.1908304 -0.01116628 57         -9999      -9999      122.9545   -9999     
1829       -9999      -9999      122.8062   0.1676812  -0.1093583 -0.2020305 -0.07877514 57         -9999      -9999      122.8062   -9999     
1829.2     -9999      -9999      120.7092   0.1898463  -0.05667878 -0.1011408 0.06873886 57         -9999      -9999      120.7092   -9999     
1829.4     -9999      -9999      121.6429   0.1833597  -0.06193858 -0.1018512 0.07957853 57         -9999      -9999      121.6429   -9999     
1829.6     -9999      -9999      121.2562   0.1873323  -0.04817581 -0.07211722 0.1298608  57         -9999      -9999      121.2562   -9999     
1829.8     -9999      -9999      118.5252   0.1655767  -0.09053148 -0.1519617 -0.01615311 57         -9999      -9999      118.5252   -9999     
1830       -9999      -9999      117.2965   0.1870192  -0.0431785 -0.06706254 0.09467435 57         -9999      -9999      117.2965   -9999     
1830.2     -9999      -9999      117.6897   0.1633246  -0.08600409 -0.1412947 -0.03165405 57         -9999      -9999      117.6897   -9999     
1830.4     -9999      -9999      120.4622   0.1731878  -0.06549623 -0.1123717 -0.04038938 57         -9999      -9999      120.4622   -9999     
1830.6     -9999      -9999      124.7833   0.1629849  -0.08157682 -0.1430112 -0.1305085 57         -9999      -9999      124.7833   -9999     
1830.8     -9999      -9999      128.4874   0.1694888  -0.06859749 -0.1307653 -0.1894592 57         -9999      -9999      128.4874   -9999     
1831       -9999      -9999      127.76     0.1829536  -0.03208914 -0.0594999 -0.1151789 57         -9999      -9999      127.76     -9999     
1831.2     -9999      -9999      131.5539   0.1852085  -0.02028585 -0.0335835 -0.1000372 57         -9999      -9999      131.5539   -9999     
1831.4     -9999      -9999      133.3447   0.1957118  0.009357354 0.02661093 -0.01915061 57         -9999      -9999      133.3447   -9999     
1831.6     -9999      -9999      129.6628   0.1774146  -0.01912696 -0.01578153 -0.07935419 57         -9999      -9999      129.6628   -9999     
1831.8     -9999      -9999      129.237    0.1907597  0.0117441  0.04028567 -0.008048559 57         -9999      -9999      129.237    -9999     
1832       -9999      -9999      130.913    0.1826934  0.007231475 0.04731371 0.03281063 57         -9999      -9999      130.913    -9999     
1832.2     -9999      -9999      125.8991   0.1784721  0.001753481 0.03774901 0.01825878 57         -9999      -9999      125.8991   -9999     
1832.4     -9999      -9999      120.7691   0.1562598  -0.04183256 -0.04804844 -0.1467117 57         -9999      -9999      120.7691   -9999     
1832.6     -9999      -9999      119.8656   0.1778552  0.004542818 0.03097941 -0.05240173 57         -9999      -9999      119.8656   -9999     
1832.8     -9999      -9999      124.6016   0.1661816  -0.01036958 0.01089291 -0.07373399 57         -9999      -9999      124.6016   -9999     
1833       -9999      -9999      125.5651   0.1626754  -0.01860424 -0.01515245 -0.1536658 57         -9999      -9999      125.5651   -9999     
