~Version
 VERS              .         3.0                           : CWLS LOG ASCII STANDARD - VERSION 3.0
 WRAP              .         NO                            : ONE LINE PER DEPTH STEP
 DLM               .         SPACE                         : DELIMITING CHARACTER(SPACE TAB OR COMMA)
~Well Information
#_______________________________________________________________________________
#
#PARAMETER_NAME    .UNIT     VALUE                         : DESCRIPTION
#_______________________________________________________________________________
STRT               .m        2108.1003                     : First reference value
STOP               .m        4106.9003                     : Last reference value
STEP               .m        0.2                           : Step increment
NULL               .         -9999                         : Missing value
COMP               .         PETROLEO BRASILEIRO S/A       : Company
WELL               .         4-ESS-167_resample            : Well name
FLD                .         GOLFINHO                      : Field
LOC                .                                       : Location
SRVC               .                                       : Service Company
CTRY               .                                       : Country
DATE               .                                       : Service Date
LATI               .         -200010.479                   : Latitude
LONG               .         -394042.854                   : Longitude
GDAT               .         SIRGAS2000                    : Geodetic Datum
API                .         342710319700                  : API number
CNTY               .                                       : County
COUNTRY            .                                       : Country
EDF                .M        25.0                          : Elevation Derrick Floor
HZCS               .         UTM                           : Horizontal Coordinate System
LMF                .         MR                            : Log Measure From
MC                 .         39 W                          : Meridiano Central
ORIG               .         SIGEO EXPORTACAO PERFIL       : Origem dos dados
ORIGINALWELLNAME   .         4ESS 0167  ES                 : 
STAT               .         ESPIRITO SANTO                : State
WDMS               .M        966.0                         : Water Depth to Mean Sea Level
X                  .         429077.0                      : Surface X
Y                  .         7788071.0                     : Surface Y
~Parameter Information Block
#_______________________________________________________________________________
#
#PARAMETER_NAME    .UNIT     VALUE                         : DESCRIPTION
#_______________________________________________________________________________
SET                .         ESS167_resample               : 
TLFAMILY_CALI      .         Caliper                       : 
TLFAMILY_COTA      .         Measured Depth                : 
TLFAMILY_DT        .         Compressional Slowness        : 
TLFAMILY_GR        .         Gamma Ray                     : 
TLFAMILY_INPEFA_1  .         Photoelectric Factor          : 
TLFAMILY_INPEFA_2  .         Photoelectric Factor          : 
TLFAMILY_INPEFA_3  .         Photoelectric Factor          : 
TLFAMILY_INPEFA_4  .         Photoelectric Factor          : 
TLFAMILY_LITO      .                                       : 
TLFAMILY_LLD       .         Deep Resistivity              : 
TLFAMILY_RHOB      .         Bulk Density                  : 
TLFamily_CALI      .         Caliper                       : 
TLFamily_COTA      .                                       : 
TLFamily_DEPT      .         Measured Depth                : 
TLFamily_DT        .         Compressional Slowness        : 
TLFamily_GR        .         Gamma Ray                     : 
TLFamily_INPEFA_1  .         Photoelectric Factor          : 
TLFamily_INPEFA_2  .         Photoelectric Factor          : 
TLFamily_INPEFA_3  .         Photoelectric Factor          : 
TLFamily_INPEFA_4  .         Photoelectric Factor          : 
TLFamily_LITO      .                                       : 
TLFamily_LLD       .         Deep Resistivity              : 
TLFamily_NPHI      .         Neutron Porosity              : 
TLFamily_RHOB      .         Bulk Density                  : 
~Curve Information
#_______________________________________________________________________________
#
#LOGNAME           .UNIT     LOG_ID                        : DESCRIPTION
#_______________________________________________________________________________
DEPT               .m                                      :  {F}
CALI               .in                                     : CALIPER {F}
COTA               .                                       :  {F}
DT                 .us/ft                                  : DELTA-T (ALSO CALLED SLOWNESS OR INTERVAL TRANSIT TIME) {F}
GR                 .gAPI                                   : GAMMA RAY {F}
INPEFA_1           .                                       :  {F}
INPEFA_2           .                                       :  {F}
INPEFA_3           .                                       :  {F}
INPEFA_4           .                                       :  {F}
LITO               .                                       :  {F}
LLD                .ohm.m                                  : LATEROLOG DEEP RESISTIVITY {F}
NPHI               .                                       :  {F}
RHOB               .g/cm3                                  : BULK DENSITY {F}
~Ascii
# ...
3939.7003  12.3097    -3939.7003 70.53488   118.4214   0.13922    -0.453     -0.52841   -0.17925   57         17.01882   -9999      2.69741   
3939.9003  12.3097    -3939.9003 69.12336999999999 120.5114   0.16637    -0.40693   -0.50899   -0.24348   57         18.0461    -9999      2.68471   
3940.1003  12.35847   -3940.1003 67.32544   130.2612   0.18873    -0.351     -0.44085   -0.18327   49         21.70906   -9999      2.6811    
3940.3003  12.32932   -3940.3003 67.57895000000001 130.3438   0.18922    -0.3549    -0.47492   -0.27155   49         26.95752   -9999      2.6778    
3940.5003  12.31781   -3940.5003 71.04464   123.7902   0.19529    -0.34641   -0.49775   -0.39714   49         25.76712   -9999      2.64702   
3940.7003  12.30041   -3940.7003 74.9118    126.3595   0.23378    -0.25281   -0.36497   -0.28764   49         18.25277   -9999      2.60912   
3940.9003  12.3017    -3940.9003 75.69899   130.9307   0.24298    -0.21606   -0.30088   -0.21286   49         12.92265   -9999      2.6023    
3941.1003  12.31359   -3941.1003 75.10886000000001 133.6525   0.24385    -0.20623   -0.28565   -0.2348    57         11.33453   -9999      2.6029    
3941.3003  12.35987   -3941.3003 74.09464   136.9416   0.24458    -0.19958   -0.28431   -0.31258   57         11.84996   -9999      2.6024    
3941.5003  12.37251   -3941.5003 72.84344   134.8985   0.26217    -0.1489    -0.20649   -0.31831   57         13.13482   -9999      2.61849   
3941.7003  12.42046   -3941.7003 70.55611   125.9507   0.28626    -0.0741    -0.07185   -0.21125   57         14.19782   -9999      2.6214    
3941.9003  12.27395   -3941.9003 66.14574   119.5768   0.29523    -0.03017   0.02676    -0.1249    57         14.97268   -9999      2.59841   
3942.1003  12.27759   -3942.1003 60.87331   108.11     0.31038    0.02808    0.15181    0.01417    57         16.37069   -9999      2.57771   
3942.3003  12.30209   -3942.3003 57.3417    92.50512000000001 0.31192    0.06658    0.27219    0.23817    57         20.62164   -9999      2.5767    
3942.5003  12.31349   -3942.5003 56.415     88.30878   0.2891     0.03383    0.26272    0.29247    57         28.30317   -9999      2.58809   
3942.7003  12.29301   -3942.7003 56.96786   95.12617   0.26729    -0.00632   0.21818    0.24762    57         35.68811   -9999      2.5891    
3942.9003  12.2912    -3942.9003 57.903     97.59635   0.27335    0.02009    0.28154    0.35552    57         36.95316   -9999      2.5853    
3943.1003  12.27001   -3943.1003 58.22866   93.47213000000001 0.25223    -0.01955   0.23389    0.31162    49         38.31033   -9999      2.59409   
3943.3003  12.2727    -3943.3003 57.63181   92.1031    0.25866    -0.0005    0.26748    0.34016    49         39.55935   -9999      2.6023    
3943.5003  12.27032   -3943.5003 56.66107   93.72721   0.25228    -0.00106   0.2827     0.38033    49         40.06476   -9999      2.6031    
3943.7003  12.26721   -3943.7003 55.93489   90.27572000000001 0.25233    0.00316    0.29269    0.40727    49         40.60618   -9999      2.6115    
3943.9003  12.22701   -3943.9003 55.87973   85.83360999999999 0.25101    0.01072    0.3166     0.47957    49         41.85529   -9999      2.62449   
3944.1003  12.2247    -3944.1003 56.5315    86.95021   0.24538    0.00592    0.31989    0.5403     49         42.48616   -9999      2.6289    
3944.3003  12.2268    -3944.3003 57.59796   90.84139   0.23367    -0.01909   0.27624    0.50839    49         40.8793    -9999      2.62201   
3944.5003  12.2258    -3944.5003 58.27133   92.60327   0.23176    -0.0212    0.26592    0.50898    49         40.27918   -9999      2.6126    
3944.7003  12.2349    -3944.7003 58.6451    90.26093   0.23604    -0.0088    0.27696    0.53396    49         42.26368   -9999      2.6075    
3944.9003  12.26818   -3944.9003 59.26153   88.80353   0.25199    0.04174    0.36751    0.72182    49         44.75732   -9999      2.607     
3945.1003  12.27311   -3945.1003 60.35599   89.75508000000001 0.22494    -0.0147    0.28197    0.69085    49         45.11267   -9999      2.61559   
3945.3003  12.2741    -3945.3003 61.70164   92.89041   0.22071    -0.02674   0.24503    0.66155    49         44.54638   -9999      2.62649   
3945.5003  12.26611   -3945.5003 62.8622    100.4141   0.20335    -0.06888   0.15451    0.53479    49         43.44883   -9999      2.6328    
3945.7003  12.27538   -3945.7003 63.04034   110.0453   0.20856    -0.06692   0.11348    0.39934    49         38.92931   -9999      2.64439   
3945.9003  12.26231   -3945.9003 62.14054   114.6623   0.22344    -0.02997   0.14104    0.35409    49         30.92362   -9999      2.6566    
3946.1003  12.27658   -3946.1003 60.86936   116.8895   0.24582    0.03056    0.2186     0.41676    49         33.34786   -9999      2.66589   
3946.3003  12.29808   -3946.3003 60.80245   117.3372   0.23608    0.01568    0.17696    0.3477     49         39.558     -9999      2.6723    
3946.5003  12.30691   -3946.5003 62.03106   116.1253   0.23308    0.00893    0.13735    0.27153    49         44.034     -9999      2.66121   
3946.7003  12.28951   -3946.7003 64.01016   115.3005   0.22698    -0.00727   0.07603    0.14493    49         39.62448   -9999      2.6558    
3946.9003  12.27691   -3946.9003 66.06628000000001 114.6522   0.23849    0.0172     0.07634    0.08226    49         37.96421   -9999      2.66699   
3947.1003  12.2623    -3947.1003 67.9688    115.4236   0.23524    0.01023    0.03135    -0.03468   49         36.05019   -9999      2.65941   
3947.3003  12.257     -3947.3003 69.37647   117.6624   0.2483     0.03911    0.04168    -0.08999   49         34.00185   -9999      2.6472    
3947.5003  12.31055   -3947.5003 69.97011000000001 119.206    0.25247    0.05414    0.04169    -0.13896   49         31.53948   -9999      2.6438    
3947.7003  12.29719   -3947.7003 69.18443000000001 118.1061   0.24557    0.03227    -0.03332   -0.33565   49         27.93527   -9999      2.62501   
3947.9003  12.28561   -3947.9003 65.54583   114.6268   0.26414    0.0751     -0.00086   -0.40909   49         25.56736   -9999      2.6203    
3948.1003  12.30009   -3948.1003 61.35769   115.4455   0.28491    0.13009    0.07067    -0.38637   49         23.07324   -9999      2.63899   
3948.3003  12.3069    -3948.3003 58.98353   118.8195   0.29381    0.16216    0.12005    -0.3549    49         21.0811    -9999      2.6385    
3948.5003  12.308     -3948.5003 58.28313   121.3135   0.30701    0.204      0.19309    -0.26388   49         19.58031   -9999      2.6374    
3948.7003  12.3056    -3948.7003 57.88948   121.1339   0.30586    0.21762    0.23584    -0.1612    49         19.42805   -9999      2.6507    
3948.9003  12.3011    -3948.9003 57.52637   116.1721   0.31099    0.24573    0.31278    0.04806    49         19.69764   -9999      2.64021   
3949.1003  12.29221   -3949.1003 57.2807    108.9952   0.28104    0.19078    0.26196    0.1395     49         20.01633   -9999      2.61421   
3949.3003  12.2923    -3949.3003 57.20792   106.937    0.2317     0.06341    0.05339    -0.06607   49         20.31795   -9999      2.6112    
3949.5003  12.2908    -3949.5003 57.3536    109.8681   0.22495    0.03791    0.00114    -0.11258   49         20.62183   -9999      2.6182    
3949.7003  12.25752   -3949.7003 57.64626   112.4933   0.22405    0.00948    -0.08239   -0.30129   49         21.02375   -9999      2.6164    
3949.9003  12.25641   -3949.9003 57.59328   111.8805   0.2376     0.03732    -0.05006   -0.34013   49         23.17251   -9999      2.621     
3950.1003  12.2428    -3950.1003 57.12656   110.961    0.24164    0.03321    -0.0739    -0.4908    49         27.35063   -9999      2.6231    
3950.3003  12.2522    -3950.3003 56.60793   109.9668   0.29301    0.16279    0.14952    -0.27159   49         29.69366   -9999      2.6195    
3950.5003  12.2549    -3950.5003 56.69237   108.3667   0.26951    0.11508    0.10479    -0.35996   49         28.00716   -9999      2.62969   
3950.7003  12.2562    -3950.7003 57.49243   108.6336   0.29679    0.19228    0.26874    -0.15008   49         26.52491   -9999      2.6376    
