~Version
 VERS              .         3.0                           : CWLS LOG ASCII STANDARD - VERSION 3.0
 WRAP              .         NO                            : ONE LINE PER DEPTH STEP
 DLM               .         SPACE                         : DELIMITING CHARACTER(SPACE TAB OR COMMA)
~Well Information
#_______________________________________________________________________________
#
#PARAMETER_NAME    .UNIT     VALUE                         : DESCRIPTION
#_______________________________________________________________________________
STRT               .m        2108.1003                     : First reference value
STOP               .m        4106.9003                     : Last reference value
STEP               .m        0.2                           : Step increment
NULL               .         -9999                         : Missing value
COMP               .         PETROLEO BRASILEIRO S/A       : Company
WELL               .         4-ESS-167_resample            : Well name
FLD                .         GOLFINHO                      : Field
LOC                .                                       : Location
SRVC               .                                       : Service Company
CTRY               .                                       : Country
DATE               .                                       : Service Date
LATI               .         -200010.479                   : Latitude
LONG               .         -394042.854                   : Longitude
GDAT               .         SIRGAS2000                    : Geodetic Datum
API                .         342710319700                  : API number
CNTY               .                                       : County
COUNTRY            .                                       : Country
EDF                .M        25.0                          : Elevation Derrick Floor
HZCS               .         UTM                           : Horizontal Coordinate System
LMF                .         MR                            : Log Measure From
MC                 .         39 W                          : Meridiano Central
ORIG               .         SIGEO EXPORTACAO PERFIL       : Origem dos dados
ORIGINALWELLNAME   .         4ESS 0167  ES                 : 
STAT               .         ESPIRITO SANTO                : State
WDMS               .M        966.0                         : Water Depth to Mean Sea Level
X                  .         429077.0                      : Surface X
Y                  .         7788071.0                     : Surface Y
~Parameter Information Block
#_______________________________________________________________________________
#
#PARAMETER_NAME    .UNIT     VALUE                         : DESCRIPTION
#_______________________________________________________________________________
SET                .         ESS167_resample               : 
TLFAMILY_CALI      .         Caliper                       : 
TLFAMILY_COTA      .         Measured Depth                : 
TLFAMILY_DT        .         Compressional Slowness        : 
TLFAMILY_GR        .         Gamma Ray                     : 
TLFAMILY_INPEFA_1  .         Photoelectric Factor          : 
TLFAMILY_INPEFA_2  .         Photoelectric Factor          : 
TLFAMILY_INPEFA_3  .         Photoelectric Factor          : 
TLFAMILY_INPEFA_4  .         Photoelectric Factor          : 
TLFAMILY_LITO      .                                       : 
TLFAMILY_LLD       .         Deep Resistivity              : 
TLFAMILY_RHOB      .         Bulk Density                  : 
TLFamily_CALI      .         Caliper                       : 
TLFamily_COTA      .                                       : 
TLFamily_DEPT      .         Measured Depth                : 
TLFamily_DT        .         Compressional Slowness        : 
TLFamily_GR        .         Gamma Ray                     : 
TLFamily_INPEFA_1  .         Photoelectric Factor          : 
TLFamily_INPEFA_2  .         Photoelectric Factor          : 
TLFamily_INPEFA_3  .         Photoelectric Factor          : 
TLFamily_INPEFA_4  .         Photoelectric Factor          : 
TLFamily_LITO      .                                       : 
TLFamily_LLD       .         Deep Resistivity              : 
TLFamily_NPHI      .         Neutron Porosity              : 
TLFamily_RHOB      .         Bulk Density                  : 
~Curve Information
#_______________________________________________________________________________
#
#LOGNAME           .UNIT     LOG_ID                        : DESCRIPTION
#_______________________________________________________________________________
DEPT               .m                                      :  {F}
CALI               .in                                     : CALIPER {F}
COTA               .                                       :  {F}
DT                 .us/ft                                  : DELTA-T (ALSO CALLED SLOWNESS OR INTERVAL TRANSIT TIME) {F}
GR                 .gAPI                                   : GAMMA RAY {F}
INPEFA_1           .                                       :  {F}
INPEFA_2           .                                       :  {F}
INPEFA_3           .                                       :  {F}
INPEFA_4           .                                       :  {F}
LITO               .                                       :  {F}
LLD                .ohm.m                                  : LATEROLOG DEEP RESISTIVITY {F}
NPHI               .                                       :  {F}
RHOB               .g/cm3                                  : BULK DENSITY {F}
~Ascii
# ...
2491.5003  13.2191    -2491.5003 123.3115   118.6084   0.09546    0.42613    0.60791    0.68058    57         1.432500004768372 -9999      2.2672    
2491.7003  13.2254    -2491.7003 123.1153   123.5167   0.05255    0.31923    0.43685    0.48879    57         1.46809995174408 -9999      2.2824    
2491.9003  13.2045    -2491.9003 122.9683   127.2761   0.05523    0.31047    0.40057    0.39506    57         1.519099950790405 -9999      2.2876    
2492.1003  13.1924    -2492.1003 122.5912   127.2068   0.06271    0.31811    0.39494    0.31887    57         1.572000026702881 -9999      2.2849    
2492.3003  13.229     -2492.3003 121.8111   126.4221   0.08109    0.36409    0.47177    0.39362    57         1.552299976348877 -9999      2.2797    
2492.5003  13.2133    -2492.5003 121.1973   123.5983   0.0904     0.39009    0.52897    0.49041    57         1.536900043487549 -9999      2.2656    
2492.7003  13.2447    -2492.7003 120.7119   121.8752   0.06102    0.32222    0.42991    0.36325    57         1.537299990653992 -9999      2.258     
2492.9003  13.2489    -2492.9003 120.0989   120.1828   0.09051    0.38815    0.53908    0.49653    57         1.592399954795837 -9999      2.2607    
2493.1003  13.1823    -2493.1003 119.8247   120.9222   0.08352    0.39123    0.58916    0.67543    57         1.647199988365173 -9999      2.2654    
2493.3003  13.1734    -2493.3003 120.5165   128.4551   0.04904    0.30489    0.46585    0.59891    57         1.613600015640259 -9999      2.2833    
2493.5003  13.1953    -2493.5003 122.1143   134.2208   0.03764    0.27072    0.41107    0.56849    57         1.491299986839294 -9999      2.2869    
2493.7003  13.1726    -2493.7003 123.2332   134.9961   0.01418    0.20533    0.30104    0.45519    57         1.326599955558777 -9999      2.2499    
2493.9003  13.2268    -2493.9003 123.1295   131.2323   0.01708    0.18571    0.22953    0.29256    57         1.258599996566773 -9999      2.2219    
2494.1003  13.2286    -2494.1003 121.2849   130.2522   0.03328    0.21901    0.27287    0.32726    57         1.320799946784973 -9999      2.2288    
2494.3003  13.2377    -2494.3003 117.9728   134.2024   0.04241    0.2323     0.28778    0.35802    57         1.422700047492981 -9999      2.2517    
2494.5003  13.3025    -2494.5003 115.5028   135.1734   0.04379    0.2338     0.2934     0.40317    57         1.497900009155273 -9999      2.2757    
2494.7003  13.2892    -2494.7003 115.6249   139.0638   0.04109    0.23027    0.30791    0.5367     57         1.526700019836426 -9999      2.2847    
2494.9003  13.2842    -2494.9003 117.7806   142.8047   0.00043    0.11854    0.1162     0.3272     57         1.467900037765503 -9999      2.2818    
2495.1003  13.2868    -2495.1003 120.8291   138.9454   0.01871    0.14791    0.14625    0.37987    57         1.369099974632263 -9999      2.2813    
2495.3003  13.2865    -2495.3003 123.3665   132.3753   -0.00101   0.08971    0.04008    0.265      57         1.272699952125549 -9999      2.2781    
2495.5003  13.326     -2495.5003 123.9848   127.0598   0.01104    0.10293    0.04108    0.26749    57         1.24779999256134 -9999      2.2674    
2495.7003  13.3105    -2495.7003 122.5705   129.2675   -0.02421   0.00371    -0.14239   -0.00526   57         1.273900032043457 -9999      2.2628    
2495.9003  13.2615    -2495.9003 120.1401   129.9102   0.00845    0.05758    -0.09641   -0.04103   57         1.364799976348877 -9999      2.2534    
2496.1003  13.2777    -2496.1003 118.5866   128.278    0.03002    0.1144     0.00556    0.11508    57         1.455899953842163 -9999      2.2449    
2496.3003  13.2371    -2496.3003 118.5759   134.5723   0.0058     0.05077    -0.09644   0.00858    57         1.511700034141541 -9999      2.2686    
2496.5003  13.2181    -2496.5003 120.6111   142.0444   -0.02727   -0.04576   -0.27963   -0.30025   57         1.47189998626709 -9999      2.2907    
2496.7003  13.1805    -2496.7003 125.017    146.5224   -0.00745   -0.02477   -0.29293   -0.46878   57         1.342599987983704 -9999      2.2809    
2496.9003  13.2491    -2496.9003 129.7412   145.3751   0.02427    0.04503    -0.19604   -0.43881   57         1.222200036048889 -9999      2.2623    
2497.1003  13.1017    -2497.1003 132.2378   138.2506   0.02749    0.05213    -0.18089   -0.45766   57         1.149700045585632 -9999      2.2423    
2497.3003  13.0991    -2497.3003 131.5043   130.8689   0.02629    0.04739    -0.18378   -0.49056   57         1.176499962806702 -9999      2.2206    
2497.5003  13.0269    -2497.5003 128.5114   127.5178   0.04139    0.08546    -0.10422   -0.37159   57         1.266700029373169 -9999      2.2174    
2497.7003  13.1622    -2497.7003 125.8167   129.0024   0.01752    0.02923    -0.17839   -0.45211   57         1.407400012016296 -9999      2.2384    
2497.9003  13.1665    -2497.9003 124.7192   136.2952   0.02547    0.03759    -0.1661    -0.46524   57         1.52049994468689 -9999      2.2605    
2498.1003  13.2069    -2498.1003 124.8147   139.8804   0.03827    0.07541    -0.0772    -0.30891   57         1.539999961853027 -9999      2.2736    
2498.3003  13.2138    -2498.3003 126.0795   139.3718   0.02308    0.03754    -0.11742   -0.3175    57         1.435799956321716 -9999      2.274     
2498.5003  13.2232    -2498.5003 128.7137   138.0488   0.01787    0.02041    -0.13387   -0.33176   57         1.299499988555908 -9999      2.2503    
2498.7003  13.2731    -2498.7003 131.3346   139.4782   0.01806    0.01746    -0.1232    -0.30942   57         1.26639997959137 -9999      2.2261    
2498.9003  13.1998    -2498.9003 132.5549   137.2339   0.04068    0.07518    -0.00148   -0.10324   57         1.311400055885315 -9999      2.2302    
2499.1003  13.1886    -2499.1003 132.715    128.1683   0.01154    0.0113     -0.06977   -0.12779   57         1.388100028038025 -9999      2.2478    
2499.3003  13.0927    -2499.3003 132.2058   126.9509   0.02199    0.02803    -0.0333    -0.07022   57         1.408400058746338 -9999      2.256     
2499.5003  13.1455    -2499.5003 130.7895   135.7242   0.00323    -0.01441   -0.07782   -0.09823   57         1.363399982452393 -9999      2.2571    
2499.7003  13.159     -2499.7003 127.6015   137.7844   0.03184    0.04717    0.03405    0.06215    57         1.334400057792664 -9999      2.2478    
2499.9003  13.1357    -2499.9003 123.9679   128.938    0.01759    0.02577    0.04139    0.15748    57         1.351699948310852 -9999      2.2183    
2500.1003  13.1628    -2500.1003 121.8587   122.2864   0.01447    0.0121     0.0385     0.21555    57         1.469799995422363 -9999      2.2006    
2500.3003  13.0668    -2500.3003 121.1425   122.825    0.00638    -0.00401   0.04046    0.29007    57         1.582200050354004 -9999      2.2418    
2500.5003  13.0655    -2500.5003 120.8391   123.2366   -0.01297   -0.05988   -0.03984   0.21429    57         1.512899994850159 -9999      2.2916    
2500.7003  13.0413    -2500.7003 120.802    125.9322   -0.00476   -0.04633   -0.01022   0.24783    57         1.40120005607605 -9999      2.2783    
2500.9003  13.0251    -2500.9003 121.4183   129.0095   -0.00511   -0.04732   0.00671    0.28395    57         1.378499984741211 -9999      2.25      
2501.1003  13.0435    -2501.1003 122.1605   127.6779   -0.01488   -0.07616   -0.03254   0.21015    57         1.40559995174408 -9999      2.2567    
2501.3003  13.037     -2501.3003 122.4939   127.9251   -0.01707   -0.08835   -0.05236   0.12202    57         1.413699984550476 -9999      2.2657    
2501.5003  13.0476    -2501.5003 122.9579   130.8734   -0.00446   -0.06117   -0.00259   0.13677    57         1.406000018119812 -9999      2.2527    
2501.7003  13.0466    -2501.7003 123.9301   131.9417   -0.02888   -0.12537   -0.10619   -0.07966   57         1.371299982070923 -9999      2.2346    
2501.9003  13.0039    -2501.9003 125.0557   128.2934   -0.01763   -0.11168   -0.10018   -0.2188    57         1.366899967193604 -9999      2.2432    
2502.1003  13.0681    -2502.1003 125.8611   128.4593   0.03049    0.01122    0.11998    0.01062    57         1.36489999294281 -9999      2.268     
