~Version
 VERS              .         2.0                           : CWLS LOG ASCII STANDARD - VERSION 2.0
 WRAP              .         NO                            : ONE LINE PER DEPTH STEP
 DLM               .         SPACE                         : DELIMITING CHARACTER(SPACE TAB OR COMMA)
~Well Information
#_______________________________________________________________________________
#
#PARAMETER_NAME    .UNIT     VALUE                         : DESCRIPTION
#_______________________________________________________________________________
STRT               .m        1542                          : First reference value
STOP               .m        5640.8                        : Last reference value
STEP               .m        0.2                           : Step increment
NULL               .         -9999                         : Missing value
COMP               .         PETROLEO BRASILEIRO S/A       : Company
WELL               .         4-ESS-174A_resample           : Well name
FLD                .         GOLFINHO                      : Field
LOC                .                                       : Location
CNTY               .                                       : County
STAT               .         ESPIRITO SANTO                : State
CTRY               .                                       : Country
SRVC               .                                       : Service Company
DATE               .                                       : Date
API                .         342710322400                  : API number
EDF                .M        19.00                         : Elevation Derrick Floor
GDAT               .         SIRGAS2000                    : Geodetic Datum
HZCS               .         UTM                           : Horizontal Coordinate System
LMF                .         MR                            : Log Measure From
LATI               .         -19_56_54.869                 : Latitude
LONG               .         -39_29_58.132                 : Longitude
MC                 .         39 W                          : Meridiano Central
ORIG               .         SIGEO EXPORTACAO PERFIL       : Origem dos dados
ORIGINALWELLNAME   .         4ESS 0174A ES                 : 
WDMS               .M        1199.00                       : Water Depth to Mean Sea Level
X                  .         447729.60                     : Surface X
Y                  .         7794048.90                    : Surface Y
~Parameter Information Block
#_______________________________________________________________________________
#
#PARAMETER_NAME    .UNIT     VALUE                         : DESCRIPTION
#_______________________________________________________________________________
SET                .         ESS174A_resample              : 
TLFamily_CALI      .         Caliper                       : 
TLFamily_DEPT      .         Measured Depth                : 
TLFamily_DT        .         Compressional Slowness        : 
TLFamily_GR        .         Gamma Ray                     : 
TLFamily_INPEFA_1  .                                       : 
TLFamily_INPEFA_2  .                                       : 
TLFamily_INPEFA_3  .                                       : 
TLFamily_INPEFA_4  .                                       : 
TLFamily_LITO      .                                       : 
TLFamily_LLD       .         Deep Resistivity              : 
TLFamily_NPHI      .         Neutron Porosity              : 
TLFamily_OG        .                                       : 
TLFamily_RHOB      .         Bulk Density                  : 
~Curve Information
#_______________________________________________________________________________
#
#LOGNAME           .UNIT     LOG_ID                        : DESCRIPTION
#_______________________________________________________________________________
DEPT               .m                                      :  
CALI               .in                                     : CALIPER 
DT                 .us/ft                                  : DELTA-T (ALSO CALLED SLOWNESS OR INTERVAL TRANSIT TIME) 
GR                 .gAPI                                   : GAMMA RAY 
INPEFA_1           .                                       :  
INPEFA_2           .                                       :  
INPEFA_3           .                                       :  
INPEFA_4           .                                       :  
LITO               .                                       :  
LLD                .ohm.m                                  : LATEROLOG DEEP RESISTIVITY 
NPHI               .%                                      : THERMAL NEUTRON POROSITY (ORIGINAL RATIO METHOD) IN SELECTED LITHOLOGY 
OG                 .                                       :  
RHOB               .g/cm3                                  : BULK DENSITY 
~Ascii
# ...
4833.6     12.2245    79.559     157.5709   -0.03621408 0.06314401 0.1353372  -0.2022951 57         5.689899921417235 16.4226    157.5709   2.6639    
4833.8     12.2245    82.1037    159.4952   -0.05101993 0.03345653 0.08735646 -0.2553287 57         5.151999950408936 18.5082    159.4952   2.61      
4834       12.2256    83.3324    156.7219   -0.04836711 0.04342587 0.1176373  -0.1593212 57         5.010900020599365 20.2613    156.7219   2.6025    
4834.200000000001 12.2256    83.5624    158.0284   -0.06958231 -0.007532066 0.01798961 -0.3091138 57         5.204400062562507 21.0054    158.0284   2.5994    
4834.4     12.2256    83.3092    159.3152   -0.05439186 0.02378652 0.07862704 -0.1895872 57         5.544000148773193 21.3455    159.3152   2.5838    
4834.6     12.2242    82.9103    158.4529   -0.06352932 0.004767359 0.05058063 -0.1875205 57         5.98330020904541 21.5048    158.4529   2.5722    
4834.8     12.2242    82.4131    158.2818   -0.07437583 -0.02224605 -0.00278915 -0.2594402 57         6.255000114440918 21.541     158.2818   2.5795    
4835       12.2219    81.8874    160.2714   -0.08578943 -0.0529757 -0.06902381 -0.3799817 57         6.26800012588501 20.928     160.2714   2.598     
4835.200000000001 12.2242    81.4309    163.5486   -0.06298997 -0.0122626 -0.003382798 -0.3016354 57         6.113200187682068 20.7462    163.5486   2.6046    
4835.4     12.2214    81.1684    162.4452   -0.0306559 0.06503345 0.1631286  0.04607147 57         5.985099792480468 20.8712    162.4452   2.6144    
4835.6     12.2193    81.048     157.0952   -0.05942981 0.008084585 0.07466991 -0.008209429 57         6.007699966430663 20.7066    157.0952   2.6387    
4835.8     12.2164    80.6397    154.5732   -0.07079194 -0.01717994 0.03233687 -0.03059361 57         5.986999988555909 20.1262    154.5732   2.6505    
4836       12.2138    79.1406    157.3813   -0.08133955 -0.04483134 -0.02120428 -0.09374911 57         5.898900032043457 19.3358    157.3813   2.6369    
4836.200000000001 12.2138    77.0319    159.1651   -0.07718783 -0.04126988 -0.01968548 -0.08973302 57         5.889999866486784 19.1253    159.1651   2.622     
4836.4     12.2153    75.3141    154.2664   -0.0816856 -0.05366042 -0.04323951 -0.1195338 57         6.199500083923339 18.8491    154.2664   2.6149    
4836.6     12.2084    74.6663    144.4309   -0.07414228 -0.04029351 -0.01858593 -0.07851202 57         6.421500205993652 17.4093    144.4309   2.6084    
4836.8     12.2218    75.1352    141.5938   -0.07959523 -0.05255857 -0.03949995 -0.1101857 57         6.272200107574463 15.833     141.5938   2.62      
4837       12.2205    76.6223    147.2015   -0.06599199 -0.02609297 0.008792153 -0.0346375 57         5.968900203704834 15.6684    147.2015   2.6411    
4837.200000000001 12.2218    78.5084    155.1987   -0.08359991 -0.06367081 -0.05978052 -0.1380488 57         5.603600025174229 17.0536    155.1987   2.6384    
4837.4     12.2218    80.0402    157.7176   -0.08249003 -0.06984644 -0.08458243 -0.2182882 57         5.210700035095215 18.3948    157.7176   2.6239    
4837.6     12.2284    80.8409    157.5246   -0.08371551 -0.07400919 -0.09528383 -0.257931  57         4.945700168609619 19.6357    157.5246   2.6214    
4837.8     12.2258    81.0529    160.0813   -0.08453374 -0.08349437 -0.1264515 -0.3623266 57         4.952899932861328 21.0125    160.0813   2.6182    
4838       12.2258    80.9428    163.9604   -0.07791738 -0.07358958 -0.1169669 -0.4027194 57         5.038700103759765 21.1162    163.9604   2.6083    
4838.200000000001 12.2271    80.6908    159.8313   -0.06088939 -0.03790941 -0.04981804 -0.3179731 57         5.241799831391666 20.1196    159.8313   2.6063    
4838.4     12.2271    80.3982    147.9058   -0.0703732 -0.06043898 -0.09525946 -0.4288127 57         5.524099826812744 19.5054    147.9058   2.6325    
4838.6     12.2232    80.2854    145.7114   -0.04458147 -0.006571696 0.005539673 -0.2946887 57         5.748400211334229 18.9903    145.7114   2.6763    
4838.8     12.2218    80.5174    155.3026   -0.0284554 0.03371994 0.09751237 -0.1110752 57         5.76669979095459 18.7256    155.3026   2.6738    
4839       12.2205    80.9493    163.5429   -0.04846405 -0.000681171 0.05475548 -0.1162728 57         5.599899768829345 19.1713    163.5429   2.6267    
4839.200000000001 12.2218    81.311     164.2556   -0.05413953 -0.01844467 0.01882666 -0.1813784 57         5.59089994430618 20.1346    164.2556   2.5931    
4839.4     12.2205    81.4498    162.4509   -0.0403854 0.01517487 0.0947119  -0.02587241 57         5.635700225830078 20.3032    162.4509   2.5801    
4839.6     12.2258    81.5824    159.6763   -0.04361995 0.0109902  0.1006548  0.03586213 57         5.726600170135498 20.0772    159.6763   2.5835    
4839.8     12.2284    81.8068    157.4409   -0.0549118 -0.01240303 0.06413403 0.009817829 57         5.636499881744385 20.1348    157.4409   2.6007    
4840       12.2297    82.067     154.3475   -0.05402403 -0.01223922 0.06873962 0.04155183 57         5.548299789428711 20.276     154.3475   2.6125    
4840.200000000001 12.235     82.2423    155.5158   -0.0560772 -0.01473938 0.07322164 0.08552028 57         5.681099891661768 20.0426    155.5158   2.6051    
4840.4     12.235     82.1649    158.8016   -0.06987868 -0.04727883 0.01151455 -0.007705216 57         5.660900115966796 20.3396    158.8016   2.5862    
4840.6     12.2329    81.6923    159.9111   -0.06792554 -0.04828501 0.001915088 -0.0462881 57         5.775300025939941 20.775     159.9111   2.5825    
4840.8     12.235     80.9964    158.3585   -0.05575912 -0.02397882 0.04731506 0.02955359 57         5.823999881744384 20.6942    158.3585   2.5922    
4841       12.2337    80.3716    155.2811   -0.05558824 -0.02199264 0.0581173  0.07835591 57         5.880700111389161 20.3767    155.2811   2.5969    
4841.200000000001 12.235     79.9965    150.1144   -0.06697154 -0.04978054 0.003478686 -0.006167933 57         5.809999942780368 20.0853    150.1144   2.6022    
4841.4     12.234     79.5997    147.9718   -0.05612478 -0.02892167 0.04169273 0.06011885 57         5.895100116729735 19.9716    147.9718   2.6018    
4841.6     12.2327    79.0452    144.9026   -0.04809098 -0.01057836 0.08330954 0.165501   57         5.957799911499023 19.7015    144.9026   2.5955    
4841.8     12.2337    78.493     138.8663   -0.0485734 -0.009496074 0.09617423 0.2435206  57         5.942500114440917 19.8138    138.8663   2.6264    
4842       12.234     78.3381    141.5105   -0.07411564 -0.0650576 -0.005010381 0.1071163  57         5.918000221252441 19.6916    141.5105   2.679     
4842.200000000001 12.235     78.5879    150.324    -0.06052862 -0.04172667 0.03212992 0.1608398  57         5.8847999572754 19.0625    150.324    2.6788    
4842.4     12.2337    79.0494    152.886    -0.06473622 -0.0511957 0.01575636 0.1499282  57         5.834799766540527 19.0486    152.886    2.6361    
4842.6     12.2326    79.4471    150.9816   -0.06392784 -0.05229219 0.01171667 0.1528083  57         5.88040018081665 19.3505    150.9816   2.614     
4842.8     12.2337    79.752     152.9726   -0.07659747 -0.083014  -0.05093157 0.04518759 57         5.893400192260742 19.2464    152.9726   2.6132    
4843       12.2324    80.0757    156.2574   -0.07774538 -0.09146561 -0.07696925 -0.02795291 57         5.886799812316895 19.216     156.2574   2.6083    
4843.200000000001 12.2287    80.496     157.3574   -0.07436344 -0.09070684 -0.08770272 -0.0939187 57         5.929800033569284 19.8417    157.3574   2.6011    
4843.4     12.2314    80.8082    159.2122   -0.05768032 -0.05475529 -0.0193311 0.004043511 57         5.889400005340576 19.8758    159.2122   2.5959    
4843.6     12.2337    80.7726    160.3963   -0.06708834 -0.07599344 -0.05953026 -0.07508399 57         5.891799926757813 20.049     160.3963   2.5922    
4843.8     12.235     80.4377    157.1469   -0.06311549 -0.06869251 -0.04796268 -0.08069036 57         5.928199768066407 19.8429    157.1469   2.5878    
4844       12.2327    80.0534    153.3793   -0.07088703 -0.08911788 -0.09294207 -0.1922596 57         5.901899814605713 20.0797    153.3793   2.5877    
