~Version
 VERS              .         2.0                           : CWLS LOG ASCII STANDARD - VERSION 2.0
 WRAP              .         NO                            : ONE LINE PER DEPTH STEP
 DLM               .         SPACE                         : DELIMITING CHARACTER(SPACE TAB OR COMMA)
~Well Information
#_______________________________________________________________________________
#
#PARAMETER_NAME    .UNIT     VALUE                         : DESCRIPTION
#_______________________________________________________________________________
STRT               .m        1542                          : First reference value
STOP               .m        5640.8                        : Last reference value
STEP               .m        0.2                           : Step increment
NULL               .         -9999                         : Missing value
COMP               .         PETROLEO BRASILEIRO S/A       : Company
WELL               .         4-ESS-174A_resample           : Well name
FLD                .         GOLFINHO                      : Field
LOC                .                                       : Location
CNTY               .                                       : County
STAT               .         ESPIRITO SANTO                : State
CTRY               .                                       : Country
SRVC               .                                       : Service Company
DATE               .                                       : Date
API                .         342710322400                  : API number
EDF                .M        19.00                         : Elevation Derrick Floor
GDAT               .         SIRGAS2000                    : Geodetic Datum
HZCS               .         UTM                           : Horizontal Coordinate System
LMF                .         MR                            : Log Measure From
LATI               .         -19_56_54.869                 : Latitude
LONG               .         -39_29_58.132                 : Longitude
MC                 .         39 W                          : Meridiano Central
ORIG               .         SIGEO EXPORTACAO PERFIL       : Origem dos dados
ORIGINALWELLNAME   .         4ESS 0174A ES                 : 
WDMS               .M        1199.00                       : Water Depth to Mean Sea Level
X                  .         447729.60                     : Surface X
Y                  .         7794048.90                    : Surface Y
~Parameter Information Block
#_______________________________________________________________________________
#
#PARAMETER_NAME    .UNIT     VALUE                         : DESCRIPTION
#_______________________________________________________________________________
SET                .         ESS174A_resample              : 
TLFamily_CALI      .         Caliper                       : 
TLFamily_DEPT      .         Measured Depth                : 
TLFamily_DT        .         Compressional Slowness        : 
TLFamily_GR        .         Gamma Ray                     : 
TLFamily_INPEFA_1  .                                       : 
TLFamily_INPEFA_2  .                                       : 
TLFamily_INPEFA_3  .                                       : 
TLFamily_INPEFA_4  .                                       : 
TLFamily_LITO      .                                       : 
TLFamily_LLD       .         Deep Resistivity              : 
TLFamily_NPHI      .         Neutron Porosity              : 
TLFamily_OG        .                                       : 
TLFamily_RHOB      .         Bulk Density                  : 
~Curve Information
#_______________________________________________________________________________
#
#LOGNAME           .UNIT     LOG_ID                        : DESCRIPTION
#_______________________________________________________________________________
DEPT               .m                                      :  
CALI               .in                                     : CALIPER 
DT                 .us/ft                                  : DELTA-T (ALSO CALLED SLOWNESS OR INTERVAL TRANSIT TIME) 
GR                 .gAPI                                   : GAMMA RAY 
INPEFA_1           .                                       :  
INPEFA_2           .                                       :  
INPEFA_3           .                                       :  
INPEFA_4           .                                       :  
LITO               .                                       :  
LLD                .ohm.m                                  : LATEROLOG DEEP RESISTIVITY 
NPHI               .%                                      : THERMAL NEUTRON POROSITY (ORIGINAL RATIO METHOD) IN SELECTED LITHOLOGY 
OG                 .                                       :  
RHOB               .g/cm3                                  : BULK DENSITY 
~Ascii
# ...
2370.8     -9999      -9999      94.3564    -0.1227879 0.08961967 0.1176374  0.1144326  57         -9999      -9999      94.3564    -9999     
2371       -9999      -9999      94.4598    -0.1296826 0.07351625 0.07836184 0.04209982 57         -9999      -9999      94.4598    -9999     
2371.2     -9999      -9999      100.8676   -0.1169825 0.1028833  0.1320493  0.1452529  57         -9999      -9999      100.8676   -9999     
2371.4     -9999      -9999      97.6196    -0.1305815 0.07668125 0.08276499 0.08546166 57         -9999      -9999      97.6196    -9999     
2371.6     -9999      -9999      94.2203    -0.1281399 0.07964484 0.07664182 0.05937869 57         -9999      -9999      94.2203    -9999     
2371.8     -9999      -9999      97.096     -0.1345775 0.06636917 0.04421858 -0.002260449 57         -9999      -9999      97.096     -9999     
2372       -9999      -9999      97.6135    -0.1074404 0.1251218  0.1499565  0.1800624  57         -9999      -9999      97.6135    -9999     
2372.2     -9999      -9999      99.8543    -0.1315157 0.07932127 0.06756458 0.08503174 57         -9999      -9999      99.8543    -9999     
2372.4     -9999      -9999      102.6074   -0.1278155 0.08175988 0.05605565 0.04859379 57         -9999      -9999      102.6074   -9999     
2372.6     -9999      -9999      101.2651   -0.1074847 0.130093   0.1501051  0.2384034  57         -9999      -9999      101.2651   -9999     
2372.8     -9999      -9999      99.3956    -0.1109659 0.1303661  0.1623411  0.3387195  57         -9999      -9999      99.3956    -9999     
2373       -9999      -9999      97.2392    -0.1267443 0.1009281  0.1112332  0.3226856  57         -9999      -9999      97.2392    -9999     
2373.2     -9999      -9999      98.7799    -0.1527126 0.04049007 -0.01717954 0.1203834  57         -9999      -9999      98.7799    -9999     
2373.4     -9999      -9999      103.275    -0.1392588 0.06664159 0.01958424 0.1845548  57         -9999      -9999      103.275    -9999     
2373.6     -9999      -9999      101.8253   -0.1418574 0.0610522  0.002709591 0.1822851  57         -9999      -9999      101.8253   -9999     
2373.8     -9999      -9999      98.2643    -0.1620584 0.01526984 -0.09807083 0.008804892 57         -9999      -9999      98.2643    -9999     
2374       -9999      -9999      99.0458    -0.1568279 0.01826681 -0.1189367 -0.07772551 57         -9999      -9999      99.0458    -9999     
2374.2     -9999      -9999      98.875     -0.1539615 0.02106005 -0.1323125 -0.1384367 57         -9999      -9999      98.875     -9999     
2374.4     -9999      -9999      99.3218    -0.1484049 0.03186339 -0.1253783 -0.1548415 57         -9999      -9999      99.3218    -9999     
2374.6     -9999      -9999      101.1671   -0.1447645 0.0375105  -0.1307144 -0.2004445 57         -9999      -9999      101.1671   -9999     
2374.8     -9999      -9999      102.6995   -0.1356836 0.05696034 -0.1058307 -0.1815552 57         -9999      -9999      102.6995   -9999     
2375       -9999      -9999      97.7741    -0.1317623 0.06641242 -0.09537804 -0.1692501 57         -9999      -9999      97.7741    -9999     
2375.2     -9999      -9999      96.5687    -0.1317694 0.07072274 -0.08937505 -0.1441609 57         -9999      -9999      96.5687    -9999     
2375.4     -9999      -9999      99.9325    -0.1462118 0.03727213 -0.166256  -0.2844086 57         -9999      -9999      99.9325    -9999     
2375.6     -9999      -9999      97.6363    -0.1516128 0.02184434 -0.2152565 -0.4120959 57         -9999      -9999      97.6363    -9999     
2375.8     -9999      -9999      93.9109    -0.1419213 0.03878851 -0.2030627 -0.4423067 57         -9999      -9999      93.9109    -9999     
2376       -9999      -9999      98.072     -0.1431949 0.03243034 -0.2352013 -0.5540045 49         -9999      -9999      98.072     -9999     
2376.2     -9999      -9999      108.0695   -0.1172343 0.08993603 -0.1352935 -0.4142639 49         -9999      -9999      108.0695   -9999     
2376.4     -9999      -9999      111.7866   -0.1162934 0.09594056 -0.1253247 -0.3888639 49         -9999      -9999      111.7866   -9999     
2376.6     -9999      -9999      108.4575   -0.1329145 0.0629767  -0.1930615 -0.5068518 49         -9999      -9999      108.4575   -9999     
2376.8     -9999      -9999      108.6037   -0.1093808 0.1123045  -0.1104912 -0.3878866 49         -9999      -9999      108.6037   -9999     
2377       -9999      -9999      109.5595   -0.1217123 0.09169725 -0.1477863 -0.4265461 49         -9999      -9999      109.5595   -9999     
2377.2     -9999      -9999      106.6824   -0.1061596 0.1264852  -0.08535614 -0.3056248 49         -9999      -9999      106.6824   -9999     
2377.4     -9999      -9999      102.118    -0.1159583 0.1115422  -0.1085791 -0.2976799 49         -9999      -9999      102.118    -9999     
2377.6     -9999      -9999      98.7998    -0.1214452 0.1015549  -0.1301093 -0.3041336 49         -9999      -9999      98.7998    -9999     
2377.8     -9999      -9999      96.0642    -0.1295568 0.08357409 -0.1722189 -0.3633379 49         -9999      -9999      96.0642    -9999     
2378       -9999      -9999      93.795     -0.1433715 0.05252916 -0.2428583 -0.4916563 49         -9999      -9999      93.795     -9999     
2378.2     -9999      -9999      94.2025    -0.1334292 0.0680446  -0.2346078 -0.5246623 49         -9999      -9999      94.2025    -9999     
2378.4     -9999      -9999      98.562     -0.1314466 0.07132485 -0.2416294 -0.5702901 49         -9999      -9999      98.562     -9999     
2378.6     -9999      -9999      103.4682   -0.1220135 0.09231089 -0.2108768 -0.5446259 49         -9999      -9999      103.4682   -9999     
2378.8     -9999      -9999      103.3157   -0.1121673 0.1147331  -0.1755704 -0.5052607 49         -9999      -9999      103.3157   -9999     
2379       -9999      -9999      99.7832    -0.109283  0.1260715  -0.1536096 -0.4625409 49         -9999      -9999      99.7832    -9999     
2379.2     -9999      -9999      93.2552    -0.1149299 0.1146227  -0.1817285 -0.5206909 49         -9999      -9999      93.2552    -9999     
2379.4     -9999      -9999      88.2053    -0.1095523 0.1271871  -0.1649509 -0.5151544 49         -9999      -9999      88.2053    -9999     
2379.6     -9999      -9999      91.8208    -0.09964816 0.1525426  -0.1176853 -0.4387637 49         -9999      -9999      91.8208    -9999     
2379.8     -9999      -9999      93.6846    -0.1028772 0.1484856  -0.1273808 -0.4538189 49         -9999      -9999      93.6846    -9999     
2380       -9999      -9999      93.5513    -0.1033277 0.1493757  -0.1293443 -0.4646733 49         -9999      -9999      93.5513    -9999     
2380.2     -9999      -9999      93.0006    -0.1019648 0.15432    -0.122958  -0.4644914 49         -9999      -9999      93.0006    -9999     
2380.4     -9999      -9999      94.2214    -0.09537634 0.1715637  -0.09126788 -0.4203151 49         -9999      -9999      94.2214    -9999     
2380.6     -9999      -9999      97.8883    -0.07805507 0.2162053  0.002825943 -0.237209  49         -9999      -9999      97.8883    -9999     
2380.8     -9999      -9999      101.9405   -0.09397619 0.1902537  -0.03360652 -0.2540697 49         -9999      -9999      101.9405   -9999     
2381       -9999      -9999      106.2203   -0.09632642 0.186979   -0.04003828 -0.2668719 49         -9999      -9999      106.2203   -9999     
2381.2     -9999      -9999      106.239    -0.09576651 0.1928729  -0.02458414 -0.2382312 49         -9999      -9999      106.239    -9999     
2381.4     -9999      -9999      101.938    -0.09137636 0.2052383  0.000227926 -0.2062076 49         -9999      -9999      101.938    -9999     
2381.6     -9999      -9999      96.8424    -0.0791233 0.2404596  0.07962891 -0.0497409 49         -9999      -9999      96.8424    -9999     
2381.8     -9999      -9999      92.1253    -0.08963809 0.2245744  0.06046586 -0.05442423 49         -9999      -9999      92.1253    -9999     
