~Version
 VERS              .         2.0                           : CWLS LOG ASCII STANDARD - VERSION 2.0
 WRAP              .         NO                            : ONE LINE PER DEPTH STEP
 DLM               .         SPACE                         : DELIMITING CHARACTER(SPACE TAB OR COMMA)
~Well Information
#_______________________________________________________________________________
#
#PARAMETER_NAME    .UNIT     VALUE                         : DESCRIPTION
#_______________________________________________________________________________
STRT               .m        2424.989                      : First reference value
STOP               .m        5587.189                      : Last reference value
STEP               .m        0.2                           : Step increment
NULL               .         -9999                         : Missing value
COMP               .         PETROLEO BRASILEIRO S/A       : Company
WELL               .         4ESS 0138  ES                 : Well name
FLD                .         CANAPU                        : Field
LOC                .                                       : Location
CNTY               .                                       : County
STAT               .         ESPIRITO SANTO                : State
CTRY               .                                       : Country
SRVC               .                                       : Service Company
DATE               .                                       : Date
API                .         342710293200                  : API number
EDF                .M        18.00                         : Elevation Derrick Floor
GDAT               .         SIRGAS2000                    : Geodetic Datum
HZCS               .         UTM                           : Horizontal Coordinate System
LAT                .         -20.018293                    : Latitude
LONG               .         -39.316753                    : Longitude
MC                 .         39 W                          : Meridiano Central
ORIG               .         SIGEO EXPORTACAO PERFIL       : Origem dos dados
WDMS               .M        1614.00                       : Water Depth to Mean Sea Level
XCOORD             .         466869.60                     : Surface X
YCOORD             .         7786462.90                    : Surface Y
~Parameter Information Block
#_______________________________________________________________________________
#
#PARAMETER_NAME    .UNIT     VALUE                         : DESCRIPTION
#_______________________________________________________________________________
SET                .         ESS138_resample               : 
TLFamily_CALI      .         Caliper                       : 
TLFamily_DEPT      .         Measured Depth                : 
TLFamily_DT        .         Compressional Slowness        : 
TLFamily_DTS       .         Compressional Slowness        : 
TLFamily_GR        .         Gamma Ray                     : 
TLFamily_INPEFA_1  .                                       : 
TLFamily_INPEFA_2  .                                       : 
TLFamily_INPEFA_3  .                                       : 
TLFamily_INPEFA_4  .                                       : 
TLFamily_LITO      .                                       : 
TLFamily_NPHI      .         Neutron Porosity              : 
TLFamily_OG        .                                       : 
TLFamily_RESD      .         Deep Resistivity              : 
TLFamily_RESM      .         Medium Resistivity            : 
TLFamily_RESS      .         Shallow Resistivity           : 
TLFamily_RHOB      .         Bulk Density                  : 
TLFamily_TVD       .         True Vertical Depth           : 
~Curve Information
#_______________________________________________________________________________
#
#LOGNAME           .UNIT     LOG_ID                        : DESCRIPTION
#_______________________________________________________________________________
DEPT               .m                                      :  
CALI               .in                                     :  
DT                 .us/ft                                  :  
DTS                .us/ft                                  :  
GR                 .gAPI                                   : GAMMA RAY 
INPEFA_1           .                                       :  
INPEFA_2           .                                       :  
INPEFA_3           .                                       :  
INPEFA_4           .                                       :  
LITO               .Sem                                    : Não definido 
NPHI               .%                                      : THERMAL NEUTRON POROSITY (ORIGINAL RATIO METHOD) IN SELECTED LITHOLOGY 
OG                 .                                       :  
RESD               .ohm.m                                  :  
RESM               .ohm.m                                  :  
RESS               .ohm.m                                  :  
RHOB               .g/cm3                                  :  
TVD                .                                       : Vertical Depth 
~Ascii
# ...
5147.789000000001 8.907212   81.65963006207191 153.1607   169.4929   0.005937745 -0.1643002 0.1393869  -0.5322762 57         24.7909    169.4929   2.942793269114177 3.047115986153075 4.456593995518585 2.612873   5146.6013 
5147.989   8.910198   81.0756917838372 152.6316   164.4221   -0.006681015 -0.1968248 0.117167   -0.4941838 57         24.32245   164.4221   2.94652971619214 3.014881692906116 4.568259309851138 2.602623   5146.801  
5148.189   8.918679   80.26500283388739 152.3577   157.8295   0.01651322 -0.1364605 0.2306818  -0.2263094 57         24.37987   157.8295   2.842395587242176 2.885202241904372 4.70759268728647 2.615594   5147.000693438321
5148.389   8.912436   79.85265404408341 152.1842   158.8398   -0.01595562 -0.200561  0.1939708  -0.07318351 57         25.05024   158.8398   2.768011009590692 2.857122168829916 4.705617955412436 2.685165   5147.200368503936
5148.589   8.895603   80.30464222424912 151.4963   164.0645   -0.04352937 -0.2879907 0.07375003 -0.152077  57         24.98094   164.0645   2.77268208115111 2.873707839364357 4.610185945174615 2.634892   5147.400043569553
5148.789000000001 8.909495   81.16665335027416 150.7784   165.6529   -0.02926737 -0.2615524 0.1140747  0.008200689 57         24.92886   165.6529   2.767561315484999 2.850193600796787 4.556736126674325 2.602514   5147.599718635172
5148.989   8.909938   81.84179807647901 150.4298   166.5047   -0.04915647 -0.3171316 0.04790987 0.04770762 57         24.18215   166.5047   2.651383363739853 2.71250565156926 4.537811798274319 2.625801   5147.799393700787
5149.189   8.922419   81.89255339454729 150.683    164.7158   -0.05604063 -0.3549505 -0.02125535 0.01722928 57         24.28429   164.7158   2.534796567209935 2.586342435470533 4.52570646924524 2.611157   5147.999068766404
5149.389   8.910565   81.59277507952163 151.3576   159.4826   -0.04335289 -0.3363172 -0.008189069 0.09703753 57         22.01292   159.4826   2.451265643247679 2.51094717806178 4.460655369742081 2.613833   5148.198743832021
5149.589   8.907771   81.39400722473629 152.33     156.9595   -0.0420366 -0.3434491 -0.02556543 0.166971   57         22.75711   156.9595   2.438205503952921 2.508727368062276 4.298292406827204 2.629821   5148.398418897637
5149.789000000001 8.917785   81.69638253760412 152.7234   160.1814   -0.03770377 -0.3429425 -0.03530284 0.2496386  57         24.17212   160.1814   2.439852297840791 2.509352660850481 4.138432348378625 2.61554    5148.598100000001
5149.989   8.93409    82.20203916294226 152.7642   163.2849   -0.03615508 -0.3467534 -0.05026611 0.3385476  57         23.10176   163.2849   2.408826336560355 2.461063639953019 4.064044674264445 2.611679   5148.797799999999
5150.189   8.90264    82.42628334826398 152.9671   164.2603   -0.04577135 -0.3849831 -0.1268084 0.31068    57         23.81245   164.2603   2.361140270770763 2.411388346640303 4.036807360795347 2.601952   5148.9975 
5150.389   8.899732   82.27236019344785 153.7505   165.0104   -0.03567748 -0.3774562 -0.1508589 0.3218615  57         25.11444   165.0104   2.346880342852147 2.408688279252183 3.971534119471823 2.603991   5149.1972 
5150.589   8.91115    82.30113564638943 155.5392   164.4707   -0.02064888 -0.3485276 -0.1333466 0.428228   57         25.38521   164.4707   2.394579787537542 2.453801524811596 3.867775743244583 2.6003     5149.396894225722
5150.789000000001 8.912503   82.83071460874309 157.746    162.5329   -0.0373822 -0.4015146 -0.2382434 0.3339522  57         23.1537    162.5329   2.443923269592977 2.482043599146157 3.80872602863521 2.594122   5149.596500000001
5150.989   8.908639   83.6355115234674 159.628    162.0711   -0.01007072 -0.3516142 -0.2137981 0.3789792  57         23.52318   162.0711   2.4822592923108 2.520059405984385 3.796768998790786 2.596845   5149.7962 
5151.189   8.915638   84.21317857957664 160.6235   161.178    -0.01254214 -0.3622906 -0.259162  0.3453979  57         23.90792   161.178    2.509547453854104 2.56091983545614 3.821905971180909 2.605795   5149.995900000001
5151.389   8.914565   84.55922428641688 160.8365   162.7984   0.01057699 -0.317044  -0.2368452 0.3878405  57         24.21432   162.7984   2.514744087862265 2.580003798951717 3.867295518338338 2.596392   5150.195594488189
5151.589   8.913022   84.99458288958655 160.3997   168.448    0.02210246 -0.2853568 -0.2130071 0.4858566  57         23.85663   168.448    2.542929618563615 2.624188189228383 3.919271177552683 2.571496   5150.3952 
5151.789000000001 8.919248   85.71335804056082 160.0196   171.9238   0.001625524 -0.3371338 -0.3138514 0.384029   57         27.13276   171.9238   2.608238845757482 2.693259335990749 3.982654043163339 2.571154   5150.594900000001
5151.989   8.909356   86.49178566519423 159.7391   172.2812   0.007006382 -0.3471453 -0.3987534 0.161885   57         26.42652   172.2812   2.670773036724901 2.726553006889904 4.0400111849653 2.577343   5150.794599999999
5152.189   8.903421   86.97177430400664 159.0552   171.6862   0.02524505 -0.3081448 -0.4017352 0.04629286 57         24.52854   171.6862   2.654077618185176 2.68921948369749 4.121940717222448 2.575348   5150.994294750656
5152.389   8.913836   86.62571185655023 157.8642   169.5023   0.05300295 -0.2585296 -0.4041531 -0.1322098 57         23.89083   169.5023   2.55808934750484 2.589922196570123 4.244718644128641 2.570941   5151.1939 
5152.589   8.915624   85.42772644523663 155.9944   166.0908   0.08979075 -0.1539038 -0.2919421 -0.08219951 57         25.91663   166.0908   2.519277361206765 2.562497444727921 4.339435748971059 2.601561   5151.3936 
5152.789000000001 8.8943     83.80305288719526 154.4865   162.8036   0.07420839 -0.1927601 -0.3877023 -0.3519247 57         24.25997   162.8036   2.516440628782803 2.574981630671148 4.354339343677383 2.62222    5151.593219947507
5152.989   8.901375   82.60387014153983 154.0072   160.6691   0.1224608  -0.08110733 -0.2948401 -0.4578379 57         22.24134   160.6691   2.535269797963705 2.615184390523229 4.266465330255199 2.622745   5151.7929 
5153.189   8.906118   82.15538235161218 153.7951   160.2333   0.1742723  0.07250214 -0.09094096 -0.2873285 57         23.83379   160.2333   2.543078634635454 2.63897434537647 4.173206095148534 2.622071   5151.992600000001
5153.389   8.910957   82.09399976755377 153.1572   159.3739   0.1906388  0.1476016  0.03199042 -0.16995   57         25.92085   159.3739   2.549958197790738 2.661429021817662 4.13114669616915 2.618719   5152.192245144357
5153.589   8.896811   81.84856703150032 152.5439   156.5649   0.1826486  0.1801151  0.130298   0.09689969 57         24.87649   156.5649   2.572386272160765 2.696008992716549 4.139929472334675 2.6231     5152.391920209973
5153.789000000001 8.90729    81.26686540738498 152.0175   155.3071   0.1160165  0.0328572  -0.06123659 -0.1355207 57         23.96836   155.3071   2.609305662552079 2.713947235803621 4.160822798094426 2.626599   5152.591595275591
5153.989   8.918376   80.56814801474195 151.8533   153.6437   0.1366242  0.08483231 -0.01213306 -0.1304905 57         23.93591   153.6437   2.568197249408198 2.626863096872348 4.174041313650395 2.623706   5152.791270341207
5154.189   8.915476   80.04896124892302 151.7701   151.2775   0.1214331  0.06744459 -0.03128583 -0.1705546 57         23.0341    151.2775   2.49416613976343 2.53653791950766 4.178093503527227 2.6095     5152.990945406825
5154.389   8.923989   79.90954565814155 151.6393   148.2234   0.1342799  0.09421699 -0.02393668 -0.2792025 57         22.27457   148.2234   2.444068396051529 2.483729776766795 4.103424243227954 2.615634   5153.1906 
5154.589   8.910855   80.17155200227313 151.7188   145.0289   0.1398424  0.1349837  0.03947485 -0.2540396 57         21.99101   145.0289   2.46496085112928 2.500307468835578 3.963846422302568 2.624599   5153.390295538058
5154.789000000001 8.902393   80.81221765233153 151.9281   145.961    0.1320189  0.1202203  0.007039714 -0.4087596 57         22.00958   145.961    2.511804310469898 2.547569648015498 3.869376692581036 2.603394   5153.589900000001
5154.989   8.920763   81.39892079510913 151.1965   148.8696   0.1611535  0.2096481  0.1286335  -0.3534645 57         20.54005   148.8696   2.60581756009887 2.669247802143731 3.871335845348121 2.609189   5153.78954566929
