~Version
 VERS              .         2.0                           : CWLS LOG ASCII STANDARD - VERSION 2.0
 WRAP              .         NO                            : ONE LINE PER DEPTH STEP
 DLM               .         SPACE                         : DELIMITING CHARACTER(SPACE TAB OR COMMA)
~Well Information
#_______________________________________________________________________________
#
#PARAMETER_NAME    .UNIT     VALUE                         : DESCRIPTION
#_______________________________________________________________________________
STRT               .m        1542                          : First reference value
STOP               .m        5640.8                        : Last reference value
STEP               .m        0.2                           : Step increment
NULL               .         -9999                         : Missing value
COMP               .         PETROLEO BRASILEIRO S/A       : Company
WELL               .         4-ESS-174A_resample           : Well name
FLD                .         GOLFINHO                      : Field
LOC                .                                       : Location
CNTY               .                                       : County
STAT               .         ESPIRITO SANTO                : State
CTRY               .                                       : Country
SRVC               .                                       : Service Company
DATE               .                                       : Date
API                .         342710322400                  : API number
EDF                .M        19.00                         : Elevation Derrick Floor
GDAT               .         SIRGAS2000                    : Geodetic Datum
HZCS               .         UTM                           : Horizontal Coordinate System
LMF                .         MR                            : Log Measure From
LATI               .         -19_56_54.869                 : Latitude
LONG               .         -39_29_58.132                 : Longitude
MC                 .         39 W                          : Meridiano Central
ORIG               .         SIGEO EXPORTACAO PERFIL       : Origem dos dados
ORIGINALWELLNAME   .         4ESS 0174A ES                 : 
WDMS               .M        1199.00                       : Water Depth to Mean Sea Level
X                  .         447729.60                     : Surface X
Y                  .         7794048.90                    : Surface Y
~Parameter Information Block
#_______________________________________________________________________________
#
#PARAMETER_NAME    .UNIT     VALUE                         : DESCRIPTION
#_______________________________________________________________________________
SET                .         ESS174A_resample              : 
TLFamily_CALI      .         Caliper                       : 
TLFamily_DEPT      .         Measured Depth                : 
TLFamily_DT        .         Compressional Slowness        : 
TLFamily_GR        .         Gamma Ray                     : 
TLFamily_INPEFA_1  .                                       : 
TLFamily_INPEFA_2  .                                       : 
TLFamily_INPEFA_3  .                                       : 
TLFamily_INPEFA_4  .                                       : 
TLFamily_LITO      .                                       : 
TLFamily_LLD       .         Deep Resistivity              : 
TLFamily_NPHI      .         Neutron Porosity              : 
TLFamily_OG        .                                       : 
TLFamily_RHOB      .         Bulk Density                  : 
~Curve Information
#_______________________________________________________________________________
#
#LOGNAME           .UNIT     LOG_ID                        : DESCRIPTION
#_______________________________________________________________________________
DEPT               .m                                      :  
CALI               .in                                     : CALIPER 
DT                 .us/ft                                  : DELTA-T (ALSO CALLED SLOWNESS OR INTERVAL TRANSIT TIME) 
GR                 .gAPI                                   : GAMMA RAY 
INPEFA_1           .                                       :  
INPEFA_2           .                                       :  
INPEFA_3           .                                       :  
INPEFA_4           .                                       :  
LITO               .                                       :  
LLD                .ohm.m                                  : LATEROLOG DEEP RESISTIVITY 
NPHI               .%                                      : THERMAL NEUTRON POROSITY (ORIGINAL RATIO METHOD) IN SELECTED LITHOLOGY 
OG                 .                                       :  
RHOB               .g/cm3                                  : BULK DENSITY 
~Ascii
# ...
3244.4     12.8316    106.4149   78.3433    -0.1328403 0.01193233 0.04789973 -0.02884742 57         1.059000015258789 34.1994    78.3433    2.3226    
3244.6     12.8254    101.2923   62.5135    -0.1275885 0.02769588 0.06607988 -0.009596061 57         1.382699966431374 31.9441    62.5135    2.3522    
3244.8     12.7708    95.469     57.2002    -0.1386476 0.01205059 0.02925162 -0.06708993 57         1.698600053787231 26.0421    57.2002    2.3994    
3245       12.7039    94.8152    62.935     -0.1520356 -0.01856325 -0.05391233 -0.253379  6          1.781100034713745 21.2604    62.935     2.4379    
3245.2     12.7031    99.2715    72.0859    -0.1456849 -0.003460127 -0.04740997 -0.2957883 6          1.477100014686585 22.1347    72.0859    2.433     
3245.4     12.7093    108.2108   82.4207    -0.1376756 0.01186403 -0.04462538 -0.3617319 6          1.228299975395203 25.845     82.4207    2.3913    
3245.6     12.7867    113.0359   92.2429    -0.1177998 0.06291042 0.04278526 -0.2445672 6          1.026100039481839 28.8679    92.2429    2.3466    
3245.8     12.852     113.8256   97.932     -0.1285679 0.04337758 -0.008797038 -0.3648019 6          0.9531000256538391 31.608     97.932     2.314     
3246       12.7411    112.5258   99.4223    -0.118979  0.06983641 0.02873149 -0.3414477 57         0.9997000098228455 33.2199    99.4223    2.2987    
3246.2     12.8934    106.0723   98.7612    -0.1288666 0.0503316  -0.02712489 -0.4927684 57         1.166599988937378 33.2407    98.7612    2.3109    
3246.4     12.8064    98.7218    95.5526    -0.1294913 0.04935048 -0.05298515 -0.6310591 57         1.374799966812134 31.426     95.5526    2.3482    
3246.6     12.6332    93.568     90.0864    -0.1134122 0.08424173 -0.01098987 -0.6778554 57         1.598899960517998 26.4078    90.0864    2.4004    
3246.8     12.6799    91.543     81.2837    -0.07877436 0.1668899  0.1368057  -0.5099528 57         1.702800035476685 22.9452    81.2837    2.4359    
3247       12.767     92.5697    70.828     -0.0790602 0.1767973  0.153798   -0.5344037 57         1.60889995098114 23.0099    70.828     2.4409    
3247.2     12.6478    96.2069    67.9152    -0.05824881 0.2303292  0.2510293  -0.4339325 57         1.403800010681152 23.7518    67.9152    2.4144    
3247.4     12.6742    101.1089   71.5159    -0.04044588 0.2819724  0.3570214  -0.273011  57         1.264600038528442 27.7811    71.5159    2.3862    
3247.6     12.6669    105.9799   73.98      -0.03969065 0.3061732  0.4311786  -0.09015227 57         1.211199998855137 30.4049    73.98      2.3849    
3247.8     12.7281    109.8393   77.789     -0.05365177 0.2885074  0.4114984  -0.08525193 57         1.116000056266785 30.172     77.789     2.3772    
3248       12.6907    111.4438   84.8432    -0.06124604 0.2850104  0.418205   -0.04389808 57         1.127599954605103 29.944     84.8432    2.3554    
3248.2     12.7144    111.1666   88.7525    -0.06768241 0.2844785  0.4319216  0.01731612 57         1.146100044250488 29.839     88.7525    2.3365    
3248.4     12.8106    110.6696   85.6837    -0.08448149 0.2570187  0.3852408  -0.04546103 57         1.322000026702881 29.5883    85.6837    2.3433    
3248.6     12.8128    110.4783   78.837     -0.08614961 0.2564396  0.3769391  -0.08796373 57         1.728399991990595 28.2507    78.837     2.4008    
3248.8     12.8084    109.9949   76.1661    -0.08232117 0.2716963  0.4051219  -0.05327605 57         2.542799949645996 23.1701    76.1661    2.4731    
3249       12.6491    108.2731   77.1975    -0.07374584 0.2988344  0.4613127  0.05631011 49         3.503999948501587 14.6269    77.1975    2.5232    
3249.2     12.5688    104.0829   79.7716    -0.07912666 0.295748   0.4615831  0.08856841 49         3.333800077438355 8.6807     79.7716    2.5359    
3249.4     12.4758    98.2918    82.1927    -0.09218984 0.2763227  0.4318348  0.07939025 49         2.530400037765503 10.0682    82.1927    2.5053    
3249.6     12.6348    94.5872    79.5321    -0.09664665 0.2690151  0.4145004  0.06101178 49         2.01200008392267 16.7371    79.5321    2.4881    
3249.8     12.6501    93.8314    69.4192    -0.1007473 0.2674273  0.4154706  0.09000226 49         1.798099994659424 20.3981    69.4192    2.4996    
3250       12.683     94.3668    62.2601    -0.09844072 0.2761994  0.4328058  0.1418269  57         1.831400036811829 21.4141    62.2601    2.4919    
3250.2     12.6829    96.2716    60.083     -0.09366127 0.2968588  0.4842697  0.2878391  57         1.801900029182434 23.171     60.083     2.4562    
3250.4     12.6803    99.8473    58.0766    -0.1043277 0.2811323  0.4644803  0.321424   57         1.744099974632263 23.3874    58.0766    2.4338    
3250.6     12.6724    104.9626   60.4628    -0.1110943 0.2753592  0.4642777  0.3899916  57         1.564499974250087 22.4578    60.4628    2.4195    
3250.8     12.6622    109.715    69.8959    -0.127647  0.2424415  0.4017278  0.3290458  57         1.388000011444092 24.4934    69.8959    2.376     
3251       12.6938    112.4244   80.3844    -0.1299621 0.24076    0.3966492  0.3574061  57         1.244300007820129 27.8956    80.3844    2.3468    
3251.2     12.6602    113.2802   87.4176    -0.1360248 0.2308779  0.3773659  0.373991   57         1.148900032043457 30.8178    87.4176    2.3521    
3251.4     12.6933    112.7702   93.0958    -0.1512548 0.1992491  0.3108705  0.2971375  57         1.064000010490418 32.985     93.0958    2.3546    
3251.6     12.8495    111.1789   95.8282    -0.1499162 0.1984992  0.2941501  0.2772145  57         1.099400043487435 33.2887    95.8282    2.3503    
3251.8     12.7514    108.7825   93.7193    -0.1567122 0.1844705  0.2581135  0.2394648  57         1.103099942207336 32.8979    93.7193    2.3417    
3252       12.7548    106.7549   88.9995    -0.1620255 0.1688957  0.2112464  0.1586012  57         1.160099983215332 32.1649    88.9995    2.3344    
3252.2     12.8164    106.3502   86.9965    -0.156711  0.1793033  0.2175362  0.1681272  57         1.208299994468689 32.2783    86.9965    2.3335    
3252.4     12.7822    107.5149   90.8917    -0.1498359 0.1951186  0.2394508  0.224375   57         1.153800010681152 32.4546    90.8917    2.3306    
3252.6     12.75      109.1727   95.3447    -0.1490653 0.1974416  0.2355759  0.2424828  57         1.080000042915184 32.6041    95.3447    2.3265    
3252.8     12.8603    110.1237   97.1686    -0.1588889 0.1797797  0.1983876  0.2208821  57         1.020599961280823 32.7825    97.1686    2.3321    
3253       12.937     109.9761   95.8724    -0.1769118 0.1334749  0.08609912 0.01155866 57         1.02209997177124 32.9023    95.8724    2.3445    
3253.2     12.8279    109.4249   93.3447    -0.1690718 0.146524   0.08960694 -0.01485441 57         1.046300053596497 33.2359    93.3447    2.3515    
3253.4     12.8529    109.3846   93.4408    -0.1768045 0.1272564  0.03540697 -0.1305923 57         1.031499981880188 33.0958    93.4408    2.3529    
3253.6     12.6811    110.3631   96.9362    -0.1909453 0.08861458 -0.06977985 -0.3921391 57         1.005399942398035 34.3808    96.9362    2.3452    
3253.8     12.6481    112.1748   101.9276   -0.1783207 0.1034597  -0.08360355 -0.5568729 57         0.9915000200271606 35.2815    101.9276   2.3269    
3254       12.6806    114.232    104.9942   -0.1479849 0.1613355  -0.007299575 -0.5655602 57         0.9940000176429749 33.7241    104.9942   2.3081    
3254.2     12.6918    115.7016   105.3896   -0.119209  0.2262959  0.103998   -0.4541412 57         0.8950999975204468 34.118     105.3896   2.2996    
3254.4     12.755     116.3026   106.6165   -0.1023044 0.263007   0.16123    -0.4239125 57         0.8585000038146973 36.5013    106.6165   2.2953    
3254.6     12.7715    115.8222   106.0671   -0.1182887 0.2350742  0.1053491  -0.561621  57         0.8691999912262942 37.4881    106.0671   2.2958    
3254.8     12.8024    114.1664   104.1056   -0.09997558 0.2682186  0.1468326  -0.5905123 57         0.9124000072479248 37.2385    104.1056   2.3143    
3255       12.8217    110.0707   102.9227   -0.0608485 0.3672166  0.353862   -0.2215246 49         0.9872000217437744 34.1043    102.9227   2.3294    
