~Version
 VERS              .         2.0                           : CWLS LOG ASCII STANDARD - VERSION 2.0
 WRAP              .         NO                            : ONE LINE PER DEPTH STEP
 DLM               .         SPACE                         : DELIMITING CHARACTER(SPACE TAB OR COMMA)
~Well Information
#_______________________________________________________________________________
#
#PARAMETER_NAME    .UNIT     VALUE                         : DESCRIPTION
#_______________________________________________________________________________
STRT               .m        1537                          : First reference value
STOP               .m        5197.8                        : Last reference value
STEP               .m        0.2                           : Step increment
NULL               .         -9999                         : Missing value
COMP               .         PETROLEO BRASILEIRO S/A       : Company
WELL               .         4-ESS-151_resample            : Well name
FLD                .         GOLFINHO                      : Field
LOC                .                                       : Location
CNTY               .                                       : County
STAT               .         ESPIRITO SANTO                : State
CTRY               .                                       : Country
SRVC               .                                       : Service Company
DATE               .                                       : Date
API                .         342710302200                  : API number
EDF                .M        18.00                         : Elevation Derrick Floor
GDAT               .         SIRGAS2000                    : Geodetic Datum
HZCS               .         UTM                           : Horizontal Coordinate System
LMF                .         MR                            : Log Measure From
LATI               .         -19_56_15.689                 : Latitude
LONG               .         -39_25_50.073                 : Longitude
MC                 .         39 W                          : Meridiano Central
ORIG               .         SIGEO EXPORTACAO PERFIL       : Origem dos dados
ORIGINALWELLNAME   .         4ESS 0151  ES                 : 
WDMS               .M        1332.00                       : Water Depth to Mean Sea Level
X                  .         454939.60                     : Surface X
Y                  .         7795340.90                    : Surface Y
~Parameter Information Block
#_______________________________________________________________________________
#
#PARAMETER_NAME    .UNIT     VALUE                         : DESCRIPTION
#_______________________________________________________________________________
SET                .         ESS151_resample               : 
TLFamily_CALI      .         Caliper                       : 
TLFamily_DEPT      .         Measured Depth                : 
TLFamily_DT        .         Compressional Slowness        : 
TLFamily_GR        .         Gamma Ray                     : 
TLFamily_INPEFA_1  .                                       : 
TLFamily_INPEFA_2  .                                       : 
TLFamily_INPEFA_3  .                                       : 
TLFamily_INPEFA_4  .                                       : 
TLFamily_LITO      .                                       : 
TLFamily_LLD       .         Deep Resistivity              : 
TLFamily_NPHI      .         Neutron Porosity              : 
TLFamily_OG        .                                       : 
TLFamily_RHOB      .         Bulk Density                  : 
~Curve Information
#_______________________________________________________________________________
#
#LOGNAME           .UNIT     LOG_ID                        : DESCRIPTION
#_______________________________________________________________________________
DEPT               .m                                      :  
CALI               .in                                     : CALIPER 
DT                 .us/ft                                  : DELTA-T (ALSO CALLED SLOWNESS OR INTERVAL TRANSIT TIME) 
GR                 .gAPI                                   : GAMMA RAY 
INPEFA_1           .                                       :  
INPEFA_2           .                                       :  
INPEFA_3           .                                       :  
INPEFA_4           .                                       :  
LITO               .                                       :  
LLD                .ohm.m                                  : LATEROLOG DEEP RESISTIVITY 
NPHI               .%                                      : THERMAL NEUTRON POROSITY (ORIGINAL RATIO METHOD) IN SELECTED LITHOLOGY 
OG                 .                                       :  
RHOB               .g/cm3                                  : BULK DENSITY 
~Ascii
# ...
4817       8.5272     69.5435    156.258    -0.2046639 -0.0615254 0.1118452  0.04489207 49         -9999      12.2163    156.258    2.4852    
4817.200000000001 8.5111     70.7104    158.7478   -0.3238104 -0.340755  -0.2336337 -0.1225098 49         -9999      11.3164    158.7478   2.4459    
4817.4     8.4555     72.4124    159.3213   -0.2960612 -0.3701001 -0.3965757 -0.5032913 49         -9999      10.6158    159.3213   2.4065    
4817.6     8.4191     74.3514    148.0564   -0.2230325 -0.2032844 -0.1599991 -0.2849312 49         -9999      9.4978     148.0564   2.3927    
4817.8     8.4448     76.9082    132.1732   -0.219247  -0.2294507 -0.2127877 -0.4053827 49         -9999      9.6147     132.1732   2.4092    
4818       8.5026     79.3692    116.7248   -0.202811  -0.1828237 -0.1016485 -0.2224644 49         -9999      10.8327    116.7248   2.4476    
4818.200000000001 8.5584     80.4068    100.2222   -0.2189068 -0.2411778 -0.150815  -0.119395  49         -9999      15.2951    100.2222   2.4687    
4818.4     8.5485     79.5878    126.4828   -0.2941467 -0.4789526 -0.5531574 -0.7114984 49         -9999      17.624     126.4828   2.4514    
4818.6     8.5635     77.3499    158.1852   -0.1657776 -0.2198783 -0.2377795 -0.555863  49         -9999      21.5829    158.1852   2.4411    
4818.8     8.5383     74.7122    157.9014   -0.2053473 -0.309402  -0.3217798 -0.602801  49         -9999      18.0336    157.9014   2.4456    
4819       8.5172     72.953     144.2888   -0.145062  -0.1935355 -0.1475785 -0.3989374 49         -9999      15.103     144.2888   2.4557    
4819.200000000001 8.567      73.044     144.9661   -0.1867785 -0.307986  -0.2698244 -0.3748712 49         -9999      15.924     144.9661   2.4797    
4819.4     8.6576     74.1109    143.8261   -0.1412791 -0.2329279 -0.129541  0.009645608 49         -9999      17.6758    143.8261   2.4638    
4819.6     8.5715     75.4659    147.0396   -0.2153702 -0.4501571 -0.431592  -0.2029281 49         -9999      17.9306    147.0396   2.4314    
4819.8     8.4408     77.1266    164.5568   -0.1835673 -0.4181813 -0.4059395 -0.1740132 49         -9999      19.2579    164.5568   2.4185    
4820       8.474      77.0284    141.9344   -0.1738631 -0.4336791 -0.4469851 -0.279108  49         -9999      16.0519    141.9344   2.3995    
4820.200000000001 8.513      74.8223    122.3398   -0.1347453 -0.3522454 -0.3112575 -0.1151575 49         -9999      15.0659    122.3398   2.3973    
4820.4     8.5124     71.5534    117.9222   -0.1363488 -0.3698497 -0.3139531 -0.08742821 49         -9999      17.0478    117.9222   2.4164    
4820.6     8.482      66.5051    104.447    -0.130923  -0.3659811 -0.2876128 -0.01348416 49         -9999      10.0305    104.447    2.4512    
4820.8     8.4552     62.0219    92.7499    -0.1339053 -0.4010435 -0.3540238 -0.1382623 49         -9999      7.4431     92.7499    2.4942    
4821       8.4972     60.1666    90.0237    -0.1112705 -0.3580257 -0.2899503 -0.09280757 49         -9999      6.0232     90.0237    2.5061    
4821.200000000001 8.5914     59.6957    93.8234    -0.1095463 -0.366856  -0.309544  -0.182381  49         -9999      6.3766     93.8234    2.4816    
4821.4     8.5441     59.7789    108.7071   -0.09865027 -0.354187  -0.3038192 -0.2611486 49         -9999      8.4794     108.7071   2.4786    
4821.6     8.4282     60.5238    100.1467   -0.0760302 -0.3035574 -0.2307568 -0.2372193 49         -9999      7.5562     100.1467   2.4981    
4821.8     8.4384     61.6833    90.4387    -0.06966013 -0.2935876 -0.2226222 -0.2902947 49         -9999      4.3475     90.4387    2.512     
4822       8.4511     62.5662    82.6812    -0.04839039 -0.2558865 -0.1765866 -0.2264746 49         -9999      3.4809     82.6812    2.513     
4822.200000000001 8.442      62.504     85.5744    -0.05984541 -0.3157384 -0.2943675 -0.3937132 49         -9999      3.6829     85.5744    2.4998    
4822.4     8.4529     61.4257    88.2973    -0.001903054 -0.1769176 -0.06989443 -0.07116278 49         -9999      4.6888     88.2973    2.4839    
4822.6     8.4591     59.7122    99.3638    -0.04332079 -0.2823144 -0.2179576 -0.1809536 49         -9999      5.7772     99.3638    2.4876    
4822.8     8.4405     58.0579    104.4572   -0.01767073 -0.2546856 -0.2306307 -0.2953864 49         -9999      6.6097     104.4572   2.5039    
4823       8.4169     57.4479    97.0887    0.04086798 -0.08743746 0.048393   0.1012809  49         -9999      3.1354     97.0887    2.5026    
4823.200000000001 8.4264     58.134     87.2922    0.01570853 -0.1511976 -0.04014446 0.1253656  49         -9999      1.3939     87.2922    2.4922    
4823.4     8.4486     59.2504    82.1878    0.03173047 -0.1159124 0.005667206 0.304534   49         -9999      1.7419     82.1878    2.4851    
4823.6     8.458      59.8218    84.1699    0.02014008 -0.1391713 -0.03809001 0.3402844  49         -9999      2.0305     84.1699    2.4816    
4823.8     8.4651     59.7038    88.6676    0.009268346 -0.1774822 -0.157777  0.1117762  49         -9999      2.6393     88.6676    2.4843    
4824       8.4692     59.2748    87.1697    0.06876504 -0.04352362 -0.03846344 0.048433   49         -9999      2.5528     87.1697    2.4989    
4824.200000000001 8.4501     58.9135    85.3884    0.106729   0.0921265  0.1686983  0.2498925  49         -9999      2.2745     85.3884    2.5201    
4824.4     8.4265     58.6805    83.4873    0.07978562 0.03367516 0.04784263 0.007302273 49         -9999      2.0965     83.4873    2.535     
4824.6     8.4044     58.588     80.6115    0.13053    0.1699352  0.1984769  -0.06952883 49         -9999      2.2473     80.6115    2.5354    
4824.8     8.404      58.5835    79.2978    0.1533403  0.2521628  0.3067091  -0.134871  49         -9999      2.4201     79.2978    2.5282    
4825       8.4653     58.8626    78.4793    0.2103062  0.4274299  0.5862857  0.06398478 49         -9999      2.1719     78.4793    2.5319    
4825.200000000001 8.4875     59.2029    80.5198    0.1865344  0.4466807  0.7346853  0.4432383  49         -9999      1.9264     80.5198    2.5366    
4825.4     8.4649     59.236     77.2703    0.09195516 0.2364088  0.4684055  0.3007749  49         -9999      2.6759     77.2703    2.5401    
4825.6     8.4356     58.925     79.7726    0.08946545 0.2286463  0.4432098  0.3997821  49         -9999      3.0322     79.7726    2.5522    
4825.8     8.4669     58.1955    82.6416    -0.02209374 -0.05037233 0.001576733 0.07830302 49         -9999      3.3734     82.6416    2.5557    
4826       8.5063     57.169     76.7251    0.09514145 0.1442024  0.08143825 -0.1048905 49         -9999      2.8269     76.7251    2.5539    
4826.200000000001 8.5182     55.925     75.9744    0.09482167 0.1938977  0.1636421  0.1766971  49         -9999      1.4945     75.9744    2.5521    
4826.4     8.5273     54.3626    79.5489    0.07463098 0.09950043 -0.08839007 -0.104916  49         -9999      1.6144     79.5489    2.5558    
4826.6     8.5741     52.9123    84.7481    0.1140308  0.1937656  -0.03878144 -0.1186282 49         -9999      1.6703     84.7481    2.5664    
4826.8     8.5573     52.3676    90.5916    0.1513114  0.2891737  0.04130618 -0.03325309 49         -9999      1.7795     90.5916    2.5609    
4827       8.4925     52.7914    84.8403    0.1332811  0.2606368  -0.05348545 -0.1926813 49         -9999      1.9657     84.8403    2.5624    
4827.200000000001 8.4578     53.3371    74.0469    0.1667307  0.3438298  -0.001458897 -0.2451941 49         -9999      1.7614     74.0469    2.5739    
4827.4     8.4813     53.5216    74.2841    0.1844277  0.4137437  0.07759208 -0.1961847 49         -9999      1.6431     74.2841    2.5619    
4827.6     8.5044     53.8147    75.3588    0.1698873  0.3928916  0.01351413 -0.3640236 49         -9999      1.7395     75.3588    2.5592    
4827.8     8.4763     54.8105    73.5052    0.2071364  0.5020026  0.1467102  -0.3571101 49         -9999      3.846      73.5052    2.5782    
4828       8.4864     56.8026    68.0755    0.2104017  0.5617332  0.2820008  -0.1669345 49         -9999      8.4303     68.0755    2.5754    
