~Version
 VERS              .         3.0                           : CWLS LOG ASCII STANDARD - VERSION 3.0
 WRAP              .         NO                            : ONE LINE PER DEPTH STEP
 DLM               .         SPACE                         : DELIMITING CHARACTER(SPACE TAB OR COMMA)
~Well Information
#_______________________________________________________________________________
#
#PARAMETER_NAME    .UNIT     VALUE                         : DESCRIPTION
#_______________________________________________________________________________
STRT               .m        2108.1003                     : First reference value
STOP               .m        4106.9003                     : Last reference value
STEP               .m        0.2                           : Step increment
NULL               .         -9999                         : Missing value
COMP               .         PETROLEO BRASILEIRO S/A       : Company
WELL               .         4-ESS-167_resample            : Well name
FLD                .         GOLFINHO                      : Field
LOC                .                                       : Location
SRVC               .                                       : Service Company
CTRY               .                                       : Country
DATE               .                                       : Service Date
LATI               .         -200010.479                   : Latitude
LONG               .         -394042.854                   : Longitude
GDAT               .         SIRGAS2000                    : Geodetic Datum
API                .         342710319700                  : API number
CNTY               .                                       : County
COUNTRY            .                                       : Country
EDF                .M        25.0                          : Elevation Derrick Floor
HZCS               .         UTM                           : Horizontal Coordinate System
LMF                .         MR                            : Log Measure From
MC                 .         39 W                          : Meridiano Central
ORIG               .         SIGEO EXPORTACAO PERFIL       : Origem dos dados
ORIGINALWELLNAME   .         4ESS 0167  ES                 : 
STAT               .         ESPIRITO SANTO                : State
WDMS               .M        966.0                         : Water Depth to Mean Sea Level
X                  .         429077.0                      : Surface X
Y                  .         7788071.0                     : Surface Y
~Parameter Information Block
#_______________________________________________________________________________
#
#PARAMETER_NAME    .UNIT     VALUE                         : DESCRIPTION
#_______________________________________________________________________________
SET                .         ESS167_resample               : 
TLFAMILY_CALI      .         Caliper                       : 
TLFAMILY_COTA      .         Measured Depth                : 
TLFAMILY_DT        .         Compressional Slowness        : 
TLFAMILY_GR        .         Gamma Ray                     : 
TLFAMILY_INPEFA_1  .         Photoelectric Factor          : 
TLFAMILY_INPEFA_2  .         Photoelectric Factor          : 
TLFAMILY_INPEFA_3  .         Photoelectric Factor          : 
TLFAMILY_INPEFA_4  .         Photoelectric Factor          : 
TLFAMILY_LITO      .                                       : 
TLFAMILY_LLD       .         Deep Resistivity              : 
TLFAMILY_RHOB      .         Bulk Density                  : 
TLFamily_CALI      .         Caliper                       : 
TLFamily_COTA      .                                       : 
TLFamily_DEPT      .         Measured Depth                : 
TLFamily_DT        .         Compressional Slowness        : 
TLFamily_GR        .         Gamma Ray                     : 
TLFamily_INPEFA_1  .         Photoelectric Factor          : 
TLFamily_INPEFA_2  .         Photoelectric Factor          : 
TLFamily_INPEFA_3  .         Photoelectric Factor          : 
TLFamily_INPEFA_4  .         Photoelectric Factor          : 
TLFamily_LITO      .                                       : 
TLFamily_LLD       .         Deep Resistivity              : 
TLFamily_NPHI      .         Neutron Porosity              : 
TLFamily_RHOB      .         Bulk Density                  : 
~Curve Information
#_______________________________________________________________________________
#
#LOGNAME           .UNIT     LOG_ID                        : DESCRIPTION
#_______________________________________________________________________________
DEPT               .m                                      :  {F}
CALI               .in                                     : CALIPER {F}
COTA               .                                       :  {F}
DT                 .us/ft                                  : DELTA-T (ALSO CALLED SLOWNESS OR INTERVAL TRANSIT TIME) {F}
GR                 .gAPI                                   : GAMMA RAY {F}
INPEFA_1           .                                       :  {F}
INPEFA_2           .                                       :  {F}
INPEFA_3           .                                       :  {F}
INPEFA_4           .                                       :  {F}
LITO               .                                       :  {F}
LLD                .ohm.m                                  : LATEROLOG DEEP RESISTIVITY {F}
NPHI               .                                       :  {F}
RHOB               .g/cm3                                  : BULK DENSITY {F}
~Ascii
# ...
3409.7003  12.4889    -3409.7003 89.85151999999999 94.11687000000001 -0.1118    0.03959    0.1131     -0.29169   57         2.02503    -9999      2.4892    
3409.9003  12.4956    -3409.9003 90.13475   93.33703   -0.13038   0.00267    0.0905     -0.32213   57         1.97722    -9999      2.4852    
3410.1003  12.497     -3410.1003 89.04456   95.70399000000001 -0.11358   0.04264    0.18302    -0.21054   57         1.93162    -9999      2.49859   
3410.3003  12.50889   -3410.3003 87.41736   99.49588   -0.12891   0.01532    0.18102    -0.18201   57         1.91402    -9999      2.51779   
3410.5003  12.5198    -3410.5003 86.83902000000001 97.82874   -0.12536   0.01931    0.21143    -0.13769   57         1.9131     -9999      2.5212    
3410.7003  12.50521   -3410.7003 87.40004   90.55235   -0.11919   0.04455    0.29828    0.0417     57         1.92738    -9999      2.50361   
3410.9003  12.4932    -3410.9003 88.26402   85.82289   -0.12665   0.02871    0.31316    0.14803    57         1.95828    -9999      2.4935    
3411.1003  12.47331   -3411.1003 88.06255   84.60847   -0.14488   -0.01168   0.28495    0.19892    57         2.01507    -9999      2.4989    
3411.3003  12.4718    -3411.3003 86.9406    88.06358   -0.15875   -0.05545   0.2296     0.16884    57         2.08007    -9999      2.4953    
3411.5003  12.4746    -3411.5003 85.77154   88.97357   -0.15434   -0.05011   0.25322    0.23157    57         2.12428    -9999      2.4909    
3411.7003  12.4852    -3411.7003 85.10747000000001 88.56831   -0.16262   -0.07483   0.23197    0.25646    57         2.14399    -9999      2.4985    
3411.9003  12.4852    -3411.9003 84.83669   90.46290999999999 -0.16227   -0.08272   0.22845    0.2852     57         2.1466     -9999      2.5045    
3412.1003  12.49449   -3412.1003 84.89713   87.29812   -0.16593   -0.09472   0.22706    0.34308    57         2.11441    -9999      2.5054    
3412.3003  12.49181   -3412.3003 85.36301   84.57386   -0.19737   -0.18907   0.06146    0.09599    57         2.07702    -9999      2.5094    
3412.5003  12.46921   -3412.5003 85.79004999999999 86.10785   -0.1689    -0.13795   0.12579    0.1078     57         2.05711    -9999      2.5089    
3412.7003  12.4652    -3412.7003 85.68271   85.75458999999999 -0.15627   -0.10843   0.18646    0.19395    57         2.04262    -9999      2.49771   
3412.9003  12.4705    -3412.9003 85.65398   87.60162   -0.15605   -0.11325   0.18754    0.1992     57         1.99503    -9999      2.4922    
3413.1003  12.4719    -3413.1003 86.35123   89.22133   -0.14526   -0.08564   0.25245    0.327      57         1.89275    -9999      2.4963    
3413.3003  12.46501   -3413.3003 87.90224000000001 91.04029   -0.16613   -0.13685   0.18835    0.3015     57         1.81843    -9999      2.4987    
3413.5003  12.48909   -3413.5003 89.58508000000001 93.32024   -0.16937   -0.15746   0.15045    0.25599    57         1.78121    -9999      2.4977    
3413.7003  12.4986    -3413.7003 90.79899   93.02516   -0.14634   -0.10415   0.24932    0.43904    57         1.76231    -9999      2.4938    
3413.9003  12.48261   -3413.9003 91.27024   93.42458000000001 -0.15504   -0.12271   0.24358    0.54884    57         1.7455     -9999      2.489     
3414.1003  12.4799    -3414.1003 91.33141000000001 97.39514   -0.17208   -0.16714   0.18804    0.60131    57         1.75989    -9999      2.4869    
3414.3003  12.4773    -3414.3003 91.09397   101.7307   -0.20234   -0.25713   0.0292     0.44135    57         1.80457    -9999      2.4913    
3414.5003  12.48949   -3414.5003 90.25586   102.2868   -0.17288   -0.20322   0.09767    0.55848    57         1.86877    -9999      2.50359   
3414.7003  12.4908    -3414.7003 88.29263   101.3901   -0.183     -0.22493   0.07527    0.64983    57         1.90578    -9999      2.5082    
3414.9003  12.49689   -3414.9003 86.44776   101.0206   -0.22782   -0.35786   -0.17556   0.33503    57         1.9155     -9999      2.5008    
3415.1003  12.5055    -3415.1003 85.74393000000001 100.5682   -0.20774   -0.33403   -0.18334   0.28616    57         1.90791    -9999      2.4979    
3415.3003  12.5031    -3415.3003 85.57743000000001 103.2145   -0.20572   -0.35247   -0.25943   0.1308     57         1.9043     -9999      2.5015    
3415.5003  12.47782   -3415.5003 85.58788   101.8797   -0.20545   -0.37223   -0.34182   -0.07359   57         1.93178    -9999      2.5033    
3415.7003  12.4667    -3415.7003 85.78805   94.92438   -0.1698    -0.30347   -0.27054   -0.06077   57         1.95339    -9999      2.4984    
3415.9003  12.4617    -3415.9003 86.40954000000001 91.14707   -0.17104   -0.3125    -0.31043   -0.16952   57         1.94271    -9999      2.501     
3416.1003  12.46669   -3416.1003 87.25706   90.57098000000001 -0.15851   -0.29633   -0.31773   -0.25534   57         1.88833    -9999      2.5093    
3416.3003  12.47629   -3416.3003 88.27974   93.75642000000001 -0.15491   -0.2959    -0.34524   -0.37544   57         1.85622    -9999      2.49731   
3416.5003  12.48189   -3416.5003 89.50997   97.67079   -0.12703   -0.23825   -0.27696   -0.36325   57         1.8494     -9999      2.4838    
3416.7003  12.4835    -3416.7003 90.59452   95.18232999999999 -0.11374   -0.19973   -0.21043   -0.2785    57         1.86919    -9999      2.4884    
3416.9003  12.4904    -3416.9003 91.15300000000001 92.70375   -0.11915   -0.20943   -0.21798   -0.2534    57         1.89398    -9999      2.4949    
3417.1003  12.47551   -3417.1003 91.02185   96.53318   -0.13838   -0.26283   -0.31488   -0.39243   57         1.90369    -9999      2.5021    
3417.3003  12.47649   -3417.3003 90.55463   103.6156   -0.12563   -0.24033   -0.29127   -0.39303   57         1.90141    -9999      2.5037    
3417.5003  12.4852    -3417.5003 90.13149   102.5543   -0.09044   -0.1522    -0.13602   -0.14451   57         1.86592    -9999      2.48931   
3417.7003  12.4799    -3417.7003 89.82445   98.29168   -0.10948   -0.18634   -0.15865   -0.05531   57         1.82192    -9999      2.4783    
3417.9003  12.4799    -3417.9003 89.35039999999999 103.6385   -0.12146   -0.22201   -0.21056   -0.05107   57         1.78771    -9999      2.4818    
3418.1003  12.48659   -3418.1003 88.36617   106.2507   -0.1109    -0.19594   -0.1515    0.12416    57         1.78549    -9999      2.49399   
3418.3003  12.50659   -3418.3003 86.91368   100.4467   -0.13449   -0.25656   -0.23812   0.09809    57         1.82897    -9999      2.4988    
3418.5003  12.5052    -3418.5003 85.50207   96.40334   -0.12807   -0.25136   -0.23239   0.1437     57         1.89866    -9999      2.48381   
3418.7003  12.49591   -3418.7003 84.54012   90.2287    -0.12482   -0.24483   -0.21026   0.23425    57         1.92719    -9999      2.47031   
3418.9003  12.4863    -3418.9003 84.15631000000001 85.03798999999999 -0.12579   -0.25238   -0.21611   0.2776     57         1.9329     -9999      2.4747    
3419.1003  12.4812    -3419.1003 84.36212999999999 83.81641000000001 -0.13273   -0.27553   -0.25127   0.25557    57         1.9236     -9999      2.4833    
3419.3003  12.4706    -3419.3003 84.95010000000001 83.41656   -0.12729   -0.27033   -0.24526   0.25538    57         1.91721    -9999      2.4915    
3419.5003  12.4666    -3419.5003 85.404     80.69998   -0.12321   -0.26461   -0.23518   0.24983    57         1.91091    -9999      2.4941    
3419.7003  12.4693    -3419.7003 85.88493   77.34783   -0.12215   -0.26774   -0.24264   0.19923    57         1.92049    -9999      2.48351   
3419.9003  12.47859   -3419.9003 86.70525000000001 79.19363   -0.10106   -0.21813   -0.15764   0.28327    57         1.94458    -9999      2.4796    
3420.1003  12.4837    -3420.1003 87.48421999999999 85.73057   -0.09552   -0.19993   -0.1084    0.37035    57         1.98788    -9999      2.4892    
3420.3003  12.4862    -3420.3003 87.79459   88.82452000000001 -0.09981   -0.20532   -0.09468   0.43237    57         2.02629    -9999      2.4917    
3420.5003  12.4838    -3420.5003 87.91947999999999 83.23447   -0.10249   -0.21261   -0.09188   0.47265    57         2.02751    -9999      2.4936    
