~Version
 VERS              .         2.0                           : CWLS LOG ASCII STANDARD - VERSION 2.0
 WRAP              .         NO                            : ONE LINE PER DEPTH STEP
 DLM               .         SPACE                         : DELIMITING CHARACTER(SPACE TAB OR COMMA)
~Well Information
#_______________________________________________________________________________
#
#PARAMETER_NAME    .UNIT     VALUE                         : DESCRIPTION
#_______________________________________________________________________________
STRT               .m        1542                          : First reference value
STOP               .m        5640.8                        : Last reference value
STEP               .m        0.2                           : Step increment
NULL               .         -9999                         : Missing value
COMP               .         PETROLEO BRASILEIRO S/A       : Company
WELL               .         4-ESS-174A_resample           : Well name
FLD                .         GOLFINHO                      : Field
LOC                .                                       : Location
CNTY               .                                       : County
STAT               .         ESPIRITO SANTO                : State
CTRY               .                                       : Country
SRVC               .                                       : Service Company
DATE               .                                       : Date
API                .         342710322400                  : API number
EDF                .M        19.00                         : Elevation Derrick Floor
GDAT               .         SIRGAS2000                    : Geodetic Datum
HZCS               .         UTM                           : Horizontal Coordinate System
LMF                .         MR                            : Log Measure From
LATI               .         -19_56_54.869                 : Latitude
LONG               .         -39_29_58.132                 : Longitude
MC                 .         39 W                          : Meridiano Central
ORIG               .         SIGEO EXPORTACAO PERFIL       : Origem dos dados
ORIGINALWELLNAME   .         4ESS 0174A ES                 : 
WDMS               .M        1199.00                       : Water Depth to Mean Sea Level
X                  .         447729.60                     : Surface X
Y                  .         7794048.90                    : Surface Y
~Parameter Information Block
#_______________________________________________________________________________
#
#PARAMETER_NAME    .UNIT     VALUE                         : DESCRIPTION
#_______________________________________________________________________________
SET                .         ESS174A_resample              : 
TLFamily_CALI      .         Caliper                       : 
TLFamily_DEPT      .         Measured Depth                : 
TLFamily_DT        .         Compressional Slowness        : 
TLFamily_GR        .         Gamma Ray                     : 
TLFamily_INPEFA_1  .                                       : 
TLFamily_INPEFA_2  .                                       : 
TLFamily_INPEFA_3  .                                       : 
TLFamily_INPEFA_4  .                                       : 
TLFamily_LITO      .                                       : 
TLFamily_LLD       .         Deep Resistivity              : 
TLFamily_NPHI      .         Neutron Porosity              : 
TLFamily_OG        .                                       : 
TLFamily_RHOB      .         Bulk Density                  : 
~Curve Information
#_______________________________________________________________________________
#
#LOGNAME           .UNIT     LOG_ID                        : DESCRIPTION
#_______________________________________________________________________________
DEPT               .m                                      :  
CALI               .in                                     : CALIPER 
DT                 .us/ft                                  : DELTA-T (ALSO CALLED SLOWNESS OR INTERVAL TRANSIT TIME) 
GR                 .gAPI                                   : GAMMA RAY 
INPEFA_1           .                                       :  
INPEFA_2           .                                       :  
INPEFA_3           .                                       :  
INPEFA_4           .                                       :  
LITO               .                                       :  
LLD                .ohm.m                                  : LATEROLOG DEEP RESISTIVITY 
NPHI               .%                                      : THERMAL NEUTRON POROSITY (ORIGINAL RATIO METHOD) IN SELECTED LITHOLOGY 
OG                 .                                       :  
RHOB               .g/cm3                                  : BULK DENSITY 
~Ascii
# ...
2090.8     -9999      -9999      92.0883    0.1072796  -0.1582493 -0.3132753 0.01460603 57         -9999      -9999      92.0883    -9999     
2091       -9999      -9999      96.3776    0.109106   -0.1516986 -0.3037818 0.04833632 57         -9999      -9999      96.3776    -9999     
2091.2     -9999      -9999      103.3343   0.1004678  -0.1700715 -0.3461999 -0.02139634 57         -9999      -9999      103.3343   -9999     
2091.4     -9999      -9999      108.4938   0.105809   -0.1617235 -0.3468426 -0.06176996 57         -9999      -9999      108.4938   -9999     
2091.6     -9999      -9999      109.3457   0.1057624  -0.1609759 -0.3575463 -0.1189635 57         -9999      -9999      109.3457   -9999     
2091.8     -9999      -9999      109.671    0.1013693  -0.1748616 -0.4071515 -0.2821701 57         -9999      -9999      109.671    -9999     
2092       -9999      -9999      109.7541   0.1137366  -0.1522194 -0.3890151 -0.360447  57         -9999      -9999      109.7541   -9999     
2092.2     -9999      -9999      118.0183   0.1246349  -0.1315076 -0.3744169 -0.4615168 57         -9999      -9999      118.0183   -9999     
2092.4     -9999      -9999      135.2327   0.1469301  -0.08523227 -0.3091007 -0.4872457 57         -9999      -9999      135.2327   -9999     
2092.6     -9999      -9999      146.9973   0.1815785  -0.005079749 -0.1645438 -0.3495883 57         -9999      -9999      146.9973   -9999     
2092.8     -9999      -9999      146.4111   0.2139796  0.0764226  -0.001650781 -0.1323238 57         -9999      -9999      146.4111   -9999     
2093       -9999      -9999      147.5809   0.1942813  0.0579714  -0.006125512 -0.1318514 57         -9999      -9999      147.5809   -9999     
2093.2     -9999      -9999      149.8469   0.2049086  0.08962136 0.06197581 -0.05760397 57         -9999      -9999      149.8469   -9999     
2093.4     -9999      -9999      145.9918   0.1699645  0.02818469 -0.04287715 -0.2870434 57         -9999      -9999      145.9918   -9999     
2093.6     -9999      -9999      139.6109   0.1959571  0.0896771  0.07135838 -0.2014062 57         -9999      -9999      139.6109   -9999     
2093.8     -9999      -9999      133.6452   0.2070474  0.1276711  0.155496   -0.130411  57         -9999      -9999      133.6452   -9999     
2094       -9999      -9999      129.0659   0.214167   0.1611696  0.2402382  -0.02014031 57         -9999      -9999      129.0659   -9999     
2094.2     -9999      -9999      128.3617   0.2025827  0.1522077  0.2421605  -0.04129564 57         -9999      -9999      128.3617   -9999     
2094.4     -9999      -9999      127.8167   0.203673   0.164846   0.2746378  -0.03797923 57         -9999      -9999      127.8167   -9999     
2094.6     -9999      -9999      126.2365   0.1978675  0.1667939  0.2931661  -0.03763794 57         -9999      -9999      126.2365   -9999     
2094.8     -9999      -9999      125.4237   0.2040247  0.188805   0.341566   0.00052058 57         -9999      -9999      125.4237   -9999     
2095       -9999      -9999      122.2285   0.2081168  0.2144496  0.4118478  0.1268375  57         -9999      -9999      122.2285   -9999     
2095.2     -9999      -9999      115.5919   0.2025156  0.2151479  0.4314802  0.1808514  57         -9999      -9999      115.5919   -9999     
2095.4     -9999      -9999      106.8616   0.1956496  0.2152397  0.4529682  0.2561008  57         -9999      -9999      106.8616   -9999     
2095.6     -9999      -9999      95.7905    0.1773133  0.1856773  0.4110138  0.2175143  57         -9999      -9999      95.7905    -9999     
2095.8     -9999      -9999      84.1962    0.1633343  0.1625014  0.3723747  0.156255   57         -9999      -9999      84.1962    -9999     
2096       -9999      -9999      86.7062    0.1521356  0.1438663  0.3388987  0.0983246  57         -9999      -9999      86.7062    -9999     
2096.2     -9999      -9999      96.9514    0.1480096  0.1349719  0.3145915  0.02744322 57         -9999      -9999      96.9514    -9999     
2096.4     -9999      -9999      110.3415   0.1454821  0.137073   0.3229542  0.03508941 57         -9999      -9999      110.3415   -9999     
2096.6     -9999      -9999      116.2681   0.1592004  0.1731908  0.3986607  0.1778185  57         -9999      -9999      116.2681   -9999     
2096.8     -9999      -9999      111.754    0.1465519  0.1572617  0.3838037  0.1991021  57         -9999      -9999      111.754    -9999     
2097       -9999      -9999      106.8449   0.1346758  0.1400396  0.3623598  0.2062157  57         -9999      -9999      106.8449   -9999     
2097.2     -9999      -9999      110.1708   0.1182853  0.1079161  0.3018571  0.1140272  57         -9999      -9999      110.1708   -9999     
2097.4     -9999      -9999      116.0018   0.1358687  0.1548458  0.401785   0.3218133  57         -9999      -9999      116.0018   -9999     
2097.6     -9999      -9999      120.5287   0.1241974  0.1431365  0.4016818  0.4194753  57         -9999      -9999      120.5287   -9999     
2097.8     -9999      -9999      121.6319   0.09363642 0.0848651  0.3004121  0.3231115  57         -9999      -9999      121.6319   -9999     
2098       -9999      -9999      120.8444   0.07480324 0.04429227 0.2163976  0.2063789  57         -9999      -9999      120.8444   -9999     
2098.2     -9999      -9999      121.479    0.0534538  -0.000475512 0.1225813  0.06104213 57         -9999      -9999      121.479    -9999     
2098.4     -9999      -9999      125.5197   0.04706753 -0.01862051 0.06734248 -0.0576228 57         -9999      -9999      125.5197   -9999     
2098.6     -9999      -9999      132.1392   0.03683109 -0.04962124 -0.0244708 -0.2911525 57         -9999      -9999      132.1392   -9999     
2098.8     -9999      -9999      138.9131   0.05665915 -0.007283051 0.0351525  -0.2534445 57         -9999      -9999      138.9131   -9999     
2099       -9999      -9999      143.6301   0.04380536 -0.03882616 -0.05072211 -0.4721292 57         -9999      -9999      143.6301   -9999     
2099.2     -9999      -9999      143.8578   0.07391625 0.02471806 0.04595657 -0.3962382 57         -9999      -9999      143.8578   -9999     
2099.4     -9999      -9999      141.336    0.09019407 0.06669507 0.1198141  -0.2936381 57         -9999      -9999      141.336    -9999     
2099.6     -9999      -9999      136.1015   0.08266395 0.05649974 0.09294263 -0.352429  57         -9999      -9999      136.1015   -9999     
2099.8     -9999      -9999      133.4693   0.07672223 0.04743573 0.06303565 -0.4259327 57         -9999      -9999      133.4693   -9999     
2100       -9999      -9999      136.6811   0.09771159 0.09453107 0.1392731  -0.3076656 57         -9999      -9999      136.6811   -9999     
2100.2     -9999      -9999      142.0316   0.09392495 0.09721866 0.149124   -0.231213  57         -9999      -9999      142.0316   -9999     
2100.4     -9999      -9999      141.2103   0.08188895 0.07395329 0.09790964 -0.2752794 57         -9999      -9999      141.2103   -9999     
2100.6     -9999      -9999      138.739    0.09010202 0.09667196 0.1372436  -0.1572398 57         -9999      -9999      138.739    -9999     
2100.8     -9999      -9999      144.4468   0.09042674 0.1049238  0.1566729  -0.03052929 57         -9999      -9999      144.4468   -9999     
2101       -9999      -9999      153.5173   0.05369127 0.02999443 0.01048657 -0.1952675 57         -9999      -9999      153.5173   -9999     
2101.2     -9999      -9999      159.6882   0.04070974 -0.005413853 -0.08422707 -0.3526326 57         -9999      -9999      159.6882   -9999     
2101.4     -9999      -9999      160.553    0.03622916 -0.01678531 -0.125434  -0.4119954 57         -9999      -9999      160.553    -9999     
2101.6     -9999      -9999      156.4281   0.05616822 0.01398785 -0.1032694 -0.4209066 57         -9999      -9999      156.4281   -9999     
2101.8     -9999      -9999      147.1165   0.07332038 0.06153933 -0.0106334 -0.2109371 57         -9999      -9999      147.1165   -9999     
