~Version
 VERS              .         3.0                           : CWLS LOG ASCII STANDARD - VERSION 3.0
 WRAP              .         NO                            : ONE LINE PER DEPTH STEP
 DLM               .         SPACE                         : DELIMITING CHARACTER(SPACE TAB OR COMMA)
~Well Information
#_______________________________________________________________________________
#
#PARAMETER_NAME    .UNIT     VALUE                         : DESCRIPTION
#_______________________________________________________________________________
STRT               .m        2108.1003                     : First reference value
STOP               .m        4106.9003                     : Last reference value
STEP               .m        0.2                           : Step increment
NULL               .         -9999                         : Missing value
COMP               .         PETROLEO BRASILEIRO S/A       : Company
WELL               .         4-ESS-167_resample            : Well name
FLD                .         GOLFINHO                      : Field
LOC                .                                       : Location
SRVC               .                                       : Service Company
CTRY               .                                       : Country
DATE               .                                       : Service Date
LATI               .         -200010.479                   : Latitude
LONG               .         -394042.854                   : Longitude
GDAT               .         SIRGAS2000                    : Geodetic Datum
API                .         342710319700                  : API number
CNTY               .                                       : County
COUNTRY            .                                       : Country
EDF                .M        25.0                          : Elevation Derrick Floor
HZCS               .         UTM                           : Horizontal Coordinate System
LMF                .         MR                            : Log Measure From
MC                 .         39 W                          : Meridiano Central
ORIG               .         SIGEO EXPORTACAO PERFIL       : Origem dos dados
ORIGINALWELLNAME   .         4ESS 0167  ES                 : 
STAT               .         ESPIRITO SANTO                : State
WDMS               .M        966.0                         : Water Depth to Mean Sea Level
X                  .         429077.0                      : Surface X
Y                  .         7788071.0                     : Surface Y
~Parameter Information Block
#_______________________________________________________________________________
#
#PARAMETER_NAME    .UNIT     VALUE                         : DESCRIPTION
#_______________________________________________________________________________
SET                .         ESS167_resample               : 
TLFAMILY_CALI      .         Caliper                       : 
TLFAMILY_COTA      .         Measured Depth                : 
TLFAMILY_DT        .         Compressional Slowness        : 
TLFAMILY_GR        .         Gamma Ray                     : 
TLFAMILY_INPEFA_1  .         Photoelectric Factor          : 
TLFAMILY_INPEFA_2  .         Photoelectric Factor          : 
TLFAMILY_INPEFA_3  .         Photoelectric Factor          : 
TLFAMILY_INPEFA_4  .         Photoelectric Factor          : 
TLFAMILY_LITO      .                                       : 
TLFAMILY_LLD       .         Deep Resistivity              : 
TLFAMILY_RHOB      .         Bulk Density                  : 
TLFamily_CALI      .         Caliper                       : 
TLFamily_COTA      .                                       : 
TLFamily_DEPT      .         Measured Depth                : 
TLFamily_DT        .         Compressional Slowness        : 
TLFamily_GR        .         Gamma Ray                     : 
TLFamily_INPEFA_1  .         Photoelectric Factor          : 
TLFamily_INPEFA_2  .         Photoelectric Factor          : 
TLFamily_INPEFA_3  .         Photoelectric Factor          : 
TLFamily_INPEFA_4  .         Photoelectric Factor          : 
TLFamily_LITO      .                                       : 
TLFamily_LLD       .         Deep Resistivity              : 
TLFamily_NPHI      .         Neutron Porosity              : 
TLFamily_RHOB      .         Bulk Density                  : 
~Curve Information
#_______________________________________________________________________________
#
#LOGNAME           .UNIT     LOG_ID                        : DESCRIPTION
#_______________________________________________________________________________
DEPT               .m                                      :  {F}
CALI               .in                                     : CALIPER {F}
COTA               .                                       :  {F}
DT                 .us/ft                                  : DELTA-T (ALSO CALLED SLOWNESS OR INTERVAL TRANSIT TIME) {F}
GR                 .gAPI                                   : GAMMA RAY {F}
INPEFA_1           .                                       :  {F}
INPEFA_2           .                                       :  {F}
INPEFA_3           .                                       :  {F}
INPEFA_4           .                                       :  {F}
LITO               .                                       :  {F}
LLD                .ohm.m                                  : LATEROLOG DEEP RESISTIVITY {F}
NPHI               .                                       :  {F}
RHOB               .g/cm3                                  : BULK DENSITY {F}
~Ascii
# ...
3542.1003  12.599     -3542.1003 74.99543   119.5664   0.08917    -0.14884   -0.13597   0.17658    57         3.60516    0.241603   2.53209   
3542.3003  12.5977    -3542.3003 74.79644999999999 119.3919   0.11609    -0.11504   -0.17775   0.05103    57         4.2814     0.247016   2.55119   
3542.5003  12.6053    -3542.5003 75.41616999999999 115.6488   0.14867    -0.0292    -0.09759   0.13092    57         3.60735    0.245243   2.5653    
3542.7003  12.57431   -3542.7003 77.95699000000001 121.1126   0.15184    -0.04407   -0.21916   -0.14579   57         2.69407    0.213402   2.54601   
3542.9003  12.5679    -3542.9003 81.84871   134.979    0.21026    0.09504    -0.08386   -0.12434   57         2.31812    0.232873   2.51511   
3543.1003  12.5599    -3543.1003 83.26308   149.4793   0.24705    0.19136    0.00871    -0.08053   49         2.30128    0.261186   2.506     
3543.3003  12.556     -3543.3003 82.85906   157.1774   0.27589    0.27141    0.06921    -0.12122   49         2.38386    0.250482   2.49661   
3543.5003  12.54601   -3543.5003 82.17699   160.3812   0.30034    0.35806    0.17366    -0.1723    49         2.45986    0.242795   2.4843    
3543.7003  12.553     -3543.7003 81.88919   160.0875   0.32649    0.44303    0.26982    -0.23695   49         2.48808    0.242499   2.4881    
3543.9003  12.5547    -3543.9003 81.64527   153.7259   0.37681    0.61384    0.55684    -0.05495   49         2.54727    0.241397   2.49779   
3544.1003  12.5674    -3544.1003 80.94324   151.2471   0.39528    0.73156    0.82059    0.2945     49         2.73248    0.239292   2.50809   
3544.3003  12.5687    -3544.3003 79.30543   151.3551   0.33103    0.68404    0.8937     0.63913    49         3.13314    0.230855   2.5146    
3544.5003  12.5729    -3544.5003 75.77696   126.5382   0.17933    0.35273    0.40744    0.10029    49         4.10748    0.201641   2.5153    
3544.7003  12.5705    -3544.7003 69.37535   89.57143000000001 0.20324    0.44721    0.60449    0.45561    49         6.05675    0.177294   2.54668   
3544.9003  12.52423   -3544.9003 63.20388   72.36138   0.11605    0.26559    0.35788    0.29847    49         9.08381    0.177503   2.60927   
3545.1003  12.5172    -3545.1003 59.57508   71.80772   0.11449    0.27401    0.38226    0.42367    49         11.54548   0.179504   2.63889   
3545.3003  12.5176    -3545.3003 58.17642   69.38605   0.06819    0.17513    0.23991    0.3567     49         12.09064   0.177158   2.62341   
3545.5003  12.5153    -3545.5003 57.46511   65.52636   0.03496    0.09611    0.1008     0.20689    49         11.88218   0.147948   2.60721   
3545.7003  12.5148    -3545.7003 55.91736   64.61229   0.01448    0.03296    -0.03823   0.02229    49         12.67147   0.122055   2.6102    
3545.9003  12.5156    -3545.9003 52.40559   60.0771    0.02599    0.05043    -0.05051   -0.03781   49         16.00648   0.089629   2.62419   
3546.1003  12.522     -3546.1003 49.97727   51.21365   0.04705    0.10707    0.03187    0.11292    49         27.24465   0.055983   2.64539   
3546.3003  12.47443   -3546.3003 52.67946   45.82977   0.02211    0.04816    -0.08053   0.00194    49         57.92711   0.050899   2.67099   
3546.5003  12.4619    -3546.5003 68.51724   45.7878    0.03334    0.07875    -0.04442   0.10188    49         63.2618    0.050397   2.68549   
3546.7003  12.4603    -3546.7003 78.4616    47.20103   0.00705    0.01582    -0.16194   0.01141    49         25.12382   0.050419   2.68031   
3546.9003  12.4592    -3546.9003 79.7002    46.34373   0.0044     0.00548    -0.20459   -0.02628   49         11.41997   0.072223   2.6733    
3547.1003  12.4616    -3547.1003 81.87768   49.2218    -0.01021   -0.02956   -0.28177   -0.10591   57         6.94811    0.158716   2.6781    
3547.3003  12.4611    -3547.3003 86.05598000000001 74.38239   -0.00139   -0.01662   -0.29626   -0.16675   57         5.30868    0.267392   2.64752   
3547.5003  12.4666    -3547.5003 90.03201   121.9719   0.02741    0.06952    -0.14937   0.07916    57         4.64976    0.296469   2.58013   
3547.7003  12.50877   -3547.7003 92.05108   150.8437   -0.03587   -0.07983   -0.40528   -0.26571   57         4.27098    0.273152   2.53882   
3547.9003  12.51321   -3547.9003 93.1973    158.7599   0.01549    0.03148    -0.27042   -0.205     57         3.89939    0.255227   2.51671   
3548.1003  12.5121    -3548.1003 94.02509000000001 161.2907   0.03004    0.09363    -0.14597   -0.00606   57         3.51088    0.272721   2.5097    
3548.3003  12.5119    -3548.3003 94.82241999999999 159.1269   0.00644    0.04567    -0.22492   -0.12678   57         3.23991    0.278012   2.52099   
3548.5003  12.5118    -3548.5003 95.15092   159.473    0.01269    0.07293    -0.18631   -0.12547   57         3.19399    0.286923   2.5244    
3548.7003  12.5132    -3548.7003 94.60639000000001 157.7525   0.00902    0.06992    -0.20506   -0.20987   57         3.31262    0.296101   2.5195    
3548.9003  12.5121    -3548.9003 93.30517999999999 148.8867   0.02262    0.11525    -0.13728   -0.16314   57         3.48592    0.297605   2.5195    
3549.1003  12.5147    -3549.1003 91.93608   136.1304   -0.00262   0.06124    -0.2369    -0.35107   57         3.64744    0.297366   2.53649   
3549.3003  12.52239   -3549.3003 90.59029   130.711    0.0324     0.14939    -0.11402   -0.26683   57         3.6858     0.276779   2.5483    
3549.5003  12.5343    -3549.5003 89.16642   130.8248   0.0225     0.14723    -0.10159   -0.22709   57         3.40538    0.273007   2.5511    
3549.7003  12.5343    -3549.7003 88.15504   131.47     0.02596    0.16015    -0.08813   -0.21518   57         2.96553    0.274692   2.5597    
3549.9003  12.5343    -3549.9003 87.99146   132.0034   0.0096     0.13744    -0.11598   -0.24856   57         2.56796    0.273407   2.55571   
3550.1003  12.5343    -3550.1003 88.76271   131.3882   -0.00235   0.10346    -0.19449   -0.41308   57         2.35649    0.277501   2.53581   
3550.3003  12.5317    -3550.3003 90.05159   127.1347   0.01922    0.16099    -0.11191   -0.37738   57         2.25075    0.276398   2.51441   
3550.5003  12.5277    -3550.5003 91.31804   117.5663   0.05391    0.26223    0.07523    -0.08842   57         2.21022    0.272585   2.49121   
3550.7003  12.53918   -3550.7003 92.07951   117.8373   0.02097    0.20801    0.03053    -0.03377   57         2.24088    0.264315   2.4783    
3550.9003  12.5502    -3550.9003 92.24489   116.5025   -0.01872   0.10859    -0.13605   -0.25963   57         2.34214    0.277016   2.48989   
3551.1003  12.5475    -3551.1003 91.90185   106.8237   0.00527    0.15947    -0.06787   -0.22452   57         2.40377    0.276261   2.50569   
3551.3003  12.5488    -3551.3003 90.95316   105.1361   0.03413    0.24466    0.10573    0.06622    57         2.4293     0.255476   2.52029   
3551.5003  12.54889   -3551.5003 89.63649   108.0189   0.00674    0.19915    0.08462    0.15102    57         2.39983    0.246704   2.5331    
3551.7003  12.5492    -3551.7003 88.91531000000001 109.2397   -0.0011    0.18446    0.0908     0.20087    57         2.36063    0.252018   2.5296    
3551.9003  12.53312   -3551.9003 89.40243   108.6096   0.0039     0.21652    0.19654    0.42462    57         2.29114    0.259598   2.5243    
3552.1003  12.53149   -3552.1003 90.32472   110.3592   -0.00648   0.20922    0.2437     0.60384    57         2.21864    0.255903   2.5317    
3552.3003  12.5316    -3552.3003 90.77407   108.9197   -0.03814   0.1495     0.19916    0.64691    57         2.15893    0.261715   2.5362    
3552.5003  12.5239    -3552.5003 90.62089   106.0171   -0.07216   0.0674     0.08822    0.51378    57         2.12801    0.265186   2.5345    
3552.7003  12.5239    -3552.7003 90.76028   106.4335   -0.07279   0.07023    0.10951    0.50251    57         2.14899    0.259912   2.5383    
3552.9003  12.525     -3552.9003 91.27354   109.5404   -0.07425   0.06286    0.09853    0.38478    57         2.20298    0.26651    2.5377    
3553.1003  12.52639   -3553.1003 91.71654   113.2886   -0.0726    0.08047    0.14606    0.35415    57         2.22679    0.268813   2.528     
