~Version
 VERS              .         2.0                           : CWLS LOG ASCII STANDARD - VERSION 2.0
 WRAP              .         NO                            : ONE LINE PER DEPTH STEP
 DLM               .         SPACE                         : DELIMITING CHARACTER(SPACE TAB OR COMMA)
~Well Information
#_______________________________________________________________________________
#
#PARAMETER_NAME    .UNIT     VALUE                         : DESCRIPTION
#_______________________________________________________________________________
STRT               .m        1537                          : First reference value
STOP               .m        5197.8                        : Last reference value
STEP               .m        0.2                           : Step increment
NULL               .         -9999                         : Missing value
COMP               .         PETROLEO BRASILEIRO S/A       : Company
WELL               .         4-ESS-151_resample            : Well name
FLD                .         GOLFINHO                      : Field
LOC                .                                       : Location
CNTY               .                                       : County
STAT               .         ESPIRITO SANTO                : State
CTRY               .                                       : Country
SRVC               .                                       : Service Company
DATE               .                                       : Date
API                .         342710302200                  : API number
EDF                .M        18.00                         : Elevation Derrick Floor
GDAT               .         SIRGAS2000                    : Geodetic Datum
HZCS               .         UTM                           : Horizontal Coordinate System
LMF                .         MR                            : Log Measure From
LATI               .         -19_56_15.689                 : Latitude
LONG               .         -39_25_50.073                 : Longitude
MC                 .         39 W                          : Meridiano Central
ORIG               .         SIGEO EXPORTACAO PERFIL       : Origem dos dados
ORIGINALWELLNAME   .         4ESS 0151  ES                 : 
WDMS               .M        1332.00                       : Water Depth to Mean Sea Level
X                  .         454939.60                     : Surface X
Y                  .         7795340.90                    : Surface Y
~Parameter Information Block
#_______________________________________________________________________________
#
#PARAMETER_NAME    .UNIT     VALUE                         : DESCRIPTION
#_______________________________________________________________________________
SET                .         ESS151_resample               : 
TLFamily_CALI      .         Caliper                       : 
TLFamily_DEPT      .         Measured Depth                : 
TLFamily_DT        .         Compressional Slowness        : 
TLFamily_GR        .         Gamma Ray                     : 
TLFamily_INPEFA_1  .                                       : 
TLFamily_INPEFA_2  .                                       : 
TLFamily_INPEFA_3  .                                       : 
TLFamily_INPEFA_4  .                                       : 
TLFamily_LITO      .                                       : 
TLFamily_LLD       .         Deep Resistivity              : 
TLFamily_NPHI      .         Neutron Porosity              : 
TLFamily_OG        .                                       : 
TLFamily_RHOB      .         Bulk Density                  : 
~Curve Information
#_______________________________________________________________________________
#
#LOGNAME           .UNIT     LOG_ID                        : DESCRIPTION
#_______________________________________________________________________________
DEPT               .m                                      :  
CALI               .in                                     : CALIPER 
DT                 .us/ft                                  : DELTA-T (ALSO CALLED SLOWNESS OR INTERVAL TRANSIT TIME) 
GR                 .gAPI                                   : GAMMA RAY 
INPEFA_1           .                                       :  
INPEFA_2           .                                       :  
INPEFA_3           .                                       :  
INPEFA_4           .                                       :  
LITO               .                                       :  
LLD                .ohm.m                                  : LATEROLOG DEEP RESISTIVITY 
NPHI               .%                                      : THERMAL NEUTRON POROSITY (ORIGINAL RATIO METHOD) IN SELECTED LITHOLOGY 
OG                 .                                       :  
RHOB               .g/cm3                                  : BULK DENSITY 
~Ascii
# ...
4090.6     12.3175    89.3421    137.3275   0.3122798  -0.09597173 -0.2132699 0.03899036 57         2.5026     21.8488    137.3275   2.5436    
4090.8     12.3301    89.1547    142.932    0.3228949  -0.04854078 -0.1466198 0.1402436  57         2.5009     22.1772    142.932    2.5449    
4091       12.3399    88.8759    144.8122   0.3093359  -0.0670257 -0.1836823 0.114799   57         2.4958     23.0008    144.8122   2.5547    
4091.2     12.3395    88.7859    138.9119   0.2965995  -0.08863686 -0.2358153 0.0261823  57         2.4893     22.7082    138.9119   2.5611    
4091.4     12.3399    89.0294    137.5918   0.3134827  -0.0296797 -0.1517717 0.1348721  57         2.4631     22.1955    137.5918   2.5528    
4091.6     12.3398    89.4081    141.0781   0.2898564  -0.06556378 -0.196509  0.1082671  57         2.4551     22.5201    141.0781   2.5484    
4091.8     12.3384    89.6662    138.8239   0.2777956  -0.08796961 -0.2526124 -0.03232478 57         2.4625     22.8515    138.8239   2.5548    
4092       12.3401    89.7596    133.0372   0.2904463  -0.04259657 -0.1989183 -0.04677741 57         2.467      22.6855    133.0372   2.5513    
4092.2     12.3412    89.8285    134.5639   0.2983105  0.00473962 -0.1077524 0.08219678 57         2.4488     22.5032    134.5639   2.543     
4092.4     12.3305    89.9198    140.9444   0.2915434  0.01504008 -0.06357593 0.2077793  57         2.4393     22.803     140.9444   2.5464    
4092.6     12.3285    90.0695    144.9909   0.2610107  -0.03838636 -0.1218163 0.2152403  57         2.4142     22.5094    144.9909   2.55      
4092.8     12.3275    90.1915    146.9589   0.251012   -0.05898485 -0.1656035 0.1557534  57         2.3885     22.2594    146.9589   2.5508    
4093       12.3285    90.2206    146.171    0.2548864  -0.03715611 -0.1372414 0.1760236  57         2.3588     22.4454    146.171    2.557     
4093.2     12.3271    90.133     144.6144   0.2537225  -0.02039095 -0.09832711 0.2617466  57         2.3626     22.1974    144.6144   2.5609    
4093.4     12.3293    89.9662    143.7614   0.2387237  -0.04231246 -0.121245  0.2683472  57         2.3581     22.0995    143.7614   2.556     
4093.6     12.3346    89.7955    139.866    0.21811    -0.08765804 -0.2024733 0.1112487  57         2.3947     21.8642    139.866    2.5503    
4093.8     12.3343    89.6163    134.4441   0.2355555  -0.03332256 -0.1311103 0.1120362  57         2.4361     21.8593    134.4441   2.5536    
4094       12.3315    89.4469    132.6754   0.2553831  0.04811249 0.02874547 0.3630921  57         2.4666     21.9951    132.6754   2.5585    
4094.2     12.3282    89.3536    134.7396   0.2222557  -0.00727765 -0.01316769 0.4441171  57         2.4591     22.3367    134.7396   2.5534    
4094.4     12.3241    89.3294    134.27     0.1960907  -0.07373451 -0.1221314 0.3393185  57         2.449      22.2268    134.27     2.5453    
4094.6     12.3284    89.3155    135.175    0.2121895  -0.02354758 -0.04432439 0.457531   57         2.4406     21.3513    135.175    2.5392    
4094.8     12.333     89.24      137.8696   0.2005773  -0.02756315 -0.01860334 0.5946825  57         2.4547     21.8316    137.8696   2.5345    
4095       12.3393    89.0619    136.4254   0.1739984  -0.08633358 -0.1052663 0.5500716  57         2.467      22.7865    136.4254   2.5333    
4095.2     12.3383    88.9301    132.4896   0.1516818  -0.147701  -0.2298084 0.3453591  57         2.5023     22.7928    132.4896   2.5338    
4095.4     12.3404    88.9982    131.2649   0.1703518  -0.102648  -0.1974597 0.2582612  57         2.5095     22.4185    131.2649   2.5334    
4095.6     12.3404    89.219     136.3598   0.189079   -0.02955231 -0.073604  0.3950616  57         2.5227     22.2185    136.3598   2.5336    
4095.8     12.3432    89.4642    141.348    0.1698362  -0.06024467 -0.1074825 0.3928123  57         2.5292     22.8228    141.348    2.5363    
4096       12.3453    89.5553    140.6982   0.1458818  -0.117226  -0.2105346 0.2363585  57         2.5286     23.2579    140.6982   2.5416    
4096.200000000001 12.3413    89.5201    137.8496   0.142204   -0.1281291 -0.2594259 0.07043561 57         2.5271     22.912     137.8496   2.5434    
4096.4     12.3404    89.4613    137.1012   0.1648777  -0.06042521 -0.1689259 0.1030719  57         2.5372     22.444     137.1012   2.5387    
4096.6     12.3372    89.3861    139.1849   0.163247   -0.0366078 -0.1061461 0.2211311  57         2.5377     21.9958    139.1849   2.5351    
4096.8     12.3378    89.2479    137.922    0.1303677  -0.106539  -0.2074706 0.1143231  57         2.56       22.1524    137.922    2.5335    
4097       12.3366    89.0379    132.5972   0.128161   -0.1102816 -0.2376723 0.002088773 57         2.6111     22.605     132.5972   2.5334    
4097.200000000001 12.3416    88.7825    133.4243   0.1288743  -0.09527704 -0.2258446 -0.05393312 57         2.6637     22.611     133.4243   2.5413    
4097.4     12.3419    88.524     139.412    0.114549   -0.1230656 -0.2924737 -0.2721609 57         2.6827     22.0157    139.412    2.5513    
4097.6     12.3399    88.3613    140.2919   0.1366591  -0.05243306 -0.2009016 -0.274329  57         2.6607     21.7892    140.2919   2.5521    
4097.8     12.3408    88.4288    138.8557   0.1160561  -0.08791506 -0.2608226 -0.4309097 57         2.6242     22.3102    138.8557   2.55      
4098       12.344     88.7194    140.805    0.1306294  -0.03792845 -0.1976945 -0.44787   57         2.5604     22.6288    140.805    2.5471    
4098.200000000001 12.3385    89.1235    144.0552   0.1313602  -0.009537704 -0.1368698 -0.3532456 57         2.5393     22.5089    144.0552   2.5429    
4098.4     12.3323    89.3044    141.2031   0.1028206  -0.07221802 -0.2382848 -0.4870397 57         2.5679     22.6313    141.2031   2.5436    
4098.6     12.3319    89.0156    134.5273   0.1149     -0.03176578 -0.1876143 -0.4562831 57         2.6092     23.3816    134.5273   2.549     
4098.8     12.3575    88.5844    132.7182   0.1111582  -0.01811803 -0.150818  -0.3602583 57         2.673      22.7282    132.7182   2.5489    
4099       12.3565    88.289     136.9182   0.09560432 -0.04696365 -0.1981924 -0.3910862 57         2.6929     22.0542    136.9182   2.5403    
4099.200000000001 12.3551    87.9191    139.8941   0.1029018  -0.01722901 -0.1550721 -0.2907162 57         2.6984     21.9277    139.8941   2.5369    
4099.4     12.3563    87.4643    136.4767   0.08227728 -0.06018728 -0.2222491 -0.3227022 57         2.6947     21.9887    136.4767   2.5417    
4099.6     12.3591    87.2738    132.6548   0.08372102 -0.05186948 -0.2232746 -0.3261371 57         2.6765     22.5256    132.6548   2.55      
4099.8     12.3589    87.5365    135.1759   0.09353346 -0.007852307 -0.143485  -0.1716612 57         2.6406     22.8586    135.1759   2.5531    
4100       12.3575    88.0647    138.1339   0.06444944 -0.07200425 -0.2429206 -0.2761757 57         2.596      22.6387    138.1339   2.5484    
4100.200000000001 12.3572    88.4835    138.123    0.07370815 -0.0465615 -0.2241302 -0.3045839 57         2.5739     22.0472    138.123    2.5423    
4100.4     12.3546    88.6954    138.0511   0.08061936 -0.009753817 -0.1547762 -0.2064717 57         2.556      22.0949    138.0511   2.5348    
4100.6     12.3522    88.6719    134.8843   0.05390893 -0.06820536 -0.2490973 -0.38171   57         2.5991     22.6762    134.8843   2.5399    
4100.8     12.3514    88.5672    133.3024   0.08514874 0.02126433 -0.1193246 -0.2952637 57         2.6238     22.0505    133.3024   2.5561    
4101       12.3514    88.4155    132.1859   0.08300295 0.04238407 -0.05178066 -0.1514288 57         2.6117     21.7848    132.1859   2.5561    
4101.200000000001 12.3508    88.2558    131.3607   0.06981271 0.02803636 -0.04236263 -0.05128047 57         2.5826     21.9462    131.3607   2.5443    
4101.4     12.3478    88.1373    134.5118   0.06704494 0.03664137 -0.004028974 0.08097518 57         2.5592     21.9655    134.5118   2.5414    
4101.6     12.3446    88.2606    135.4937   0.05789557 0.03042119 0.01480307 0.2169489  57         2.5701     22.072     135.4937   2.5425    
