~Version
 VERS              .         2.0                           : CWLS LOG ASCII STANDARD - VERSION 2.0
 WRAP              .         NO                            : ONE LINE PER DEPTH STEP
 DLM               .         SPACE                         : DELIMITING CHARACTER(SPACE TAB OR COMMA)
~Well Information
#_______________________________________________________________________________
#
#PARAMETER_NAME    .UNIT     VALUE                         : DESCRIPTION
#_______________________________________________________________________________
STRT               .m        1537                          : First reference value
STOP               .m        5197.8                        : Last reference value
STEP               .m        0.2                           : Step increment
NULL               .         -9999                         : Missing value
COMP               .         PETROLEO BRASILEIRO S/A       : Company
WELL               .         4-ESS-151_resample            : Well name
FLD                .         GOLFINHO                      : Field
LOC                .                                       : Location
CNTY               .                                       : County
STAT               .         ESPIRITO SANTO                : State
CTRY               .                                       : Country
SRVC               .                                       : Service Company
DATE               .                                       : Date
API                .         342710302200                  : API number
EDF                .M        18.00                         : Elevation Derrick Floor
GDAT               .         SIRGAS2000                    : Geodetic Datum
HZCS               .         UTM                           : Horizontal Coordinate System
LMF                .         MR                            : Log Measure From
LATI               .         -19_56_15.689                 : Latitude
LONG               .         -39_25_50.073                 : Longitude
MC                 .         39 W                          : Meridiano Central
ORIG               .         SIGEO EXPORTACAO PERFIL       : Origem dos dados
ORIGINALWELLNAME   .         4ESS 0151  ES                 : 
WDMS               .M        1332.00                       : Water Depth to Mean Sea Level
X                  .         454939.60                     : Surface X
Y                  .         7795340.90                    : Surface Y
~Parameter Information Block
#_______________________________________________________________________________
#
#PARAMETER_NAME    .UNIT     VALUE                         : DESCRIPTION
#_______________________________________________________________________________
SET                .         ESS151_resample               : 
TLFamily_CALI      .         Caliper                       : 
TLFamily_DEPT      .         Measured Depth                : 
TLFamily_DT        .         Compressional Slowness        : 
TLFamily_GR        .         Gamma Ray                     : 
TLFamily_INPEFA_1  .                                       : 
TLFamily_INPEFA_2  .                                       : 
TLFamily_INPEFA_3  .                                       : 
TLFamily_INPEFA_4  .                                       : 
TLFamily_LITO      .                                       : 
TLFamily_LLD       .         Deep Resistivity              : 
TLFamily_NPHI      .         Neutron Porosity              : 
TLFamily_OG        .                                       : 
TLFamily_RHOB      .         Bulk Density                  : 
~Curve Information
#_______________________________________________________________________________
#
#LOGNAME           .UNIT     LOG_ID                        : DESCRIPTION
#_______________________________________________________________________________
DEPT               .m                                      :  
CALI               .in                                     : CALIPER 
DT                 .us/ft                                  : DELTA-T (ALSO CALLED SLOWNESS OR INTERVAL TRANSIT TIME) 
GR                 .gAPI                                   : GAMMA RAY 
INPEFA_1           .                                       :  
INPEFA_2           .                                       :  
INPEFA_3           .                                       :  
INPEFA_4           .                                       :  
LITO               .                                       :  
LLD                .ohm.m                                  : LATEROLOG DEEP RESISTIVITY 
NPHI               .%                                      : THERMAL NEUTRON POROSITY (ORIGINAL RATIO METHOD) IN SELECTED LITHOLOGY 
OG                 .                                       :  
RHOB               .g/cm3                                  : BULK DENSITY 
~Ascii
# ...
2612.2     12.9976    105.3997   50.0909    0.4400767  0.288926   -0.01663463 -0.3914276 58         1.4601     23.4691    50.0909    2.3916    
2612.4     12.9689    105.3227   49.6477    0.4755316  0.401514   0.1593552  -0.2448637 58         1.4686     23.9139    49.6477    2.3972    
2612.6     12.9616    105.5378   50.111     0.4610624  0.385293   0.1468398  -0.3092939 58         1.4529     23.6046    50.111     2.391     
2612.8     12.9572    105.7231   53.6816    0.4599091  0.3944788  0.1582993  -0.4172262 58         1.4663     23.5107    53.6816    2.371     
2613       12.9342    105.5588   57.5309    0.4848193  0.476144   0.297146   -0.356322  58         1.4952     24.4192    57.5309    2.363     
2613.2     12.9346    104.9564   56.0419    0.508741   0.5763138  0.5158089  -0.05067969 58         1.5172     24.387     56.0419    2.3738    
2613.4     12.9587    104.4261   51.5138    0.4713969  0.5225201  0.5175498  0.08890369 58         1.4853     23.3213    51.5138    2.389     
2613.6     12.9766    104.5423   54.1164    0.4457297  0.464707   0.4547023  0.02503162 58         1.4413     22.9847    54.1164    2.3902    
2613.8     12.9846    105.2005   63.7264    0.4606855  0.5204642  0.5764819  0.2064236  58         1.4043     23.892     63.7264    2.3745    
2614       13.0047    105.5037   66.5797    0.4459704  0.5048422  0.6034942  0.3394033  58         1.4338     25.7048    66.5797    2.3692    
2614.2     13.0236    105.1523   60.0161    0.4274024  0.4722635  0.5927585  0.4336029  58         1.5304     25.9189    60.0161    2.3749    
2614.4     13.0233    104.6436   55.398     0.4061161  0.4228233  0.5370253  0.4484213  58         1.6656     25.3458    55.398     2.3613    
2614.6     13.0222    104.8579   52.9899    0.3963053  0.400784   0.5102872  0.4616424  58         1.6658     24.4101    52.9899    2.3577    
2614.8     13.038     105.8493   50.5883    0.3961664  0.401933   0.5099109  0.4826175  58         1.5782     23.1205    50.5883    2.3669    
2615       13.0369    107.0421   53.4431    0.393658   0.4039642  0.5203426  0.5964915  58         1.4909     22.7103    53.4431    2.3554    
2615.2     13.0729    107.7036   55.1508    0.383885   0.3815991  0.4884724  0.7090347  58         1.4566     24.5179    55.1508    2.347     
2615.4     13.085     107.435    51.0512    0.3498327  0.2915336  0.3339388  0.6622733  58         1.4731     25.9202    51.0512    2.353     
2615.6     13.0931    106.2362   50.9084    0.3279189  0.2047056  0.1190201  0.3432281  58         1.5759     25.4612    50.9084    2.3551    
2615.8     13.0977    105.38     55.7451    0.3623091  0.263613   0.1080811  0.1283418  58         1.6994     25.5469    55.7451    2.3618    
2616       13.0896    106.2195   57.3078    0.4118156  0.3955984  0.2691758  0.2152116  58         1.7887     25.0945    57.3078    2.3798    
2616.2     13.0891    109.7169   55.1433    0.4078008  0.395299   0.2454806  0.08426155 58         1.6827     23.7919    55.1433    2.3758    
2616.4     13.0882    115.0595   60.359     0.4180945  0.4315461  0.279025   -0.01640817 58         1.4438     24.7204    60.359     2.3323    
2616.6     13.1239    121.2395   70.77      0.438768   0.5078976  0.4139394  0.1083581  57         1.2273     28.8215    70.77      2.2797    
2616.8     13.168     128.1746   75.2722    0.4344162  0.5274295  0.4927363  0.2758852  57         1.1057     31.7178    75.2722    2.2384    
2617       13.1959    132.2877   76.3479    0.4060957  0.4827701  0.4769771  0.3658614  57         1.0385     34.6815    76.3479    2.2045    
2617.2     13.3582    132.529    78.8389    0.3722209  0.400435   0.3626412  0.2534125  57         1.0059     37.9135    78.8389    2.1904    
2617.4     13.2932    131.2412   82.1698    0.3728418  0.4050222  0.3791259  0.3105801  57         1.0178     38.7301    82.1698    2.1883    
2617.6     13.2773    129.5821   84.249     0.3625236  0.3778612  0.3449251  0.2917352  57         1.0505     38.127     84.249     2.1511    
2617.8     13.3022    127.527    83.6495    0.346905   0.3414038  0.2934674  0.2023948  57         1.1236     37.8772    83.6495    2.0893    
2618       13.2409    124.6376   82.008     0.3413813  0.3218508  0.2500747  0.04932503 57         1.1796     39.4422    82.008     2.07      
2618.2     13.2466    121.1046   80.8356    0.3520433  0.3524344  0.2940415  -0.006761573 57         1.2116     39.3624    80.8356    2.1174    
2618.4     13.2152    116.6836   84.1657    0.3627512  0.3943574  0.3819127  0.07113089 57         1.2507     38.5494    84.1657    2.1877    
2618.6     13.2664    110.9653   88.2995    0.3511157  0.376673   0.3856212  0.116548   57         1.3832     36.9687    88.2995    2.2287    
2618.8     13.2457    106.3043   82.6794    0.32965    0.3304837  0.3439927  0.1329967  57         1.6041     35.7746    82.6794    2.2498    
2619       13.1994    103.628    68.1154    0.3057052  0.2627438  0.2376594  -0.01693134 58         1.8191     34.17      68.1154    2.2926    
2619.2     13.2026    103.1231   59.0068    0.3140871  0.2788864  0.2540041  -0.04828735 58         1.8938     29.7088    59.0068    2.3489    
2619.4     13.1766    105.5868   58.6973    0.322103   0.3059385  0.3180071  0.09167628 58         1.8628     25.6295    58.6973    2.3728    
2619.6     13.2241    111.3266   60.6027    0.2961396  0.2429374  0.245575   0.1029072  58         1.7753     25.7331    60.6027    2.351     
2619.8     13.2731    119.2691   64.5479    0.2709337  0.1681801  0.1237702  -0.04469838 58         1.5996     27.878     64.5479    2.3102    
2620       13.3129    125.5051   72.785     0.268247   0.1459181  0.06540007 -0.1784097 58         1.3664     30.0029    72.785     2.2653    
2620.2     13.3449    128.2148   82.3879    0.2633902  0.1176292  -0.004158784 -0.373876  58         1.1966     33.9571    82.3879    2.2191    
2620.4     13.3399    128.4645   87.09      0.2927065  0.1818391  0.07877377 -0.4135293 58         1.1616     36.5246    87.09      2.1936    
2620.6     13.5592    127.128    86.7468    0.319471   0.2736761  0.2756772  -0.1325748 57         1.2637     38.4277    86.7468    2.1991    
2620.8     13.5394    124.0787   86.3355    0.2868525  0.2205323  0.2834591  0.08855167 57         1.3679     38.0352    86.3355    2.221     
2621       13.8004    119.8859   85.4715    0.2273528  0.07048029 0.09676825 0.03455943 57         1.4097     36.7202    85.4715    2.2433    
2621.2     14.1553    116.6194   82.2404    0.2222818  0.04435616 0.0635389  0.1187299  57         1.4291     36.7479    82.2404    2.2623    
2621.4     13.3414    115.2806   78.385     0.2063756  -0.006324869 -0.01120684 0.1609366  57         1.4448     35.1717    78.385     2.2827    
2621.6     13.181     115.41     77.9303    0.1970067  -0.03525477 -0.05374483 0.2815473  57         1.4412     33.0044    77.9303    2.2958    
2621.8     13.1306    115.9747   81.6609    0.178269   -0.09623801 -0.1672729 0.302258   57         1.4407     32.5159    81.6609    2.29      
2622       13.1457    116.0494   86.3886    0.1734708  -0.1293948 -0.2685108 0.2701971  57         1.531      32.8955    86.3886    2.2678    
2622.2     13.1105    115.0663   86.5413    0.1789813  -0.1327527 -0.3300079 0.2646758  57         1.6468     32.5471    86.5413    2.2456    
2622.4     13.0444    114.1263   82.6519    0.1730189  -0.1587516 -0.4279078 0.1631441  57         1.6464     30.5496    82.6519    2.2414    
2622.6     12.9443    113.9203   82.5264    0.1796368  -0.1525946 -0.4945495 -0.0174968 49         1.4944     25.5423    82.5264    2.2291    
2622.8     12.995     113.7999   86.841     0.2066029  -0.08856354 -0.4736766 -0.1591379 49         1.3391     22.8204    86.841     2.1876    
2623       13.2479    113.412    89.2542    0.2349015  -0.005395873 -0.3939749 -0.199199  58         1.3219     28.7325    89.2542    2.1796    
2623.2     13.298     112.49     88.3122    0.2639225  0.08360126 -0.2880809 -0.2006047 58         1.4307     34.7039    88.3122    2.2407    
