~Version
 VERS              .         2.0                           : CWLS LOG ASCII STANDARD - VERSION 2.0
 WRAP              .         NO                            : ONE LINE PER DEPTH STEP
 DLM               .         SPACE                         : DELIMITING CHARACTER(SPACE TAB OR COMMA)
~Well Information
#_______________________________________________________________________________
#
#PARAMETER_NAME    .UNIT     VALUE                         : DESCRIPTION
#_______________________________________________________________________________
STRT               .m        1537                          : First reference value
STOP               .m        5197.8                        : Last reference value
STEP               .m        0.2                           : Step increment
NULL               .         -9999                         : Missing value
COMP               .         PETROLEO BRASILEIRO S/A       : Company
WELL               .         4-ESS-151_resample            : Well name
FLD                .         GOLFINHO                      : Field
LOC                .                                       : Location
CNTY               .                                       : County
STAT               .         ESPIRITO SANTO                : State
CTRY               .                                       : Country
SRVC               .                                       : Service Company
DATE               .                                       : Date
API                .         342710302200                  : API number
EDF                .M        18.00                         : Elevation Derrick Floor
GDAT               .         SIRGAS2000                    : Geodetic Datum
HZCS               .         UTM                           : Horizontal Coordinate System
LMF                .         MR                            : Log Measure From
LATI               .         -19_56_15.689                 : Latitude
LONG               .         -39_25_50.073                 : Longitude
MC                 .         39 W                          : Meridiano Central
ORIG               .         SIGEO EXPORTACAO PERFIL       : Origem dos dados
ORIGINALWELLNAME   .         4ESS 0151  ES                 : 
WDMS               .M        1332.00                       : Water Depth to Mean Sea Level
X                  .         454939.60                     : Surface X
Y                  .         7795340.90                    : Surface Y
~Parameter Information Block
#_______________________________________________________________________________
#
#PARAMETER_NAME    .UNIT     VALUE                         : DESCRIPTION
#_______________________________________________________________________________
SET                .         ESS151_resample               : 
TLFamily_CALI      .         Caliper                       : 
TLFamily_DEPT      .         Measured Depth                : 
TLFamily_DT        .         Compressional Slowness        : 
TLFamily_GR        .         Gamma Ray                     : 
TLFamily_INPEFA_1  .                                       : 
TLFamily_INPEFA_2  .                                       : 
TLFamily_INPEFA_3  .                                       : 
TLFamily_INPEFA_4  .                                       : 
TLFamily_LITO      .                                       : 
TLFamily_LLD       .         Deep Resistivity              : 
TLFamily_NPHI      .         Neutron Porosity              : 
TLFamily_OG        .                                       : 
TLFamily_RHOB      .         Bulk Density                  : 
~Curve Information
#_______________________________________________________________________________
#
#LOGNAME           .UNIT     LOG_ID                        : DESCRIPTION
#_______________________________________________________________________________
DEPT               .m                                      :  
CALI               .in                                     : CALIPER 
DT                 .us/ft                                  : DELTA-T (ALSO CALLED SLOWNESS OR INTERVAL TRANSIT TIME) 
GR                 .gAPI                                   : GAMMA RAY 
INPEFA_1           .                                       :  
INPEFA_2           .                                       :  
INPEFA_3           .                                       :  
INPEFA_4           .                                       :  
LITO               .                                       :  
LLD                .ohm.m                                  : LATEROLOG DEEP RESISTIVITY 
NPHI               .%                                      : THERMAL NEUTRON POROSITY (ORIGINAL RATIO METHOD) IN SELECTED LITHOLOGY 
OG                 .                                       :  
RHOB               .g/cm3                                  : BULK DENSITY 
~Ascii
# ...
5007.200000000001 9.139098   64.44701   75.43495   -0.1273153 -0.2745591 -0.2349689 -0.1946266 49         -9999      8.646118   75.43495   2.447598  
5007.4     9.162188   63.91433   74.40046   -0.1085886 -0.245486  -0.1998926 -0.2357579 49         -9999      8.305177   74.40046   2.458395  
5007.6     9.169002   63.66169   76.69497   -0.08710977 -0.1932219 -0.1000975 -0.09914656 49         -9999      8.133935   76.69497   2.472292  
5007.8     9.173797   63.83723   77.21669   -0.1132206 -0.2695807 -0.2007478 -0.197973  49         -9999      8.465657   77.21669   2.505379  
5008       9.164515   64.79801   96.22367   -0.08590082 -0.2108488 -0.1052806 -0.07944962 49         -9999      9.208907   96.22367   2.535191  
5008.200000000001 9.156394   66.51099   126.379    -0.1149642 -0.2971594 -0.2338757 -0.2483028 49         -9999      9.719409   126.379    2.494629  
5008.4     9.181383   68.30763   139.2978   -0.08498635 -0.2467551 -0.1777808 -0.2452972 49         -9999      9.716662   139.2978   2.432328  
5008.6     9.241375   69.46293   126.4853   -0.09302432 -0.2623265 -0.1746394 -0.2332693 49         -9999      9.225303   126.4853   2.408407  
5008.8     9.258492   69.66801   106.68     -0.08298796 -0.2569987 -0.1710196 -0.2329078 49         -9999      8.375851   106.68     2.407     
5009       9.266294   69.1789    100.12     -0.0784033 -0.2489733 -0.1384141 -0.1448404 49         -9999      7.545201   100.12     2.408     
5009.200000000001 9.30418    68.4115    96.24377   -0.07387929 -0.243487  -0.1059214 -0.02267855 49         -9999      6.88112    96.24377   2.411497  
5009.4     9.322891   67.70594   93.72768   -0.08403257 -0.2736341 -0.1315097 0.003555842 49         -9999      6.335639   93.72768   2.418297  
5009.6     9.343491   67.19752   93.508     -0.08546682 -0.2814825 -0.1311993 0.02520535 49         -9999      6.107074   93.508     2.413304  
5009.8     9.368486   66.96599   92.60198   -0.07630717 -0.2665244 -0.1035549 0.07961273 49         -9999      6.06311    92.60198   2.404304  
5010       9.388789   66.84235   90.75222   -0.07842949 -0.276129  -0.1048865 0.1320895  49         -9999      6.072596   90.75222   2.399502  
5010.200000000001 9.420582   66.87686   89.17477   -0.07942642 -0.2906498 -0.1241588 0.1413993  49         -9999      6.040422   89.17477   2.400399  
5010.4     9.460381   67.04311   85.38747   -0.07929972 -0.2944238 -0.1175467 0.1977562  49         -9999      5.992723   85.38747   2.403399  
5010.6     9.494483   67.35262   79.88886   -0.09577372 -0.359608  -0.2357946 0.0151304  49         -9999      5.941525   79.88886   2.404     
5010.8     9.531581   67.71394   79.64848   -0.05176213 -0.251093  -0.05880007 0.2500456  49         -9999      5.932592   79.64848   2.4032    
5011       9.564684   67.68598   80.67199   -0.09711292 -0.3753629 -0.2363894 0.06650437 49         -9999      5.985776   80.67199   2.406897  
5011.200000000001 9.586091   67.15292   83.64466   -0.07181151 -0.3402827 -0.2135585 -0.01224613 49         -9999      5.88098    83.64466   2.414297  
5011.4     9.595894   66.56826   83.37566   -0.04982837 -0.2757999 -0.0785991 0.1912163  49         -9999      5.716567   83.37566   2.413602  
5011.6     9.621885   66.39163   81.36028   -0.08872009 -0.399028  -0.2789381 -0.1142469 49         -9999      5.638538   81.36028   2.409402  
5011.8     9.639894   66.51962   79.29697   -0.03437842 -0.2770219 -0.09149031 0.0631365  49         -9999      5.562032   79.29697   2.412398  
5012       9.652493   66.64236   78.34154   -0.05035874 -0.3112223 -0.09196109 0.1429131  49         -9999      5.549304   78.34154   2.418797  
5012.200000000001 9.660398   66.6456    78.41976   -0.05584216 -0.3299841 -0.09653137 0.1221752  49         -9999      5.488041   78.41976   2.422398  
5012.4     9.675591   66.71774   80.73489   -0.04156993 -0.2840146 0.008891558 0.2519196  49         -9999      5.46289    80.73489   2.424599  
5012.6     9.695393   66.87212   82.37132   -0.03605093 -0.2568068 0.09541611 0.4358157  49         -9999      5.598727   82.37132   2.427798  
5012.8     9.700897   66.98035   81.49392   -0.05017156 -0.2817665 0.09329782 0.53195    49         -9999      5.668181   81.49392   2.4285    
5013       9.713492   66.99451   80.54981   -0.05512755 -0.2917186 0.09316342 0.6204043  49         -9999      5.722762   80.54981   2.425102  
5013.200000000001 9.721297   66.74997   80.73269   -0.08205316 -0.3669545 -0.03704767 0.4679763  49         -9999      5.765696   80.73269   2.425599  
5013.4     9.730695   66.3481    81.07243   -0.04593393 -0.2875808 0.04664693 0.4995867  49         -9999      5.683545   81.07243   2.428599  
5013.6     9.731501   66.07372   82.83212   -0.05238337 -0.2869626 0.05324677 0.5301149  49         -9999      5.675488   82.83212   2.421405  
5013.8     9.742592   65.84431   79.04532   -0.06240652 -0.3245961 -0.04725724 0.3197103  49         -9999      5.723374   79.04532   2.415202  
5014       9.753995   65.65839   79.83981   -0.0337537 -0.2451867 0.04664879 0.3422187  49         -9999      5.81854    79.83981   2.417498  
5014.200000000001 9.765393   65.50248   80.79693   -0.0381251 -0.2468311 0.02774393 0.2712452  49         -9999      5.953537   80.79693   2.421498  
5014.4     9.770799   65.35038   77.28259   -0.03505322 -0.2379712 0.004304519 0.1378279  49         -9999      6.031672   77.28259   2.427896  
5014.6     9.777596   65.24165   79.73407   -0.02239032 -0.1989295 0.03513509 0.09024233 49         -9999      6.023812   79.73407   2.432299  
5014.8     9.783498   65.19961   77.84109   -0.01343659 -0.1644944 0.07396081 0.125762   49         -9999      6.068053   77.84109   2.429402  
5015       9.786898   65.23987   75.5828    -0.02983131 -0.2061246 -0.02510349 -0.06670137 49         -9999      6.267397   75.5828    2.4274    
5015.200000000001 9.788199   65.30177   77.74957   0.008673291 -0.09607737 0.1270794  0.1152733  49         -9999      6.301916   77.74957   2.438592  
5015.4     9.795296   65.31819   78.65323   -0.03070672 -0.1893761 -0.03693027 -0.09807375 49         -9999      6.262897   78.65323   2.461488  
5015.6     9.806095   65.39225   78.06239   -0.005639023 -0.1328566 -0.006096  -0.1771575 49         -9999      6.495155   78.06239   2.476095  
5015.8     9.801504   65.58649   80.0497    0.004365336 -0.09366233 0.03464068 -0.1649884 49         -9999      6.695842   80.0497    2.473203  
5016       9.7991     65.73714   83.35231   0.006701364 -0.08315615 0.0235507  -0.2183866 49         -9999      6.565489   83.35231   2.461906  
5016.200000000001 9.804597   65.67845   87.85281   0.00675342 -0.07918777 -0.001258373 -0.3184198 49         -9999      6.537079   87.85281   2.450006  
5016.4     9.809197   65.55436   85.35213   0.01664504 -0.04753168 0.0206712  -0.3757849 49         -9999      6.696106   85.35213   2.441704  
5016.6     9.8094     65.43665   81.60743   0.03478099 0.009597582 0.09498685 -0.3340706 49         -9999      7.021022   81.60743   2.440699  
5016.8     9.809399   65.44837   81.24234   0.03001322 0.01422988 0.102741   -0.3507328 49         -9999      7.304091   81.24234   2.445598  
5017       9.816298   65.59872   79.33493   0.04477853 0.06013745 0.1652317  -0.2988907 49         -9999      7.148952   79.33493   2.442503  
5017.200000000001 9.813601   65.58724   77.46048   0.05130508 0.09614639 0.2382016  -0.1662517 49         -9999      6.561918   77.46048   2.435802  
5017.4     9.8131     65.22752   78.13107   0.05513887 0.1285488  0.3180832  0.04070019 49         -9999      6.04002    78.13107   2.438998  
5017.6     9.814499   64.60704   77.80167   0.0391339  0.09709513 0.2838693  0.1084387  49         -9999      5.861248   77.80167   2.445497  
5017.8     9.809104   63.92532   76.22493   0.04290333 0.1147177  0.3184357  0.2371248  49         -9999      5.903266   76.22493   2.449699  
5018       9.805003   63.63058   78.08874   0.03642185 0.1071404  0.3146006  0.3228661  49         -9999      5.932394   78.08874   2.445903  
