~Version
 VERS              .         2.0                           : CWLS LOG ASCII STANDARD - VERSION 2.0
 WRAP              .         NO                            : ONE LINE PER DEPTH STEP
 DLM               .         SPACE                         : DELIMITING CHARACTER(SPACE TAB OR COMMA)
~Well Information
#_______________________________________________________________________________
#
#PARAMETER_NAME    .UNIT     VALUE                         : DESCRIPTION
#_______________________________________________________________________________
STRT               .m        1542                          : First reference value
STOP               .m        5640.8                        : Last reference value
STEP               .m        0.2                           : Step increment
NULL               .         -9999                         : Missing value
COMP               .         PETROLEO BRASILEIRO S/A       : Company
WELL               .         4-ESS-174A_resample           : Well name
FLD                .         GOLFINHO                      : Field
LOC                .                                       : Location
CNTY               .                                       : County
STAT               .         ESPIRITO SANTO                : State
CTRY               .                                       : Country
SRVC               .                                       : Service Company
DATE               .                                       : Date
API                .         342710322400                  : API number
EDF                .M        19.00                         : Elevation Derrick Floor
GDAT               .         SIRGAS2000                    : Geodetic Datum
HZCS               .         UTM                           : Horizontal Coordinate System
LMF                .         MR                            : Log Measure From
LATI               .         -19_56_54.869                 : Latitude
LONG               .         -39_29_58.132                 : Longitude
MC                 .         39 W                          : Meridiano Central
ORIG               .         SIGEO EXPORTACAO PERFIL       : Origem dos dados
ORIGINALWELLNAME   .         4ESS 0174A ES                 : 
WDMS               .M        1199.00                       : Water Depth to Mean Sea Level
X                  .         447729.60                     : Surface X
Y                  .         7794048.90                    : Surface Y
~Parameter Information Block
#_______________________________________________________________________________
#
#PARAMETER_NAME    .UNIT     VALUE                         : DESCRIPTION
#_______________________________________________________________________________
SET                .         ESS174A_resample              : 
TLFamily_CALI      .         Caliper                       : 
TLFamily_DEPT      .         Measured Depth                : 
TLFamily_DT        .         Compressional Slowness        : 
TLFamily_GR        .         Gamma Ray                     : 
TLFamily_INPEFA_1  .                                       : 
TLFamily_INPEFA_2  .                                       : 
TLFamily_INPEFA_3  .                                       : 
TLFamily_INPEFA_4  .                                       : 
TLFamily_LITO      .                                       : 
TLFamily_LLD       .         Deep Resistivity              : 
TLFamily_NPHI      .         Neutron Porosity              : 
TLFamily_OG        .                                       : 
TLFamily_RHOB      .         Bulk Density                  : 
~Curve Information
#_______________________________________________________________________________
#
#LOGNAME           .UNIT     LOG_ID                        : DESCRIPTION
#_______________________________________________________________________________
DEPT               .m                                      :  
CALI               .in                                     : CALIPER 
DT                 .us/ft                                  : DELTA-T (ALSO CALLED SLOWNESS OR INTERVAL TRANSIT TIME) 
GR                 .gAPI                                   : GAMMA RAY 
INPEFA_1           .                                       :  
INPEFA_2           .                                       :  
INPEFA_3           .                                       :  
INPEFA_4           .                                       :  
LITO               .                                       :  
LLD                .ohm.m                                  : LATEROLOG DEEP RESISTIVITY 
NPHI               .%                                      : THERMAL NEUTRON POROSITY (ORIGINAL RATIO METHOD) IN SELECTED LITHOLOGY 
OG                 .                                       :  
RHOB               .g/cm3                                  : BULK DENSITY 
~Ascii
# ...
5353       8.985305   59.56853   148.0362   -0.2761666 0.09935106 0.2263209  -0.2870264 57         39.84262346824734 8.434952   148.0362   2.6968    
5353.200000000001 8.9861     59.41476   154.9188   -0.2491329 0.1658551  0.3638753  -0.03895646 57         46.46924480815131 6.70209    154.9188   2.694401  
5353.4     8.976505   59.40749   142.6642   -0.2702718 0.1325031  0.3235048  -0.03247625 57         43.83464787614514 6.150097   142.6642   2.674515  
5353.6     8.988288   59.50305   128.7704   -0.2543326 0.1740118  0.4175293  0.1837696  57         39.65740145480067 6.323311   128.7704   2.620932  
5353.8     9.011496   59.60185   118.5646   -0.288182  0.1170886  0.3410938  0.1752787  57         38.97977034484568 6.530053   118.5646   2.577316  
5354       9.457126   59.637     112.9506   -0.3103864 0.06612077 0.2411649  0.0295174  49         43.25454311345625 7.191166   112.9506   2.5647    
5354.200000000001 10.19977   59.57724   117.5667   -0.3209252 0.0475198  0.2106271  -0.000797416 49         48.1613954872586 6.569096   117.5667   2.563603  
5354.4     10.40108   59.68232   126.098    -0.3168789 0.0492916  0.2016143  -0.04999466 49         47.16772517247993 5.14415    126.098    2.571394  
5354.6     10.31944   59.98695   135.5191   -0.2782161 0.1467281  0.4115776  0.3673998  49         40.26180764373642 5.967308   135.5191   2.599484  
5354.8     9.501019   60.24629   144.234    -0.3161889 0.0763348  0.3071147  0.2898711  49         34.13118986446166 7.6533     144.234    2.635182  
5355       8.973866   60.41192   142.4341   -0.3613029 -0.01851964 0.128263   -0.007859385 57         32.18832212752599 8.659776   142.4341   2.667683  
5355.200000000001 8.959291   60.67773   127.7462   -0.3357858 0.02899931 0.2078851  0.07940257 57         32.24182067796634 9.125522   127.7462   2.69399   
5355.4     8.971097   61.27995   125.1467   -0.3435896 0.02163156 0.2113292  0.1022506  57         33.01066450254951 9.284762   125.1467   2.695702  
5355.6     8.987888   62.04301   130.6155   -0.3478987 0.01488963 0.2042808  0.07256459 57         33.93142715068132 9.250158   130.6155   2.689301  
5355.8     9.000095   62.75945   130.8385   -0.3594007 -0.006730983 0.1679374  -0.01678938 57         31.7115016970122 9.010631   130.8385   2.701793  
5356       9.025491   63.26591   131.208    -0.3756607 -0.04515493 0.08638515 -0.2331822 57         27.43273241763767 9.433847   131.208    2.7065    
5356.200000000001 9.003508   63.24548   129.7063   -0.3384033 0.03756997 0.2469134  -0.01665225 57         24.66526591034247 10.45501   129.7063   2.68821   
5356.4     8.993907   63.09486   130.3336   -0.3630046 -0.005278108 0.185416   -0.113782  57         25.40138742917302 11.06228   130.3336   2.669909  
5356.6     8.980309   63.04362   130.9853   -0.396242  -0.08351544 0.02321228 -0.4873107 57         27.43251252862241 10.51948   130.9853   2.664001  
5356.8     8.964808   63.02411   136.384    -0.3583943 -0.005032668 0.1649169  -0.3573703 57         28.50252181107851 8.914011   136.384    2.668297  
5357       8.969793   63.09855   146.3799   -0.3112325 0.105419   0.3976338  0.02955802 57         26.19393024003711 8.21092    146.3799   2.676895  
5357.200000000001 8.993087   63.28429   154.1086   -0.3327537 0.07758008 0.387017   0.08047073 57         23.46629291629624 9.708186   154.1086   2.684696  
5357.4     9.023788   63.6309    152.1038   -0.3706578 0.01644567 0.3183773  0.07046784 57         22.07651643709809 11.76672   152.1038   2.682304  
5357.6     9.040398   63.75554   139.0836   -0.4188282 -0.09898681 0.08861226 -0.3743509 57         21.57011718877787 12.22788   139.0836   2.673704  
5357.8     9.023807   63.09322   133.5724   -0.3708423 0.006049317 0.2940074  -0.07435482 57         19.65797529380723 11.06315   133.5724   2.665105  
5358       8.970244   62.1458    147.6852   -0.4109315 -0.08282308 0.1285013  -0.3872889 49         18.47302356983524 8.082565   147.6852   2.627225  
5358.200000000001 8.930205   61.21673   154.9039   -0.3397734 0.07268041 0.4344772  0.1008368  49         20.40925285962516 5.622428   154.9039   2.567528  
5358.4     8.933298   60.76991   148.8997   -0.3493945 0.06777688 0.4697759  0.2731369  49         28.07959961101377 4.97887    148.8997   2.5536    
5358.6     8.926505   61.40583   143.7438   -0.3892368 0.003560627 0.4037706  0.3396336  49         36.74166880926395 4.938077   143.7438   2.599173  
5358.8     8.925501   62.30697   144.0981   -0.4099344 -0.04707251 0.3203307  0.2702156  49         34.68693339319734 5.758886   144.0981   2.663368  
5359       8.934397   62.12905   147.3103   -0.4391866 -0.09993242 0.2513078  0.2627752  57         29.31286708543879 7.917689   147.3103   2.698187  
5359.200000000001 8.940598   60.20199   141.7578   -0.4503236 -0.1327774 0.1928578  0.2307909  57         30.18408583387902 9.684448   141.7578   2.688507  
5359.4     8.952795   57.66592   136.534    -0.4667683 -0.1724614 0.1215997  0.1516735  57         40.60964830459323 8.535658   136.534    2.663814  
5359.6     8.883957   57.14452   143.7188   -0.4730681 -0.190311  0.09356251 0.1665839  57         51.48758196861203 5.073226   143.7188   2.626023  
5359.8     8.862597   57.80216   144.218    -0.4931797 -0.2426075 -0.01019079 0.02134887 57         50.9470561763645 3.079011   144.218    2.591812  
5360       8.884893   58.68639   125.6689   -0.4630978 -0.1816688 0.110584   0.2869488  49         40.6288785300784 4.258038   125.6689   2.618778  
5360.200000000001 8.8849     58.44391   114.9866   -0.5138432 -0.2931568 -0.09190089 0.04034812 49         31.46614903026385 7.10748    114.9866   2.66878   
5360.4     8.844031   57.17115   130.6471   -0.501581  -0.2858209 -0.103645  0.001214556 49         25.91250417155352 7.706557   130.6471   2.651018  
5360.6     8.821898   56.10221   154.782    -0.4545301 -0.1818724 0.111653   0.4848759  49         25.19507944263668 5.264999   154.782    2.599224  
5360.8     8.828395   55.83527   156.7809   -0.5301151 -0.3438013 -0.1797807 0.1465368  49         32.31142187668389 2.861112   156.7809   2.589796  
5361       8.810805   56.0991    148.797    -0.5527873 -0.4145871 -0.3455963 -0.1390978 49         45.54471078745964 1.686964   148.797    2.616386  
5361.200000000001 8.805304   57.91391   133.755    -0.5426562 -0.4058103 -0.3456925 -0.1274858 49         49.83440091211031 1.532221   133.755    2.619705  
5361.4     8.811798   61.2617    120.9671   -0.5723574 -0.4919893 -0.5474722 -0.5352362 49         38.96375146241606 2.477644   120.9671   2.587018  
5361.6     8.878757   62.94154   130.4584   -0.5159948 -0.397132  -0.4187714 -0.4667856 49         29.95123447092447 4.042331   130.4584   2.575299  
5361.8     8.92839    63.31358   148.3093   -0.4863885 -0.3340395 -0.2991092 -0.2671293 49         25.43806235887786 6.575017   148.3093   2.62137   
5362       8.942696   63.31321   162.0555   -0.4854791 -0.3444232 -0.3371392 -0.3796491 57         23.53400951900163 9.794813   162.0555   2.677972  
5362.200000000001 8.953497   63.23135   168.1437   -0.4580696 -0.2868858 -0.2286738 -0.2190072 57         23.56347586406184 12.77121   168.1437   2.697396  
5362.4     8.9483     63.06738   167.5105   -0.4549284 -0.2786502 -0.2031149 -0.149614  57         23.96454836678082 13.36145   167.5105   2.703398  
5362.6     8.9428     62.8818    163.2886   -0.4266196 -0.2155026 -0.06957701 0.1237248  57         25.09466954360055 11.96519   163.2886   2.711795  
5362.8     8.941      62.51581   160.9012   -0.4630406 -0.285522  -0.1747422 0.05192796 57         27.92975251579897 11.62231   160.9012   2.710602  
5363       8.92451    62.19701   154.3355   -0.4645544 -0.2982853 -0.2052293 0.001880254 57         36.28092844044149 11.70324   154.3355   2.690413  
5363.200000000001 8.897512   62.24474   154.1262   -0.435028  -0.2310317 -0.06096371 0.3121166  57         45.12482534389394 10.47918   154.1262   2.66821   
5363.4     8.893      62.36934   155.2576   -0.4770868 -0.3186829 -0.2080768 0.1634817  57         44.34112882336834 8.352965   155.2576   2.651108  
