~Version
 VERS              .         3.0                           : CWLS LOG ASCII STANDARD - VERSION 3.0
 WRAP              .         NO                            : ONE LINE PER DEPTH STEP
 DLM               .         SPACE                         : DELIMITING CHARACTER(SPACE TAB OR COMMA)
~Well Information
#_______________________________________________________________________________
#
#PARAMETER_NAME    .UNIT     VALUE                         : DESCRIPTION
#_______________________________________________________________________________
STRT               .m        2108.1003                     : First reference value
STOP               .m        4106.9003                     : Last reference value
STEP               .m        0.2                           : Step increment
NULL               .         -9999                         : Missing value
COMP               .         PETROLEO BRASILEIRO S/A       : Company
WELL               .         4-ESS-167_resample            : Well name
FLD                .         GOLFINHO                      : Field
LOC                .                                       : Location
SRVC               .                                       : Service Company
CTRY               .                                       : Country
DATE               .                                       : Service Date
LATI               .         -200010.479                   : Latitude
LONG               .         -394042.854                   : Longitude
GDAT               .         SIRGAS2000                    : Geodetic Datum
API                .         342710319700                  : API number
CNTY               .                                       : County
COUNTRY            .                                       : Country
EDF                .M        25.0                          : Elevation Derrick Floor
HZCS               .         UTM                           : Horizontal Coordinate System
LMF                .         MR                            : Log Measure From
MC                 .         39 W                          : Meridiano Central
ORIG               .         SIGEO EXPORTACAO PERFIL       : Origem dos dados
ORIGINALWELLNAME   .         4ESS 0167  ES                 : 
STAT               .         ESPIRITO SANTO                : State
WDMS               .M        966.0                         : Water Depth to Mean Sea Level
X                  .         429077.0                      : Surface X
Y                  .         7788071.0                     : Surface Y
~Parameter Information Block
#_______________________________________________________________________________
#
#PARAMETER_NAME    .UNIT     VALUE                         : DESCRIPTION
#_______________________________________________________________________________
SET                .         ESS167_resample               : 
TLFAMILY_CALI      .         Caliper                       : 
TLFAMILY_COTA      .         Measured Depth                : 
TLFAMILY_DT        .         Compressional Slowness        : 
TLFAMILY_GR        .         Gamma Ray                     : 
TLFAMILY_INPEFA_1  .         Photoelectric Factor          : 
TLFAMILY_INPEFA_2  .         Photoelectric Factor          : 
TLFAMILY_INPEFA_3  .         Photoelectric Factor          : 
TLFAMILY_INPEFA_4  .         Photoelectric Factor          : 
TLFAMILY_LITO      .                                       : 
TLFAMILY_LLD       .         Deep Resistivity              : 
TLFAMILY_RHOB      .         Bulk Density                  : 
TLFamily_CALI      .         Caliper                       : 
TLFamily_COTA      .                                       : 
TLFamily_DEPT      .         Measured Depth                : 
TLFamily_DT        .         Compressional Slowness        : 
TLFamily_GR        .         Gamma Ray                     : 
TLFamily_INPEFA_1  .         Photoelectric Factor          : 
TLFamily_INPEFA_2  .         Photoelectric Factor          : 
TLFamily_INPEFA_3  .         Photoelectric Factor          : 
TLFamily_INPEFA_4  .         Photoelectric Factor          : 
TLFamily_LITO      .                                       : 
TLFamily_LLD       .         Deep Resistivity              : 
TLFamily_NPHI      .         Neutron Porosity              : 
TLFamily_RHOB      .         Bulk Density                  : 
~Curve Information
#_______________________________________________________________________________
#
#LOGNAME           .UNIT     LOG_ID                        : DESCRIPTION
#_______________________________________________________________________________
DEPT               .m                                      :  {F}
CALI               .in                                     : CALIPER {F}
COTA               .                                       :  {F}
DT                 .us/ft                                  : DELTA-T (ALSO CALLED SLOWNESS OR INTERVAL TRANSIT TIME) {F}
GR                 .gAPI                                   : GAMMA RAY {F}
INPEFA_1           .                                       :  {F}
INPEFA_2           .                                       :  {F}
INPEFA_3           .                                       :  {F}
INPEFA_4           .                                       :  {F}
LITO               .                                       :  {F}
LLD                .ohm.m                                  : LATEROLOG DEEP RESISTIVITY {F}
NPHI               .                                       :  {F}
RHOB               .g/cm3                                  : BULK DENSITY {F}
~Ascii
2108.1003  18.9065    -2108.1003 115.8271   64.05950164794922 0.01943    0.31525    0.41153    -0.25324   49         2.455699920654297 -9999      2.1929    
2108.3003  19.2187    -2108.3003 111.3435   61.70539855957031 0.02153    0.36282    0.56571    -0.01365   49         2.321199893951416 -9999      2.2475    
2108.5003  19.4936    -2108.5003 107.777    62.78829956054688 -0.01647   0.31074    0.56251    0.10738    49         2.114700078964233 -9999      2.2163    
2108.7003  19.2548    -2108.7003 104.6154   65.54650115966797 -0.01944   0.34517    0.72784    0.54959    49         1.869699954986572 -9999      2.1164    
2108.9003  18.5173    -2108.9003 97.8757    69.83799743652344 -0.18399   0.00305    0.29836    0.37623    49         1.804999947547913 -9999      2.0742    
2109.1003  19.1467    -2109.1003 93.45690000000001 71.08560180664063 -0.26992   -0.2395    -0.10496   -0.05549   49         2.048199892044067 -9999      2.2032    
2109.3003  19.0722    -2109.3003 94.59690000000001 66.03759765625 -0.24751   -0.24058   -0.18484   -0.2304    49         2.405600070953369 -9999      2.375     
2109.5003  19.1039    -2109.5003 103.0571   62.12530136108398 -0.19072   -0.12077   -0.00605   -0.00205   49         2.56660008430481 -9999      2.4642    
2109.7003  19.032     -2109.7003 117.9837   64.90660095214844 -0.22459   -0.21234   -0.16455   -0.14999   49         2.451900005340576 -9999      2.4762    
2109.9003  18.9187    -2109.9003 125.1159   72.61519622802734 -0.19361   -0.15338   -0.08051   -0.01509   49         2.192600011825562 -9999      2.3898    
2110.1003  18.6704    -2110.1003 126.826    78.44699859619141 -0.20869   -0.18692   -0.12136   0.07267    49         1.85699999332428 -9999      2.2252    
2110.3003  18.2907    -2110.3003 133.4049   79.30780029296875 -0.22632   -0.25274   -0.24833   -0.04903   49         1.586400032043457 -9999      2.0805    
2110.5003  18.6297    -2110.5003 137.7059   80.34490203857422 -0.21453   -0.23951   -0.25008   -0.0202    49         1.458600044250488 -9999      1.998     
2110.7003  19.524     -2110.7003 135.6613   78.60289764404297 -0.21803   -0.26566   -0.31523   -0.09978   49         1.43120002746582 -9999      1.9432    
2110.9003  19.4871    -2110.9003 127.7876   74.80740356445313 -0.19256   -0.22155   -0.27028   -0.07891   49         1.445899963378906 -9999      1.8987    
2111.1003  18.4669    -2111.1003 118.2859   76.39350128173828 -0.191     -0.22237   -0.27516   -0.10444   49         1.517199993133545 -9999      1.814     
2111.3003  19.1246    -2111.3003 108.5841   81.39700317382813 -0.18175   -0.21521   -0.28415   -0.2033    49         1.723099946975708 -9999      1.6978    
2111.5003  19.1301    -2111.5003 102.2023   90.10669708251953 -0.14149   -0.11579   -0.11483   -0.031     49         2.035799980163574 -9999      1.7399    
2111.7003  18.6644    -2111.7003 98.4014    98.85420227050781 -0.12709   -0.06636   0.00892    0.17954    49         2.315799951553345 -9999      1.9717    
2111.9003  18.9352    -2111.9003 99.6323    127.0891   -0.15226   -0.10018   0.02758    0.35894    49         2.37280011177063 -9999      2.2051    
2112.1003  19.4932    -2112.1003 102.2122   162.1746   -0.18819   -0.19736   -0.10887   0.23373    57         2.23639988899231 -9999      2.3122    
2112.3003  19.2973    -2112.3003 103.823    159.5616   -0.18423   -0.18709   -0.06363   0.34426    57         2.065599918365479 -9999      2.2557    
2112.5003  18.8418    -2112.5003 104.5294   126.7428   -0.17871   -0.17318   0.00148    0.55786    57         1.952600002288818 -9999      2.1027    
2112.7003  18.8382    -2112.7003 105.028    104.9221   -0.21423   -0.25345   -0.08043   0.62161    57         1.937899947166443 -9999      2.0414    
2112.9003  19.0565    -2112.9003 105.5514   96.2961    -0.27545   -0.41791   -0.33568   0.38428    57         1.973099946975708 -9999      2.1076    
2113.1003  19.4318    -2113.1003 106.7827   91.7911    -0.27601   -0.45326   -0.42293   0.25449    49         2.015899896621704 -9999      2.1918    
2113.3003  19.653     -2113.3003 109.9152   92.9303    -0.27113   -0.48727   -0.54025   -0.05297   49         2.029999971389771 -9999      2.2715    
2113.5003  19.1869    -2113.5003 112.4284   92.5844    -0.22123   -0.39889   -0.45148   -0.1406    49         1.959400057792664 -9999      2.3299    
2113.7003  18.8839    -2113.7003 112.4087   89.74509999999999 -0.15328   -0.24423   -0.20966   0.06529    49         1.781200051307678 -9999      2.3065    
2113.9003  18.9318    -2113.9003 108.692    83.7751    -0.12927   -0.18573   -0.10236   0.13463    49         1.568099975585938 -9999      2.1603    
2114.1003  18.1786    -2114.1003 101.0424   77.7608    -0.11217   -0.11023   0.09657    0.51952    49         1.586699962615967 -9999      2.0348    
2114.3003  18.0758    -2114.3003 95.773     73.3969    -0.1744    -0.25741   -0.10125   0.35892    49         2.021800041198731 -9999      2.1218    
2114.5003  18.699     -2114.5003 93.89619999999999 64.9953    -0.17146   -0.25551   -0.08546   0.38312    49         2.627500057220459 -9999      2.3624    
2114.7003  17.7863    -2114.7003 92.96040000000001 57.415     -0.17348   -0.26312   -0.07513   0.44579    49         2.50629997253418 -9999      2.4548    
2114.9003  16.9149    -2114.9003 91.16070000000001 62.5294    -0.17277   -0.26947   -0.07858   0.44031    49         2.008899927139282 -9999      2.2809    
2115.1003  16.2554    -2115.1003 88.0295    75.88500000000001 -0.17475   -0.27417   -0.06471   0.49529    49         1.821200013160706 -9999      2.1382    
2115.3003  15.0897    -2115.3003 81.9898    83.7257    -0.17695   -0.28214   -0.06059   0.53713    49         2.196199893951416 -9999      2.1748    
2115.5003  14.2434    -2115.5003 63.932     82.71129999999999 -0.19288   -0.32453   -0.11627   0.49616    49         3.277400016784668 -9999      2.267     
2115.7003  13.9314    -2115.7003 53.4449    85.7448    -0.18897   -0.32655   -0.11881   0.50214    49         4.208499908447266 -9999      2.3939    
2115.9003  13.4353    -2115.9003 57.8071    98.5219    -0.19024   -0.33222   -0.11225   0.54572    49         3.282000064849854 -9999      2.5117    
2116.1003  13.1418    -2116.1003 79.77930000000001 104.2889   -0.19971   -0.36285   -0.15695   0.47368    57         2.265300035476685 -9999      2.5061    
2116.3003  13.2038    -2116.3003 92.6257    95.7128    -0.18787   -0.33873   -0.11805   0.47008    57         2.226300001144409 -9999      2.3845    
2116.5003  13.3036    -2116.5003 92.12520000000001 78.723     -0.19478   -0.35658   -0.14543   0.37291    57         3.147300004959106 -9999      2.3376    
2116.7003  13.19      -2116.7003 98.94710000000001 56.7525    -0.19175   -0.35762   -0.1657    0.21697    57         4.328000068664551 -9999      2.4467    
2116.9003  13.0773    -2116.9003 129.6886   41.3866    -0.17179   -0.30807   -0.0926    0.20253    57         4.067800045013428 -9999      2.5151    
2117.1003  13.0537    -2117.1003 144.9684   41.7128    -0.18032   -0.32736   -0.13209   0.04298    6          2.782999992370606 -9999      2.4567    
2117.3003  13.1469    -2117.3003 142.1572   57.6044    -0.16795   -0.30281   -0.11622   -0.09236   6          1.907999992370606 -9999      2.3369    
2117.5003  13.2804    -2117.5003 140.5585   73.06270000000001 -0.13038   -0.1986    0.06146    0.07855    6          1.562100052833557 -9999      2.2112    
2117.7003  13.483     -2117.7003 139.1044   76.54640000000001 -0.13958   -0.20479   0.06984    0.09131    6          1.538900017738342 -9999      2.162     
2117.9003  13.4974    -2117.9003 137.7442   75.39830000000001 -0.17137   -0.27772   -0.05557   -0.12314   6          1.570500016212463 -9999      2.184     
2118.1003  13.5673    -2118.1003 136.8501   74.86530000000001 -0.15437   -0.24174   -0.02252   -0.17054   58         1.495499968528748 -9999      2.2165    
2118.3003  13.6708    -2118.3003 136.2833   73.7576    -0.16424   -0.26268   -0.07592   -0.32947   58         1.387899994850159 -9999      2.2191    
