~Version
 VERS              .         2.0                           : CWLS LOG ASCII STANDARD - VERSION 2.0
 WRAP              .         NO                            : ONE LINE PER DEPTH STEP
 DLM               .         SPACE                         : DELIMITING CHARACTER(SPACE TAB OR COMMA)
~Well Information
#_______________________________________________________________________________
#
#PARAMETER_NAME    .UNIT     VALUE                         : DESCRIPTION
#_______________________________________________________________________________
STRT               .m        1542                          : First reference value
STOP               .m        5640.8                        : Last reference value
STEP               .m        0.2                           : Step increment
NULL               .         -9999                         : Missing value
COMP               .         PETROLEO BRASILEIRO S/A       : Company
WELL               .         4-ESS-174A_resample           : Well name
FLD                .         GOLFINHO                      : Field
LOC                .                                       : Location
CNTY               .                                       : County
STAT               .         ESPIRITO SANTO                : State
CTRY               .                                       : Country
SRVC               .                                       : Service Company
DATE               .                                       : Date
API                .         342710322400                  : API number
EDF                .M        19.00                         : Elevation Derrick Floor
GDAT               .         SIRGAS2000                    : Geodetic Datum
HZCS               .         UTM                           : Horizontal Coordinate System
LMF                .         MR                            : Log Measure From
LATI               .         -19_56_54.869                 : Latitude
LONG               .         -39_29_58.132                 : Longitude
MC                 .         39 W                          : Meridiano Central
ORIG               .         SIGEO EXPORTACAO PERFIL       : Origem dos dados
ORIGINALWELLNAME   .         4ESS 0174A ES                 : 
WDMS               .M        1199.00                       : Water Depth to Mean Sea Level
X                  .         447729.60                     : Surface X
Y                  .         7794048.90                    : Surface Y
~Parameter Information Block
#_______________________________________________________________________________
#
#PARAMETER_NAME    .UNIT     VALUE                         : DESCRIPTION
#_______________________________________________________________________________
SET                .         ESS174A_resample              : 
TLFamily_CALI      .         Caliper                       : 
TLFamily_DEPT      .         Measured Depth                : 
TLFamily_DT        .         Compressional Slowness        : 
TLFamily_GR        .         Gamma Ray                     : 
TLFamily_INPEFA_1  .                                       : 
TLFamily_INPEFA_2  .                                       : 
TLFamily_INPEFA_3  .                                       : 
TLFamily_INPEFA_4  .                                       : 
TLFamily_LITO      .                                       : 
TLFamily_LLD       .         Deep Resistivity              : 
TLFamily_NPHI      .         Neutron Porosity              : 
TLFamily_OG        .                                       : 
TLFamily_RHOB      .         Bulk Density                  : 
~Curve Information
#_______________________________________________________________________________
#
#LOGNAME           .UNIT     LOG_ID                        : DESCRIPTION
#_______________________________________________________________________________
DEPT               .m                                      :  
CALI               .in                                     : CALIPER 
DT                 .us/ft                                  : DELTA-T (ALSO CALLED SLOWNESS OR INTERVAL TRANSIT TIME) 
GR                 .gAPI                                   : GAMMA RAY 
INPEFA_1           .                                       :  
INPEFA_2           .                                       :  
INPEFA_3           .                                       :  
INPEFA_4           .                                       :  
LITO               .                                       :  
LLD                .ohm.m                                  : LATEROLOG DEEP RESISTIVITY 
NPHI               .%                                      : THERMAL NEUTRON POROSITY (ORIGINAL RATIO METHOD) IN SELECTED LITHOLOGY 
OG                 .                                       :  
RHOB               .g/cm3                                  : BULK DENSITY 
~Ascii
# ...
4568.6     13.3716    79.7474    147.6289   -0.07747787 0.2464257  0.3206046  0.1203632  57         4.884600162506103 16.0019    147.6289   2.6011    
4568.8     13.3604    79.8418    150.5019   -0.07280333 0.2620125  0.3416706  0.1547688  57         4.844600200653076 16.0143    150.5019   2.5904    
4569       13.3628    79.7329    153.8632   -0.06723112 0.2810053  0.3751471  0.2342221  57         4.741799831390381 16.1482    153.8632   2.5924    
4569.200000000001 13.3768    79.5347    155.8182   -0.07674786 0.2665007  0.3422192  0.1938079  57         4.87769985199056 16.4336    155.8182   2.6103    
4569.4     13.3767    79.3806    157.9374   -0.06937023 0.2873324  0.3749854  0.2570079  57         4.947700023651123 16.7792    157.9374   2.6262    
4569.6     13.3429    79.2663    161.8913   -0.05854305 0.321419   0.4458775  0.4298333  57         5.005599975585938 16.1953    161.8913   2.637     
4569.8     13.3035    79.2512    166.8134   -0.08164659 0.2827252  0.3800427  0.3859931  57         5.037099838256836 16.0331    166.8134   2.6408    
4570       13.3377    79.3995    168.9384   -0.0875965 0.2711251  0.3464812  0.3348696  57         4.941400051116943 16.0582    168.9384   2.6394    
4570.200000000001 13.3482    79.5678    166.7223   -0.07999096 0.2965604  0.3967815  0.4558089  57         4.930200099944598 16.0994    166.7223   2.6382    
4570.4     13.3453    79.656     164.3507   -0.1011916 0.2580918  0.3229238  0.363852   57         4.882999897003174 16.4021    164.3507   2.623     
4570.6     13.3528    79.6402    162.681    -0.1064293 0.2480813  0.2888075  0.284717   57         4.878699779510498 16.8403    162.681    2.6107    
4570.8     13.3096    79.6061    163.3628   -0.1036981 0.2573606  0.2937879  0.2724416  57         4.980599880218506 16.6378    163.3628   2.6298    
4571       13.2598    79.68      167.9861   -0.1077244 0.25379    0.2778375  0.2381888  57         5.003799915313721 16.2641    167.9861   2.6447    
4571.200000000001 13.2571    79.9501    175.7829   -0.1209629 0.225951   0.2069898  0.08125895 57         5.145400047303392 16.7692    175.7829   2.6354    
4571.4     13.2675    80.311     181.3753   -0.1120917 0.2472668  0.2312498  0.0797966  57         5.351500034332275 17.3489    181.3753   2.6413    
4571.6     13.3075    80.4991    181.2924   -0.1125837 0.2512577  0.2297308  0.05725443 57         5.340600013732909 17.4328    181.2924   2.6538    
4571.8     13.3197    80.3629    177.2015   -0.1071109 0.2689161  0.2560195  0.08823387 57         5.520899772644043 16.981     177.2015   2.6467    
4572       13.3507    80.1442    171.8838   -0.1033075 0.2843345  0.2823634  0.1395679  57         5.623700141906738 17.1924    171.8838   2.6393    
4572.200000000001 13.3703    79.9428    169.7792   -0.1123596 0.2743705  0.2650243  0.1401608  57         5.458300113677479 16.6374    169.7792   2.6402    
4572.4     13.3971    79.7708    168.8373   -0.1280298 0.242715   0.192972   0.01493748 57         5.48420000076294 15.7871    168.8373   2.6412    
4572.6     13.2373    79.5963    165.4494   -0.1314839 0.2375151  0.169004   -0.04292819 57         5.270800113677979 16.6986    165.4494   2.6286    
4572.8     13.2456    79.4985    167.0952   -0.145726  0.2081521  0.09720638 -0.1876767 57         5.158199787139893 17.9883    167.0952   2.6092    
4573       13.2395    79.5679    172.5881   -0.1430779 0.2115689  0.08017457 -0.269834  57         5.081999778747559 18.1398    172.5881   2.6063    
4573.200000000001 13.2049    79.7261    173.6908   -0.1486591 0.2001964  0.03897481 -0.3903031 57         5.209700107574464 18.1276    173.6908   2.6177    
4573.4     13.2128    79.8631    174.7782   -0.1391278 0.221104   0.05986571 -0.4040639 57         5.189099788665772 17.735     174.7782   2.6263    
4573.6     13.188     79.8913    177.573    -0.1383752 0.2267509  0.05988178 -0.428404  57         5.221300125122069 17.4361    177.573    2.6267    
4573.8     13.1246    79.8713    177.1853   -0.1291998 0.2504239  0.09632727 -0.3794262 57         5.233799934387206 18.2878    177.1853   2.6228    
4574       13.096     79.8831    175.1174   -0.125094  0.2666239  0.1269026  -0.3099197 57         5.27370023727417 18.6015    175.1174   2.6199    
4574.200000000001 13.0946    79.9193    175.8011   -0.1407761 0.2432515  0.08876164 -0.325892  57         5.209099769592405 17.9832    175.8011   2.6332    
4574.4     13.0646    79.9771    175.3239   -0.1694355 0.1780126  -0.05460624 -0.5957713 57         5.20419979095459 18.1215    175.3239   2.652     
4574.6     13.0439    80.111     172.5633   -0.1573879 0.2045951  -0.02040019 -0.5794115 57         5.149400234222412 18.2909    172.5633   2.6573    
4574.8     13.0238    80.3352    169.7612   -0.1631865 0.1890544  -0.07007304 -0.7137387 57         4.994500160217285 18.371     169.7612   2.6554    
4575       13.0448    80.5635    167.4304   -0.1504088 0.2217362  -0.01543617 -0.6482432 57         5.035900115966797 19.2754    167.4304   2.6469    
4575.200000000001 12.9805    80.7409    168.5517   -0.1526675 0.2193082  -0.02695535 -0.6827031 57         4.825699806213736 19.1141    168.5517   2.6436    
4575.4     12.9509    80.8435    174.0416   -0.1460163 0.239637   0.01018109 -0.6263741 57         4.893300056457519 19.4714    174.0416   2.6504    
4575.6     12.8803    80.8829    178.751    -0.1512912 0.2343527  0.001855182 -0.6346636 57         4.703199863433838 19.7616    178.751    2.6375    
4575.8     12.8522    80.8593    181.7633   -0.1348104 0.2771109  0.08778802 -0.4733744 57         4.806600093841553 19.5399    181.7633   2.6172    
4576       12.873     80.7764    181.5463   -0.1495157 0.2570187  0.06425664 -0.4567112 57         4.732800006866455 19.1678    181.5463   2.6255    
4576.200000000001 12.9023    80.7117    179.4065   -0.1647377 0.2266334  0.00445327 -0.5513576 57         4.817999839783398 19.0729    179.4065   2.6446    
4576.4     12.9098    80.7465    175.6548   -0.1508487 0.2621388  0.07407018 -0.4240705 57         4.947500228881837 19.1755    175.6548   2.6504    
4576.6     12.877     80.9214    172.0132   -0.1594587 0.2501971  0.05787347 -0.4194006 57         4.973700046539307 20.3211    172.0132   2.644     
4576.8     12.8118    81.2186    168.5954   -0.1473908 0.2839839  0.1315771  -0.2518908 57         5.011000156402588 21.3745    168.5954   2.6345    
4577       12.7776    81.5895    166.1618   -0.1508246 0.28661    0.153487   -0.1372175 57         4.903200149536133 21.5041    166.1618   2.6327    
4577.200000000001 12.7397    81.959     169.8252   -0.1706847 0.2532035  0.104853   -0.1407021 57         4.914100170134758 20.8781    169.8252   2.6332    
4577.4     12.7587    82.1756    179.4646   -0.1857091 0.2209477  0.04196664 -0.2214482 57         4.745100021362305 21.2134    179.4646   2.6312    
4577.6     12.764     82.2036    183.6759   -0.1667161 0.2660087  0.1317425  -0.04185589 57         4.816699981689452 22.3825    183.6759   2.6309    
4577.8     12.7333    81.9213    180.4666   -0.1798618 0.249071   0.11835    0.01458998 57         4.675600051879883 21.9527    180.4666   2.6292    
4578       12.7244    81.6458    174.987    -0.1830663 0.245156   0.1160739  0.05221104 57         4.83050012588501 22.2734    174.987    2.6342    
4578.200000000001 12.6895    81.5261    171.0629   -0.1799363 0.2613747  0.1629289  0.1988654  57         4.807400226591661 22.6356    171.0629   2.6344    
4578.4     12.6674    81.5208    168.9988   -0.1965589 0.2332289  0.1239647  0.2046653  57         4.654399871826171 22.8804    168.9988   2.6226    
4578.6     12.6637    81.5468    169.2764   -0.2104418 0.2054214  0.07307445 0.1417891  57         4.752099990844727 22.7577    169.2764   2.6157    
4578.8     12.6763    81.5471    167.9753   -0.2062471 0.2186122  0.1024517  0.2108651  57         4.625599861145019 21.8979    167.9753   2.6047    
4579       12.7004    81.6201    169.0854   -0.209976  0.2158402  0.1045679  0.2442012  57         4.686399936676025 22.0728    169.0854   2.5958    
