~Version
 VERS              .         2.0                           : CWLS LOG ASCII STANDARD - VERSION 2.0
 WRAP              .         NO                            : ONE LINE PER DEPTH STEP
 DLM               .         SPACE                         : DELIMITING CHARACTER(SPACE TAB OR COMMA)
~Well Information
#_______________________________________________________________________________
#
#PARAMETER_NAME    .UNIT     VALUE                         : DESCRIPTION
#_______________________________________________________________________________
STRT               .m        1537                          : First reference value
STOP               .m        5197.8                        : Last reference value
STEP               .m        0.2                           : Step increment
NULL               .         -9999                         : Missing value
COMP               .         PETROLEO BRASILEIRO S/A       : Company
WELL               .         4-ESS-151_resample            : Well name
FLD                .         GOLFINHO                      : Field
LOC                .                                       : Location
CNTY               .                                       : County
STAT               .         ESPIRITO SANTO                : State
CTRY               .                                       : Country
SRVC               .                                       : Service Company
DATE               .                                       : Date
API                .         342710302200                  : API number
EDF                .M        18.00                         : Elevation Derrick Floor
GDAT               .         SIRGAS2000                    : Geodetic Datum
HZCS               .         UTM                           : Horizontal Coordinate System
LMF                .         MR                            : Log Measure From
LATI               .         -19_56_15.689                 : Latitude
LONG               .         -39_25_50.073                 : Longitude
MC                 .         39 W                          : Meridiano Central
ORIG               .         SIGEO EXPORTACAO PERFIL       : Origem dos dados
ORIGINALWELLNAME   .         4ESS 0151  ES                 : 
WDMS               .M        1332.00                       : Water Depth to Mean Sea Level
X                  .         454939.60                     : Surface X
Y                  .         7795340.90                    : Surface Y
~Parameter Information Block
#_______________________________________________________________________________
#
#PARAMETER_NAME    .UNIT     VALUE                         : DESCRIPTION
#_______________________________________________________________________________
SET                .         ESS151_resample               : 
TLFamily_CALI      .         Caliper                       : 
TLFamily_DEPT      .         Measured Depth                : 
TLFamily_DT        .         Compressional Slowness        : 
TLFamily_GR        .         Gamma Ray                     : 
TLFamily_INPEFA_1  .                                       : 
TLFamily_INPEFA_2  .                                       : 
TLFamily_INPEFA_3  .                                       : 
TLFamily_INPEFA_4  .                                       : 
TLFamily_LITO      .                                       : 
TLFamily_LLD       .         Deep Resistivity              : 
TLFamily_NPHI      .         Neutron Porosity              : 
TLFamily_OG        .                                       : 
TLFamily_RHOB      .         Bulk Density                  : 
~Curve Information
#_______________________________________________________________________________
#
#LOGNAME           .UNIT     LOG_ID                        : DESCRIPTION
#_______________________________________________________________________________
DEPT               .m                                      :  
CALI               .in                                     : CALIPER 
DT                 .us/ft                                  : DELTA-T (ALSO CALLED SLOWNESS OR INTERVAL TRANSIT TIME) 
GR                 .gAPI                                   : GAMMA RAY 
INPEFA_1           .                                       :  
INPEFA_2           .                                       :  
INPEFA_3           .                                       :  
INPEFA_4           .                                       :  
LITO               .                                       :  
LLD                .ohm.m                                  : LATEROLOG DEEP RESISTIVITY 
NPHI               .%                                      : THERMAL NEUTRON POROSITY (ORIGINAL RATIO METHOD) IN SELECTED LITHOLOGY 
OG                 .                                       :  
RHOB               .g/cm3                                  : BULK DENSITY 
~Ascii
# ...
3172.2     12.462     95.0847    74.2635    -0.06235029 -0.09225532 0.270361   0.4719405  49         0.7464     21.96      74.2635    2.3081    
3172.4     12.4914    95.2634    73.4716    -0.1038548 -0.2077772 0.09270986 0.2756554  49         0.6105     21.5937    73.4716    2.2991    
3172.6     12.6148    95.3488    70.3689    -0.09123567 -0.1868577 0.1036265  0.2647178  49         0.46       21.6813    70.3689    2.2814    
3172.8     12.7393    95.2059    70.3243    -0.09061311 -0.2044794 0.0347843  0.08464012 49         0.3737     21.9588    70.3243    2.2701    
3173       12.791     94.6766    72.4797    -0.08505543 -0.1944772 0.01877994 -0.03538393 49         0.431      22.4778    72.4797    2.2772    
3173.2     12.7174    94.0941    73.1186    -0.06352296 -0.1461645 0.06302463 -0.06178006 49         0.5622     22.6657    73.1186    2.2876    
3173.4     12.58      93.9314    74.1604    -0.06710598 -0.1530005 0.03263588 -0.1629219 49         0.7109     22.8309    74.1604    2.2779    
3173.6     12.6781    94.2062    74.445     -0.05414562 -0.1244086 0.04501878 -0.2361883 49         0.6707     23.1358    74.445     2.2558    
3173.8     12.7608    94.7991    71.8174    -0.03127806 -0.0551999 0.1465908  -0.1136237 49         0.541      23.6407    71.8174    2.2404    
3174       12.9174    95.1829    66.5445    -0.0389776 -0.05898331 0.1551843  0.005921577 49         0.4447     24.0398    66.5445    2.2344    
3174.2     12.829     94.991     64.8061    -0.05677994 -0.106955  0.06248832 -0.05209238 49         0.3889     24.2679    64.8061    2.2336    
3174.4     12.9089    94.8339    67.0127    -0.0475519 -0.08741269 0.06248036 -0.01343128 49         0.3493     24.5514    67.0127    2.2329    
3174.6     12.7498    95.2361    66.8926    -0.04162356 -0.07431151 0.05760798 0.042563   49         0.3489     24.1703    66.8926    2.2291    
3174.8     12.5356    96.0473    66.2427    -0.03864804 -0.06353813 0.05742934 0.1399634  49         0.4254     23.212     66.2427    2.226     
3175       12.4225    97.3864    68.5737    -0.06233339 -0.133599  -0.09003469 -0.01341027 49         0.55       23.7848    68.5737    2.2185    
3175.2     12.3847    99.398     75.1396    -0.05075809 -0.118504  -0.1272338 -0.1294197 49         0.6582     25.2319    75.1396    2.2028    
3175.4     12.3953    101.192    84.7461    -0.02889586 -0.07201765 -0.1083304 -0.2120896 49         0.6642     25.7233    84.7461    2.1993    
3175.6     12.4196    101.8231   87.8177    -0.01349629 -0.02505207 -0.05639651 -0.1935864 49         0.6091     24.8443    87.8177    2.2196    
3175.8     12.4831    101.4503   83.1041    -0.002854244 0.004143391 -0.02709877 -0.1834763 49         0.5385     23.166     83.1041    2.2498    
3176       12.5233    100.4097   77.7187    -0.008550183 0.001828682 -0.02640903 -0.1738061 49         0.4951     22.2559    77.7187    2.2696    
3176.2     12.4999    98.5973    71.9497    -0.000540041 0.02207241 -0.005361451 -0.1775075 49         0.4713     21.6547    71.9497    2.2678    
3176.4     12.4673    96.5912    69.5032    -0.002453745 0.02211207 -0.009199666 -0.225178  49         0.477      21.1659    69.5032    2.2568    
3176.6     12.4797    95.4938    68.8461    -0.003750903 0.01800835 -0.02530174 -0.3322674 49         0.4781     20.6325    68.8461    2.2477    
3176.8     12.4879    95.0046    66.3318    0.02027631 0.08522034 0.08249306 -0.2690628 49         0.465      21.2615    66.3318    2.2421    
3177       12.4795    94.5534    66.3129    0.01344911 0.07990474 0.0988491  -0.2752759 49         0.4779     21.6504    66.3129    2.2492    
3177.2     12.4765    93.9597    70.6514    0.009917138 0.07024337 0.08901723 -0.3798011 49         0.4931     21.7636    70.6514    2.264     
3177.4     12.4789    92.8488    73.3219    0.0272918  0.1222415  0.1887403  -0.3432664 49         0.5011     21.8131    73.3219    2.2693    
3177.6     12.4794    91.2908    72.4881    0.03378288 0.1571051  0.2884515  -0.2351429 49         0.5219     20.7664    72.4881    2.2652    
3177.8     12.482     90.3441    71.277     0.02528653 0.1441067  0.304716   -0.2316538 49         0.5494     20.3217    71.277     2.2663    
3178       12.4794    90.2472    73.4857    0.04170815 0.1973508  0.4329877  -0.02643372 49         0.5744     20.1923    73.4857    2.2722    
3178.2     12.5534    90.8278    74.9087    0.02469997 0.16799    0.4482116  0.1211937  49         0.5502     19.5465    74.9087    2.27      
3178.4     12.6316    91.5303    71.2808    0.01363693 0.134434   0.4243883  0.1702193  49         0.503      19.4612    71.2808    2.2633    
3178.6     12.6752    92.0594    66.515     0.009359498 0.1236562  0.43876    0.2726976  49         0.4585     20.3873    66.515     2.2617    
3178.8     12.7285    92.3536    63.4023    -0.006172475 0.07061843 0.363995   0.2139098  49         0.4527     21.3626    63.4023    2.2632    
3179       12.7845    92.5909    64.6725    0.01829759 0.1173058  0.4352887  0.2969392  49         0.4639     21.5202    64.6725    2.2607    
3179.2     12.734     92.6767    66.8652    0.02741807 0.1503956  0.5323505  0.5258966  49         0.4606     21.7793    66.8652    2.2544    
3179.4     12.7806    92.4924    69.0566    0.01254132 0.1147645  0.5184034  0.6430526  49         0.4593     21.9437    69.0566    2.2531    
3179.6     12.9318    92.3905    70.7099    -0.002305752 0.06932676 0.4620872  0.6260225  49         0.4532     21.7109    70.7099    2.2623    
3179.8     13.0629    92.1862    68.4546    -0.000566294 0.06597496 0.457779   0.6179021  49         0.4505     21.7251    68.4546    2.2737    
3180       13.1908    91.5558    67.3234    0.009211719 0.08572215 0.4889119  0.6542857  49         0.4667     22.1177    67.3234    2.283     
3180.2     13.2268    90.3182    69.2197    0.002322132 0.06629261 0.463703   0.6413281  49         0.5136     21.7683    69.2197    2.2969    
3180.4     13.1928    88.75      69.3555    -0.009316038 0.02692661 0.3888563  0.5182444  49         0.5596     21.5101    69.3555    2.3048    
3180.6     12.9746    87.3832    68.2357    -0.0144785 -0.00575716 0.29573    0.2804768  49         0.5805     21.3742    68.2357    2.29      
3180.8     12.9465    86.3957    69.144     0.01636361 0.05881689 0.3568628  0.2260758  49         0.5658     20.7035    69.144     2.2743    
3181       12.795     85.8391    69.4003    0.02481755 0.08518887 0.3987914  0.2704716  49         0.5854     19.9966    69.4003    2.2898    
3181.2     12.5725    85.6014    71.6594    0.01581099 0.05632989 0.3439226  0.1905765  49         0.6074     19.4394    71.6594    2.3247    
3181.4     12.5128    85.0576    75.7387    0.03093586 0.09837642 0.4112282  0.3312268  49         0.661      19.0448    75.7387    2.3549    
3181.6     12.4507    83.4088    78.4935    0.01605148 0.05667747 0.3471715  0.3609468  49         0.8614     17.7422    78.4935    2.4091    
3181.8     12.4795    79.8193    80.4362    0.0152224  0.04515804 0.3127956  0.4095673  49         1.2413     11.9974    80.4362    2.5102    
3182       12.5473    75.6057    77.4701    0.007277511 0.01907474 0.260251   0.4667703  49         1.6606     6.1986     77.4701    2.597     
3182.2     12.5169    86.5468    72.5785    -0.006813128 -0.0323221 0.1448849  0.3964394  49         1.3304     6.3758     72.5785    2.5796    
3182.4     12.5165    107.09     72.7975    -0.008596125 -0.05429448 0.06067006 0.3253002  49         0.818      9.6863     72.7975    2.4612    
3182.6     12.4435    105.7822   76.7305    -0.007402546 -0.07721858 -0.04501323 0.1619696  49         0.4769     15.0415    76.7305    2.3399    
3182.8     12.4255    99.7858    78.911     -0.002769298 -0.08651869 -0.1320312 -0.03205892 49         0.4242     18.9091    78.911     2.2824    
3183       12.4237    99.6982    77.2303    0.01405327 -0.06401139 -0.1681929 -0.1854304 49         0.4658     20.6464    77.2303    2.2622    
3183.2     12.402     101.0062   75.7045    0.03700274 -0.01094601 -0.1265021 -0.1739173 49         0.5138     22.8355    75.7045    2.2258    
