~Version
 VERS              .         3.0                           : CWLS LOG ASCII STANDARD - VERSION 3.0
 WRAP              .         NO                            : ONE LINE PER DEPTH STEP
 DLM               .         SPACE                         : DELIMITING CHARACTER(SPACE TAB OR COMMA)
~Well Information
#_______________________________________________________________________________
#
#PARAMETER_NAME    .UNIT     VALUE                         : DESCRIPTION
#_______________________________________________________________________________
STRT               .m        2108.1003                     : First reference value
STOP               .m        4106.9003                     : Last reference value
STEP               .m        0.2                           : Step increment
NULL               .         -9999                         : Missing value
COMP               .         PETROLEO BRASILEIRO S/A       : Company
WELL               .         4-ESS-167_resample            : Well name
FLD                .         GOLFINHO                      : Field
LOC                .                                       : Location
SRVC               .                                       : Service Company
CTRY               .                                       : Country
DATE               .                                       : Service Date
LATI               .         -200010.479                   : Latitude
LONG               .         -394042.854                   : Longitude
GDAT               .         SIRGAS2000                    : Geodetic Datum
API                .         342710319700                  : API number
CNTY               .                                       : County
COUNTRY            .                                       : Country
EDF                .M        25.0                          : Elevation Derrick Floor
HZCS               .         UTM                           : Horizontal Coordinate System
LMF                .         MR                            : Log Measure From
MC                 .         39 W                          : Meridiano Central
ORIG               .         SIGEO EXPORTACAO PERFIL       : Origem dos dados
ORIGINALWELLNAME   .         4ESS 0167  ES                 : 
STAT               .         ESPIRITO SANTO                : State
WDMS               .M        966.0                         : Water Depth to Mean Sea Level
X                  .         429077.0                      : Surface X
Y                  .         7788071.0                     : Surface Y
~Parameter Information Block
#_______________________________________________________________________________
#
#PARAMETER_NAME    .UNIT     VALUE                         : DESCRIPTION
#_______________________________________________________________________________
SET                .         ESS167_resample               : 
TLFAMILY_CALI      .         Caliper                       : 
TLFAMILY_COTA      .         Measured Depth                : 
TLFAMILY_DT        .         Compressional Slowness        : 
TLFAMILY_GR        .         Gamma Ray                     : 
TLFAMILY_INPEFA_1  .         Photoelectric Factor          : 
TLFAMILY_INPEFA_2  .         Photoelectric Factor          : 
TLFAMILY_INPEFA_3  .         Photoelectric Factor          : 
TLFAMILY_INPEFA_4  .         Photoelectric Factor          : 
TLFAMILY_LITO      .                                       : 
TLFAMILY_LLD       .         Deep Resistivity              : 
TLFAMILY_RHOB      .         Bulk Density                  : 
TLFamily_CALI      .         Caliper                       : 
TLFamily_COTA      .                                       : 
TLFamily_DEPT      .         Measured Depth                : 
TLFamily_DT        .         Compressional Slowness        : 
TLFamily_GR        .         Gamma Ray                     : 
TLFamily_INPEFA_1  .         Photoelectric Factor          : 
TLFamily_INPEFA_2  .         Photoelectric Factor          : 
TLFamily_INPEFA_3  .         Photoelectric Factor          : 
TLFamily_INPEFA_4  .         Photoelectric Factor          : 
TLFamily_LITO      .                                       : 
TLFamily_LLD       .         Deep Resistivity              : 
TLFamily_NPHI      .         Neutron Porosity              : 
TLFamily_RHOB      .         Bulk Density                  : 
~Curve Information
#_______________________________________________________________________________
#
#LOGNAME           .UNIT     LOG_ID                        : DESCRIPTION
#_______________________________________________________________________________
DEPT               .m                                      :  {F}
CALI               .in                                     : CALIPER {F}
COTA               .                                       :  {F}
DT                 .us/ft                                  : DELTA-T (ALSO CALLED SLOWNESS OR INTERVAL TRANSIT TIME) {F}
GR                 .gAPI                                   : GAMMA RAY {F}
INPEFA_1           .                                       :  {F}
INPEFA_2           .                                       :  {F}
INPEFA_3           .                                       :  {F}
INPEFA_4           .                                       :  {F}
LITO               .                                       :  {F}
LLD                .ohm.m                                  : LATEROLOG DEEP RESISTIVITY {F}
NPHI               .                                       :  {F}
RHOB               .g/cm3                                  : BULK DENSITY {F}
~Ascii
# ...
4074.1003  12.33649   -4074.1003 62.24034   163.3648   -0.00857   0.03218    -0.09093   -0.12733   49         16.5907    -9999      2.5678    
4074.3003  12.34049   -4074.3003 62.50881   164.4875   -0.00045   0.01879    -0.09768   -0.12024   49         16.16419   -9999      2.5688    
4074.5003  12.3379    -4074.5003 63.13488   160.7275   -0.00768   0.01461    -0.0921    -0.11332   49         16.22483   -9999      2.5675    
4074.7003  12.32591   -4074.7003 63.81516   161.7396   -0.00143   0.01154    -0.08188   -0.0926    49         16.62895   -9999      2.5648    
4074.9003  12.31701   -4074.9003 64.64366   160.7946   -0.00621   0.00483    -0.07853   -0.08437   49         17.16461   -9999      2.5704    
4075.1003  12.32928   -4075.1003 65.57044000000001 152.7897   -0.00355   0.0022     -0.06976   -0.08046   49         17.66029   -9999      2.58749   
4075.3003  12.33251   -4075.3003 66.02615   145.426    -0.00277   0.00257    -0.05633   -0.06678   49         18.36062   -9999      2.59919   
4075.5003  12.29822   -4075.5003 65.67168   144.6109   -0.00053   0.00426    -0.03803   -0.04397   49         20.00522   -9999      2.6015    
4075.7003  12.27401   -4075.7003 64.64964999999999 152.0783   0.00024    0.00456    -0.0217    -0.02238   49         21.91015   -9999      2.6002    
4075.9003  12.25821   -4075.9003 63.73383   153.8444   0.00151    0.00458    -0.00753   -0.00841   49         23.67731   -9999      2.6038    
4076.1003  12.24331   -4076.1003 63.33031   -9999      -9999      -9999      -9999      -9999      49         26.92596   -9999      2.6115    
4076.3003  12.2419    -4076.3003 63.68642   -9999      -9999      -9999      -9999      -9999      49         23.81414   -9999      2.6154    
4076.5003  12.25789   -4076.5003 64.85500999999999 -9999      -9999      -9999      -9999      -9999      49         18.75434   -9999      2.6124    
4076.7003  12.26562   -4076.7003 66.37176   -9999      -9999      -9999      -9999      -9999      49         15.0192    -9999      2.60261   
4076.9003  12.31536   -4076.9003 67.50526000000001 -9999      -9999      -9999      -9999      -9999      49         13.97274   -9999      2.59211   
4077.1003  12.30121   -4077.1003 67.4357    -9999      -9999      -9999      -9999      -9999      49         11.39012   -9999      2.57671   
4077.3003  12.28671   -4077.3003 66.51858   -9999      -9999      -9999      -9999      -9999      49         9.348599999999999 -9999      2.55731   
4077.5003  12.27491   -4077.5003 65.58333   -9999      -9999      -9999      -9999      -9999      49         8.47392    -9999      2.54571   
4077.7003  12.32738   -4077.7003 65.01134   -9999      -9999      -9999      -9999      -9999      49         8.42501    -9999      2.5382    
4077.9003  12.337     -4077.9003 64.53246   -9999      -9999      -9999      -9999      -9999      49         8.41732    -9999      2.5354    
4078.1003  12.34719   -4078.1003 63.93212   -9999      -9999      -9999      -9999      -9999      49         8.355130000000001 -9999      2.5395    
4078.3003  12.3475    -4078.3003 63.39266   -9999      -9999      -9999      -9999      -9999      49         8.292630000000001 -9999      2.5366    
4078.5003  12.3485    -4078.5003 63.13008   -9999      -9999      -9999      -9999      -9999      49         8.288      -9999      2.5323    
4078.7003  12.33131   -4078.7003 63.23022   -9999      -9999      -9999      -9999      -9999      49         8.31039    -9999      2.54039   
4078.9003  12.3472    -4078.9003 63.24112   -9999      -9999      -9999      -9999      -9999      49         8.452870000000001 -9999      2.5435    
4079.1003  12.36448   -4079.1003 62.7891    -9999      -9999      -9999      -9999      -9999      49         9.61952    -9999      2.5416    
4079.3003  12.3725    -4079.3003 61.82732   -9999      -9999      -9999      -9999      -9999      49         11.77668   -9999      2.55289   
4079.5003  12.3787    -4079.5003 60.69418   -9999      -9999      -9999      -9999      -9999      49         14.21655   -9999      2.56579   
4079.7003  12.34323   -4079.7003 59.53978   -9999      -9999      -9999      -9999      -9999      49         15.60415   -9999      2.5674    
4079.9003  12.31172   -4079.9003 58.47209   -9999      -9999      -9999      -9999      -9999      49         16.9874    -9999      2.55791   
4080.1003  12.2566    -4080.1003 57.95818   -9999      -9999      -9999      -9999      -9999      49         18.32726   -9999      2.5468    
4080.3003  12.27609   -4080.3003 57.98375   -9999      -9999      -9999      -9999      -9999      49         19.44381   -9999      2.55119   
4080.5003  12.28539   -4080.5003 58.18481   -9999      -9999      -9999      -9999      -9999      49         21.48241   -9999      2.5628    
4080.7003  12.3011    -4080.7003 58.19352   -9999      -9999      -9999      -9999      -9999      49         25.02494   -9999      2.5647    
4080.9003  12.28082   -4080.9003 58.06385   -9999      -9999      -9999      -9999      -9999      49         28.72448   -9999      2.57359   
4081.1003  12.21603   -4081.1003 58.12541   -9999      -9999      -9999      -9999      -9999      49         30.25395   -9999      2.59189   
4081.3003  12.23509   -4081.3003 58.60271   -9999      -9999      -9999      -9999      -9999      49         30.26478   -9999      2.6035    
4081.5003  12.2352    -4081.5003 59.2089    -9999      -9999      -9999      -9999      -9999      49         29.91566   -9999      2.61349   
4081.7003  12.22341   -4081.7003 59.807     -9999      -9999      -9999      -9999      -9999      49         28.02597   -9999      2.6189    
4081.9003  12.19401   -4081.9003 60.38462   -9999      -9999      -9999      -9999      -9999      49         25.10917   -9999      2.61131   
4082.1003  12.2087    -4082.1003 60.7004    -9999      -9999      -9999      -9999      -9999      49         22.97739   -9999      2.59441   
4082.3003  12.23889   -4082.3003 60.59249   -9999      -9999      -9999      -9999      -9999      49         22.20865   -9999      2.58001   
4082.5003  12.2415    -4082.5003 60.52791   -9999      -9999      -9999      -9999      -9999      49         21.32342   -9999      2.572     
4082.7003  12.2285    -4082.7003 61.01877   -9999      -9999      -9999      -9999      -9999      49         20.35608   -9999      2.5718    
4082.9003  12.24338   -4082.9003 61.94246   -9999      -9999      -9999      -9999      -9999      49         19.71705   -9999      2.5738    
4083.1003  12.28617   -4083.1003 62.07326   -9999      -9999      -9999      -9999      -9999      49         19.62791   -9999      2.5722    
4083.3003  12.2996    -4083.3003 61.17673   -9999      -9999      -9999      -9999      -9999      49         19.4832    -9999      2.5729    
4083.5003  12.2996    -4083.5003 59.94188   -9999      -9999      -9999      -9999      -9999      49         19.0176    -9999      2.5758    
4083.7003  12.3023    -4083.7003 59.5105    -9999      -9999      -9999      -9999      -9999      49         18.36103   -9999      2.5783    
4083.9003  12.3022    -4083.9003 59.84518   -9999      -9999      -9999      -9999      -9999      49         17.8607    -9999      2.5854    
4084.1003  12.29581   -4084.1003 60.62258   -9999      -9999      -9999      -9999      -9999      49         17.70815   -9999      2.5904    
4084.3003  12.31019   -4084.3003 61.59818   -9999      -9999      -9999      -9999      -9999      49         17.65413   -9999      2.5881    
4084.5003  12.3081    -4084.5003 62.60003   -9999      -9999      -9999      -9999      -9999      49         17.58233   -9999      2.5868    
4084.7003  12.3094    -4084.7003 63.3208    -9999      -9999      -9999      -9999      -9999      49         17.54192   -9999      2.5822    
4084.9003  12.29451   -4084.9003 63.48289   -9999      -9999      -9999      -9999      -9999      49         17.5327    -9999      2.5759    
4085.1003  12.301     -4085.1003 63.24166   -9999      -9999      -9999      -9999      -9999      49         17.50943   -9999      2.5751    
