~Version
 VERS              .         2.0                           : CWLS LOG ASCII STANDARD - VERSION 2.0
 WRAP              .         NO                            : ONE LINE PER DEPTH STEP
 DLM               .         SPACE                         : DELIMITING CHARACTER(SPACE TAB OR COMMA)
~Well Information
#_______________________________________________________________________________
#
#PARAMETER_NAME    .UNIT     VALUE                         : DESCRIPTION
#_______________________________________________________________________________
STRT               .m        1542                          : First reference value
STOP               .m        5640.8                        : Last reference value
STEP               .m        0.2                           : Step increment
NULL               .         -9999                         : Missing value
COMP               .         PETROLEO BRASILEIRO S/A       : Company
WELL               .         4-ESS-174A_resample           : Well name
FLD                .         GOLFINHO                      : Field
LOC                .                                       : Location
CNTY               .                                       : County
STAT               .         ESPIRITO SANTO                : State
CTRY               .                                       : Country
SRVC               .                                       : Service Company
DATE               .                                       : Date
API                .         342710322400                  : API number
EDF                .M        19.00                         : Elevation Derrick Floor
GDAT               .         SIRGAS2000                    : Geodetic Datum
HZCS               .         UTM                           : Horizontal Coordinate System
LMF                .         MR                            : Log Measure From
LATI               .         -19_56_54.869                 : Latitude
LONG               .         -39_29_58.132                 : Longitude
MC                 .         39 W                          : Meridiano Central
ORIG               .         SIGEO EXPORTACAO PERFIL       : Origem dos dados
ORIGINALWELLNAME   .         4ESS 0174A ES                 : 
WDMS               .M        1199.00                       : Water Depth to Mean Sea Level
X                  .         447729.60                     : Surface X
Y                  .         7794048.90                    : Surface Y
~Parameter Information Block
#_______________________________________________________________________________
#
#PARAMETER_NAME    .UNIT     VALUE                         : DESCRIPTION
#_______________________________________________________________________________
SET                .         ESS174A_resample              : 
TLFamily_CALI      .         Caliper                       : 
TLFamily_DEPT      .         Measured Depth                : 
TLFamily_DT        .         Compressional Slowness        : 
TLFamily_GR        .         Gamma Ray                     : 
TLFamily_INPEFA_1  .                                       : 
TLFamily_INPEFA_2  .                                       : 
TLFamily_INPEFA_3  .                                       : 
TLFamily_INPEFA_4  .                                       : 
TLFamily_LITO      .                                       : 
TLFamily_LLD       .         Deep Resistivity              : 
TLFamily_NPHI      .         Neutron Porosity              : 
TLFamily_OG        .                                       : 
TLFamily_RHOB      .         Bulk Density                  : 
~Curve Information
#_______________________________________________________________________________
#
#LOGNAME           .UNIT     LOG_ID                        : DESCRIPTION
#_______________________________________________________________________________
DEPT               .m                                      :  
CALI               .in                                     : CALIPER 
DT                 .us/ft                                  : DELTA-T (ALSO CALLED SLOWNESS OR INTERVAL TRANSIT TIME) 
GR                 .gAPI                                   : GAMMA RAY 
INPEFA_1           .                                       :  
INPEFA_2           .                                       :  
INPEFA_3           .                                       :  
INPEFA_4           .                                       :  
LITO               .                                       :  
LLD                .ohm.m                                  : LATEROLOG DEEP RESISTIVITY 
NPHI               .%                                      : THERMAL NEUTRON POROSITY (ORIGINAL RATIO METHOD) IN SELECTED LITHOLOGY 
OG                 .                                       :  
RHOB               .g/cm3                                  : BULK DENSITY 
~Ascii
# ...
4303.6     12.3994    81.6654    141.729    -0.0191211 -0.2943827 -0.4857098 -0.6255798 57         3.638200044631958 19.093     141.729    2.5814    
4303.8     12.4015    82.2655    133.1084   0.02282296 -0.2105081 -0.3554759 -0.4374713 57         3.582900047302246 18.8882    133.1084   2.5754    
4304       12.3991    83.1761    133.6416   0.02554203 -0.2119186 -0.3692205 -0.3948781 57         3.383500099182129 19.2231    133.6416   2.5764    
4304.200000000001 12.4001    83.8755    137.2378   0.03914483 -0.1954355 -0.3657226 -0.3843785 57         3.229300022124603 19.9823    137.2378   2.5856    
4304.4     12.3836    83.813     140.4483   0.04866064 -0.174971  -0.3298924 -0.2554918 57         3.140000104904175 20.3059    140.4483   2.57      
4304.6     12.3848    83.0155    148.0842   0.03365356 -0.2194984 -0.437023  -0.4142612 57         3.164000034332276 21.6228    148.0842   2.4906    
4304.8     12.3765    82.0454    159.3306   0.04406694 -0.2045224 -0.4282995 -0.4000223 57         3.236200094223023 22.198     159.3306   2.4278    
4305       12.5423    81.6235    156.7219   0.04886774 -0.2022609 -0.4395337 -0.4066426 57         3.415199995040893 21.9334    156.7219   2.4853    
4305.200000000001 12.3915    82.6809    140.4078   0.05837712 -0.1871233 -0.4240578 -0.378902  57         3.666699886322342 19.5111    140.4078   2.563     
4305.4     12.3935    86.2305    138.6655   0.06703323 -0.1725553 -0.4043435 -0.3331782 57         3.59689998626709 18.5009    138.6655   2.5753    
4305.6     12.3895    90.7279    162.7216   0.07989456 -0.1453852 -0.3529734 -0.2150129 57         3.071199893951416 19.7989    162.7216   2.5615    
4305.8     12.3882    91.7278    216.3987   0.07568226 -0.152838  -0.3611158 -0.1786958 57         2.442100048065186 21.7751    216.3987   2.5144    
4306       12.3906    89.7538    251.8703   0.07112445 -0.1663964 -0.3910636 -0.2163465 57         2.142499923706055 25.0476    251.8703   2.4212    
4306.200000000001 12.8751    85.4406    225.512    0.08157641 -0.1452034 -0.3501465 -0.1314487 57         2.269399881365454 27.989     225.512    2.3788    
4306.4     13.3731    80.3575    169.8722   0.07211308 -0.165804  -0.386844  -0.1759335 57         2.920500040054321 27.247     169.8722   2.4627    
4306.6     12.3451    77.6628    138.525    0.06414467 -0.186686  -0.4300726 -0.2608659 57         3.595499992370606 21.0993    138.525    2.5607    
4306.8     12.3757    77.9937    131.3381   0.0673627  -0.1849521 -0.4350238 -0.3116755 57         3.664900064468383 18.6488    131.3381   2.5928    
4307       12.3786    78.8022    129.7924   0.07518069 -0.1730139 -0.4185355 -0.3357605 57         3.570300102233887 18.8711    129.7924   2.5951    
4307.200000000001 12.3845    79.459     128.5187   0.08965828 -0.1405946 -0.352176  -0.2581804 57         3.594399929046785 18.3957    128.5187   2.5848    
4307.4     12.3876    79.9227    129.0753   0.09122858 -0.1351338 -0.3330254 -0.2489186 57         3.676399946212769 18.6009    129.0753   2.5796    
4307.6     12.3851    80.3232    132.7501   0.09140772 -0.1336571 -0.3238754 -0.2689384 57         3.730299949645996 17.8759    132.7501   2.5835    
4307.8     12.388     80.6606    135.483    0.1026904  -0.1078239 -0.2663419 -0.2038536 57         3.679500102996826 18.6578    135.483    2.5797    
4308       12.3866    80.9144    134.2308   0.1013895  -0.1079822 -0.2544114 -0.19991   57         3.648799896240235 19.5536    134.2308   2.5833    
4308.200000000001 12.3945    81.0093    132.0153   0.09771612 -0.1132907 -0.252989  -0.2216853 57         3.596400022506372 19.1809    132.0153   2.6039    
4308.4     12.3997    80.9555    130.2962   0.09034924 -0.133964  -0.2945154 -0.3530162 57         3.553499937057495 18.9862    130.2962   2.6165    
4308.6     12.4068    80.8816    127.7827   0.1031291  -0.105158  -0.2301779 -0.2921948 57         3.555200099945068 19.2592    127.7827   2.6133    
4308.8     12.4075    80.8996    127.6425   0.1102819  -0.08781333 -0.1850599 -0.2517641 57         3.622600078582763 19.6693    127.6425   2.6089    
4309       12.4063    80.9135    131.8985   0.1123609  -0.07766428 -0.1445085 -0.1954163 57         3.693300008773804 19.0042    131.8985   2.6085    
4309.200000000001 12.4059    80.8255    134.3998   0.1079184  -0.08555028 -0.1474805 -0.2352641 57         3.644099950789891 18.8857    134.3998   2.6102    
4309.4     12.4091    80.6923    135.7391   0.121039   -0.05509021 -0.07279316 -0.1188595 57         3.52839994430542 19.7089    135.7391   2.6053    
4309.6     12.4127    80.5743    138.1032   0.1154887  -0.06259754 -0.06453469 -0.08966554 57         3.406399965286255 19.4495    138.1032   2.5957    
4309.8     12.4049    80.4983    139.1193   0.09739018 -0.1001931 -0.1165138 -0.183324  57         3.4653000831604 19.4656    139.1193   2.5952    
4310       12.4064    80.4758    137.0911   0.1005421  -0.08991598 -0.07603541 -0.1462051 57         3.59470009803772 18.9356    137.0911   2.6006    
4310.200000000001 12.3983    80.5008    133.458    0.1124889  -0.05940139 0.004546906 -0.04444602 57         3.614000082016009 18.5736    133.458    2.6079    
4310.4     12.3996    80.5404    130.6867   0.1121398  -0.04899601 0.05758003 0.04488106 57         3.618099927902222 19.3868    130.6867   2.6075    
4310.6     12.4035    80.5763    130.8455   0.1073979  -0.05409825 0.0712799  0.04935254 57         3.600399971008301 19.5547    130.8455   2.5909    
4310.8     12.3838    80.6663    131.5842   0.1045517  -0.05431438 0.09313585 0.06102576 57         3.639800071716309 19.2868    131.5842   2.5826    
4311       12.3798    80.869     131.9556   0.1056323  -0.04706757 0.127256   0.09287038 57         3.664099931716919 20.0751    131.9556   2.5893    
4311.200000000001 12.3772    81.1949    133.5547   0.107807   -0.03699793 0.1670042  0.1416668  57         3.672300100326395 19.7258    133.5547   2.5984    
4311.4     12.3694    81.4983    136.2672   0.1047295  -0.03833292 0.1850255  0.1616066  57         3.653300046920777 19.4728    136.2672   2.6021    
4311.6     12.3745    81.628     136.2113   0.1066655  -0.02986868 0.2201302  0.2116958  57         3.593499898910523 19.3362    136.2113   2.5954    
4311.8     12.368     81.6207    133.5363   0.1150917  -0.005071457 0.2910332  0.3439156  57         3.606199979782105 19.259     133.5363   2.5974    
4312       12.3724    81.6338    131.9007   0.1234583  0.02353128 0.378622   0.5522825  57         3.574300050735474 19.1582    131.9007   2.6081    
4312.200000000001 12.3714    81.7715    132.54     0.1043071  -0.007499279 0.3533938  0.5927619  57         3.545000076293763 18.9399    132.54     2.6106    
4312.4     12.3733    81.992     131.6242   0.07553559 -0.06634891 0.2593611  0.4768941  57         3.455199956893921 19.4463    131.6242   2.6064    
4312.6     12.3775    82.275     131.7279   0.06237238 -0.09792149 0.202306   0.3759221  57         3.359999895095825 19.7198    131.7279   2.6006    
4312.8     12.3734    82.6188    136.837    0.0634299  -0.1005423 0.1950028  0.3356419  57         3.315099954605103 19.6405    136.837    2.5935    
4313       12.3734    82.9172    141.0407   0.07226442 -0.08251499 0.2325986  0.3838573  57         3.303499937057495 19.4923    141.0407   2.5803    
4313.200000000001 12.3708    82.9693    138.107    0.06985923 -0.08622269 0.2340046  0.392684   57         3.337800025939544 19.6944    138.107    2.5756    
4313.4     12.3747    82.6935    134.149    0.082505   -0.05882299 0.293118   0.5015759  57         3.378000020980835 19.6162    134.149    2.5813    
4313.6     12.3787    82.3205    134.1736   0.08678571 -0.04446091 0.3377251  0.626803   57         3.437000036239624 19.987     134.1736   2.5803    
4313.8     12.3721    82.0289    136.4274   0.0806516  -0.04869699 0.3555293  0.7511753  57         3.445800065994262 19.5222    136.4274   2.5853    
4314       12.3734    81.888     137.5732   0.03887957 -0.133146  0.2140837  0.6053304  57         3.399899959564209 19.255     137.5732   2.596     
