~Version
 VERS              .         2.0                           : CWLS LOG ASCII STANDARD - VERSION 2.0
 WRAP              .         NO                            : ONE LINE PER DEPTH STEP
 DLM               .         SPACE                         : DELIMITING CHARACTER(SPACE TAB OR COMMA)
~Well Information
#_______________________________________________________________________________
#
#PARAMETER_NAME    .UNIT     VALUE                         : DESCRIPTION
#_______________________________________________________________________________
STRT               .m        2424.989                      : First reference value
STOP               .m        5587.189                      : Last reference value
STEP               .m        0.2                           : Step increment
NULL               .         -9999                         : Missing value
COMP               .         PETROLEO BRASILEIRO S/A       : Company
WELL               .         4ESS 0138  ES                 : Well name
FLD                .         CANAPU                        : Field
LOC                .                                       : Location
CNTY               .                                       : County
STAT               .         ESPIRITO SANTO                : State
CTRY               .                                       : Country
SRVC               .                                       : Service Company
DATE               .                                       : Date
API                .         342710293200                  : API number
EDF                .M        18.00                         : Elevation Derrick Floor
GDAT               .         SIRGAS2000                    : Geodetic Datum
HZCS               .         UTM                           : Horizontal Coordinate System
LAT                .         -20.018293                    : Latitude
LONG               .         -39.316753                    : Longitude
MC                 .         39 W                          : Meridiano Central
ORIG               .         SIGEO EXPORTACAO PERFIL       : Origem dos dados
WDMS               .M        1614.00                       : Water Depth to Mean Sea Level
XCOORD             .         466869.60                     : Surface X
YCOORD             .         7786462.90                    : Surface Y
~Parameter Information Block
#_______________________________________________________________________________
#
#PARAMETER_NAME    .UNIT     VALUE                         : DESCRIPTION
#_______________________________________________________________________________
SET                .         ESS138_resample               : 
TLFamily_CALI      .         Caliper                       : 
TLFamily_DEPT      .         Measured Depth                : 
TLFamily_DT        .         Compressional Slowness        : 
TLFamily_DTS       .         Compressional Slowness        : 
TLFamily_GR        .         Gamma Ray                     : 
TLFamily_INPEFA_1  .                                       : 
TLFamily_INPEFA_2  .                                       : 
TLFamily_INPEFA_3  .                                       : 
TLFamily_INPEFA_4  .                                       : 
TLFamily_LITO      .                                       : 
TLFamily_NPHI      .         Neutron Porosity              : 
TLFamily_OG        .                                       : 
TLFamily_RESD      .         Deep Resistivity              : 
TLFamily_RESM      .         Medium Resistivity            : 
TLFamily_RESS      .         Shallow Resistivity           : 
TLFamily_RHOB      .         Bulk Density                  : 
TLFamily_TVD       .         True Vertical Depth           : 
~Curve Information
#_______________________________________________________________________________
#
#LOGNAME           .UNIT     LOG_ID                        : DESCRIPTION
#_______________________________________________________________________________
DEPT               .m                                      :  
CALI               .in                                     :  
DT                 .us/ft                                  :  
DTS                .us/ft                                  :  
GR                 .gAPI                                   : GAMMA RAY 
INPEFA_1           .                                       :  
INPEFA_2           .                                       :  
INPEFA_3           .                                       :  
INPEFA_4           .                                       :  
LITO               .Sem                                    : Não definido 
NPHI               .%                                      : THERMAL NEUTRON POROSITY (ORIGINAL RATIO METHOD) IN SELECTED LITHOLOGY 
OG                 .                                       :  
RESD               .ohm.m                                  :  
RESM               .ohm.m                                  :  
RESS               .ohm.m                                  :  
RHOB               .g/cm3                                  :  
TVD                .                                       : Vertical Depth 
~Ascii
# ...
3920.189   12.43064   92.08385581669731 174.8421   166.0785   -0.1147129 -0.2892266 0.2301655  0.3853905  57         29.44503   166.0785   1.821683318616777 1.910879803371187 2.491724455720694 2.389197   3919.5986 
3920.389   12.42079   91.48420056520777 174.1003   168.1988   -0.1438941 -0.3886616 0.1294172  0.4718236  57         33.13969   168.1988   2.016403981409796 2.25813943082222 2.483661654193328 2.46911    3919.7986 
3920.589   12.43617   90.20013057278274 174.8562   158.9118   -0.1983567 -0.5689328 -0.1210892 0.2901257  57         30.84195   158.9118   2.060391032402576 2.263390948405151 2.480264017085674 2.320282   3919.9986 
3920.789   12.42274   87.935788492516 177.9203   139.8584   -0.2011063 -0.652619  -0.2945408 0.09487593 57         32.19598   139.8584   1.922464105576557 1.989522425767543 2.503096209654163 2.265789   3920.1986 
3920.989   12.44625   86.4548549702163 183.1697   134.162    -0.1916317 -0.7084875 -0.4527554 -0.1710713 57         24.66618   134.162    1.91665065617218 1.973547855052584 2.453478122386672 2.349091   3920.3986 
3921.189   12.42565   87.64067806534628 188.1246   147.466    -0.1341673 -0.6574392 -0.4906075 -0.4162679 57         26.7993    147.466    1.878836686257679 1.928090077698502 2.314444628543385 2.38388    3920.5986 
3921.389   12.42957   90.93026439036299 190.7835   159.9604   -0.04986359 -0.4851018 -0.2935744 -0.206889  57         26.48539   159.9604   1.846254953104004 1.826167215892967 2.163180094053146 2.438127   3920.7986 
3921.589   12.44521   94.22003498227545 190.8444   163.9273   -0.02468202 -0.469676  -0.3105489 -0.2899712 57         30.40349   163.9273   1.896824054501408 1.832333751059262 2.076675472233291 2.46622    3920.9986 
3921.789   12.44347   96.49781200579218 190.3278   166.3266   -0.009837826 -0.4523177 -0.3092501 -0.3755653 57         34.75896   166.3266   1.758479682789141 1.581826012263467 2.048307057426624 2.475306   3921.1986 
3921.989   12.44104   98.30922410619628 190.8232   170.4514   0.04033571 -0.3739813 -0.2480762 -0.4536892 57         39.76546   170.4514   1.699635832653671 1.485456402712406 1.992280780908549 2.44835    3921.3986 
3922.189   12.42677   99.80985748611596 192.52     175.6685   0.06117298 -0.3079341 -0.1331562 -0.2813686 57         36.46527   175.6685   1.569636912747126 1.409024855566322 1.881851946720883 2.442365   3921.598600000001
3922.389   12.43122   100.301769907393 193.9418   177.8183   0.05093965 -0.3599149 -0.2179646 -0.3873662 57         32.57651   177.8183   1.459417393900792 1.365923209930559 1.796539652748205 2.448665   3921.7986 
3922.589   12.4283    99.45703713725014 193.4996   176.9337   0.08629293 -0.2854012 -0.1205659 -0.3124313 57         33.1053    176.9337   1.396896613237284 1.311251397262226 1.774799942970276 2.454692   3921.998591338583
3922.789   12.43018   97.43876071238643 190.9859   174.3331   0.08666857 -0.2829045 -0.08814809 -0.1337325 57         38.39157   174.3331   1.359266415160569 1.298943604965038 1.809588079523411 2.445963   3922.1985 
3922.989   12.43588   95.02393803634087 188.7234   171.6687   0.08414802 -0.2989059 -0.0968029 -0.05113643 57         33.98063   171.6687   1.380960433848647 1.327092635180188 1.870222838624164 2.439075   3922.3985 
3923.189   12.44014   93.14933043952688 188.6823   168.4601   0.06950189 -0.3445405 -0.1533218 -0.04249785 57         33.42874   168.4601   1.441408144812848 1.363373281488316 1.941628149061977 2.448936   3922.598500000001
3923.389   12.45152   92.35116571141053 189.5004   166.3607   0.06447616 -0.3744178 -0.2032584 -0.05718333 57         35.17456   166.3607   1.472976278509301 1.400194972253998 2.002426527526953 2.461775   3922.7985 
3923.589   12.4348    92.64810180664018 186.5773   169.4794   0.06057369 -0.3974742 -0.2484474 -0.08297791 57         32.6402    169.4794   1.506440710026377 1.465871631266919 2.010133045330153 2.451      3922.9985 
3923.789   12.43997   93.24784130186612 179.3143   171.1609   0.09427167 -0.3376535 -0.1948032 -0.009119173 57         30.87349   171.1609   1.69549721665134 1.70586882002607 2.002733796220773 2.477008   3923.1985 
3923.989   12.45137   93.70425244829514 168.7032   163.7556   0.08654451 -0.3562463 -0.2276422 -0.002120944 57         32.76834   163.7556   2.251052493616443 2.363037589808101 2.033969628844649 2.470621   3923.3985 
3924.189   12.43573   93.49812467079308 155.6553   144.2246   0.05103832 -0.4735612 -0.4421628 -0.3772458 49         26.83217   144.2246   3.784504718664299 3.916747516225106 2.416870038191381 2.434664   3923.598500000001
3924.389   12.41042   91.89376849076756 143.627    118.1906   0.1230566  -0.3294716 -0.3184151 -0.4124215 49         23.54117   118.1906   6.097085103765727 7.080045905193474 3.88364681705413 2.273153   3923.7985 
3924.589   12.4235    88.05369403668873 136.57     96.42338   0.1615322  -0.2165495 -0.1649105 -0.2220853 49         18.49556   96.42338   7.343505097588467 9.076185267622758 7.730111693062478 2.256071   3923.9985 
3924.789   12.43209   82.01753116717558 135.3224   87.62669   0.1362433  -0.2830705 -0.2823092 -0.4254535 49         8.219468   87.62669   10.76221108031115 15.14400120078026 17.19339530889764 2.460123   3924.1985 
3924.989   12.43025   76.31145176924731 135.098    83.58671   0.1658802  -0.2229948 -0.2450337 -0.4754542 49         7.694854   83.58671   14.2967123045793 20.49225455830683 29.07628402612643 2.603771   3924.3985 
3925.189   12.44808   73.38876599088719 133.5686   82.18679   0.1841626  -0.1743059 -0.1958328 -0.4345596 49         6.445711   82.18679   17.65070799225368 20.66123422560754 34.44646608775556 2.637068   3924.5985 
3925.389   12.43867   73.60968440098452 131.7724   85.74574   0.1885935  -0.1641417 -0.2038315 -0.4679531 49         5.284822   85.74574   16.12826485126011 21.96638992495725 30.65757119115541 2.49107    3924.7985 
3925.589   12.42801   74.99573180431371 131.9462   90.03968   0.2075797  -0.117667  -0.1750848 -0.4713552 49         8.924277   90.03968   18.45231778347911 19.83291192997619 24.57091764399963 2.357593   3924.9985 
3925.789   12.44034   76.34987644386057 134.7414   93.46828   0.2074006  -0.1187408 -0.2053459 -0.5789663 49         9.73938    93.46828   19.08462197882524 15.895849339163 20.20258193886673 2.304249   3925.1985 
3925.989   12.45384   78.36972168048851 139.4241   98.10577   0.241796   -0.02814231 -0.109848  -0.5724074 49         11.82924   98.10577   17.61689769915196 15.86220367421621 17.03620676551859 2.296759   3925.3985 
3926.189   12.44923   81.35540152722935 144.8176   105.4536   0.2636245  0.04372828 -0.01307217 -0.5207528 49         16.58857   105.4536   16.98519519770263 15.2640342390863 14.33252444398449 2.270703   3925.598500000001
3926.389   12.44752   83.63255702541991 151.2019   112.8067   0.2749884  0.09296405 0.05702879 -0.5406613 49         19.43796   112.8067   17.8345326607319 15.08018765262234 11.90873365176929 2.282693   3925.7985 
3926.589   12.4514    84.18901736842724 158.722    117.6357   0.293354   0.1593579  0.15427    -0.56897   49         21.93779   117.6357   17.33341233916017 16.88150290555296 10.27652901848208 2.333462   3925.9985 
3926.789   12.44887   83.95310349351809 163.8835   115.7419   0.3169493  0.2577534  0.3290274  -0.443978  49         22.77855   115.7419   18.65888112551117 16.46828780782776 9.303139458379489 2.346151   3926.1985 
3926.989   12.43153   84.73787595093177 163.5128   112.7599   0.3090533  0.2933464  0.4522738  -0.2871612 49         19.85672   112.7599   17.71757059639099 16.53495905444084 8.51877085641315 2.305266   3926.3985 
3927.189   12.44419   86.38352617879815 158.7612   115.7496   0.301253   0.3173954  0.5578757  -0.1197085 49         21.15903   115.7496   16.64137441288163 16.85352045280926 8.092689331189835 2.319215   3926.598500000001
3927.389   12.44169   87.83649744949955 154.3095   113.3533   0.2770935  0.3144175  0.6548691  0.1618107  49         23.11969   113.3533   18.1073829801874 18.44757034390417 9.320198153989143 2.286264   3926.7984 
3927.589   12.44539   89.18398779521189 152.881    102.2951   0.1961269  0.1465411  0.4940196  0.04284286 49         20.88516   102.2951   17.86236336361682 17.84021714949896 13.28571794814955 2.216784   3926.9984 
