~Version
 VERS              .         2.0                           : CWLS LOG ASCII STANDARD - VERSION 2.0
 WRAP              .         NO                            : ONE LINE PER DEPTH STEP
 DLM               .         SPACE                         : DELIMITING CHARACTER(SPACE TAB OR COMMA)
~Well Information
#_______________________________________________________________________________
#
#PARAMETER_NAME    .UNIT     VALUE                         : DESCRIPTION
#_______________________________________________________________________________
STRT               .m        2424.989                      : First reference value
STOP               .m        5587.189                      : Last reference value
STEP               .m        0.2                           : Step increment
NULL               .         -9999                         : Missing value
COMP               .         PETROLEO BRASILEIRO S/A       : Company
WELL               .         4ESS 0138  ES                 : Well name
FLD                .         CANAPU                        : Field
LOC                .                                       : Location
CNTY               .                                       : County
STAT               .         ESPIRITO SANTO                : State
CTRY               .                                       : Country
SRVC               .                                       : Service Company
DATE               .                                       : Date
API                .         342710293200                  : API number
EDF                .M        18.00                         : Elevation Derrick Floor
GDAT               .         SIRGAS2000                    : Geodetic Datum
HZCS               .         UTM                           : Horizontal Coordinate System
LAT                .         -20.018293                    : Latitude
LONG               .         -39.316753                    : Longitude
MC                 .         39 W                          : Meridiano Central
ORIG               .         SIGEO EXPORTACAO PERFIL       : Origem dos dados
WDMS               .M        1614.00                       : Water Depth to Mean Sea Level
XCOORD             .         466869.60                     : Surface X
YCOORD             .         7786462.90                    : Surface Y
~Parameter Information Block
#_______________________________________________________________________________
#
#PARAMETER_NAME    .UNIT     VALUE                         : DESCRIPTION
#_______________________________________________________________________________
SET                .         ESS138_resample               : 
TLFamily_CALI      .         Caliper                       : 
TLFamily_DEPT      .         Measured Depth                : 
TLFamily_DT        .         Compressional Slowness        : 
TLFamily_DTS       .         Compressional Slowness        : 
TLFamily_GR        .         Gamma Ray                     : 
TLFamily_INPEFA_1  .                                       : 
TLFamily_INPEFA_2  .                                       : 
TLFamily_INPEFA_3  .                                       : 
TLFamily_INPEFA_4  .                                       : 
TLFamily_LITO      .                                       : 
TLFamily_NPHI      .         Neutron Porosity              : 
TLFamily_OG        .                                       : 
TLFamily_RESD      .         Deep Resistivity              : 
TLFamily_RESM      .         Medium Resistivity            : 
TLFamily_RESS      .         Shallow Resistivity           : 
TLFamily_RHOB      .         Bulk Density                  : 
TLFamily_TVD       .         True Vertical Depth           : 
~Curve Information
#_______________________________________________________________________________
#
#LOGNAME           .UNIT     LOG_ID                        : DESCRIPTION
#_______________________________________________________________________________
DEPT               .m                                      :  
CALI               .in                                     :  
DT                 .us/ft                                  :  
DTS                .us/ft                                  :  
GR                 .gAPI                                   : GAMMA RAY 
INPEFA_1           .                                       :  
INPEFA_2           .                                       :  
INPEFA_3           .                                       :  
INPEFA_4           .                                       :  
LITO               .Sem                                    : Não definido 
NPHI               .%                                      : THERMAL NEUTRON POROSITY (ORIGINAL RATIO METHOD) IN SELECTED LITHOLOGY 
OG                 .                                       :  
RESD               .ohm.m                                  :  
RESM               .ohm.m                                  :  
RESS               .ohm.m                                  :  
RHOB               .g/cm3                                  :  
TVD                .                                       : Vertical Depth 
~Ascii
# ...
4733.789000000001 8.658827   67.33234495628587 110.3822   99.94141   0.4182806  -0.06234441 0.02603951 0.3204955  49         10.12846   99.94141   2.508700966031556 2.342381493274363 4.325020808918834 2.456953   4732.969814960631
4733.989   8.640733   67.12759613678007 111.7455   98.48252   0.4333704  -0.04091504 0.0513458  0.348113   49         10.94981   98.48252   2.963646929299736 2.688007478148481 4.299119047456379 2.46834    4733.169032545931
4734.189   8.656625   66.29440824253119 114.2482   95.26207   0.4497679  -0.01489419 0.07836292 0.3782857  49         10.48217   95.26207   3.595421129808429 3.349559501863443 5.094587353677421 2.482844   4733.3689 
4734.389   8.643597   65.51094049168449 116.6587   94.6584    0.4522474  -0.02360628 0.05703621 0.3308946  49         8.52526    94.6584    4.315431381470531 4.402295043340754 6.547913868002921 2.540977   4733.5687 
4734.589   8.654737   65.59136582422116 118.5898   94.8152    0.4697612  -0.000914881 0.06915156 0.2981159  49         8.158242   94.8152    3.996980355653309 4.465423863665532 6.873975536871988 2.569049   4733.768599999999
4734.789000000001 8.662063   66.99081158576458 119.9239   94.81353   0.4812095  0.01607446 0.08256161 0.2554825  49         8.143374   94.81353   3.433367515180072 3.892801868722279 5.334409886571121 2.545648   4733.968400000001
4734.989   8.667923   69.00179032452786 120.5656   94.52585   0.4967189  0.03677911 0.0960196  0.2188356  49         12.06018   94.52585   2.843277615395457 3.141395544434104 4.052456457140661 2.473976   4734.168299999999
4735.189   8.652138   70.52446200153302 120.6616   94.3625    0.4973221  0.02224894 0.06054834 0.08070252 49         13.3412    94.3625    2.609467577220268 2.748394342611274 3.765931902836254 2.421651   4734.368100000001
4735.389   8.656218   70.90473639620825 119.5861   95.31585   0.5179901  0.05439986 0.08536476 -0.01291548 49         13.6842    95.31585   2.547324379009808 2.54969284475454 3.929004483541273 2.427072   4734.568  
4735.589   8.649407   70.3382046917296 117.6398   95.06053   0.5526434  0.1327409  0.1923117  0.04212913 49         12.45743   95.06053   2.558086405219908 2.449503957091417 4.091470128259878 2.443974   4734.767833070866
4735.789000000001 8.664606   69.6139720406086 115.2198   93.31503   0.5533472  0.1311     0.199075   -0.01520984 49         12.28351   93.31503   2.516152696975246 2.384041805617381 4.111928487729654 2.443759   4734.967700000001
4735.989   8.646522   69.14351169456199 112.5907   90.88061   0.56441    0.1447628  0.2142442  -0.1033149 49         12.00218   90.88061   2.457081335614885 2.404794054898447 4.164327882319523 2.469855   4735.1675 
4736.189   8.667192   68.33424179196969 110.3813   91.41487   0.5824304  0.1794811  0.263923   -0.1525853 49         8.652365   91.41487   2.406312122378112 2.459160106822354 5.34185082781537 2.480259   4735.3674 
4736.389   8.6577     65.99683380126953 109.0087   97.5989    0.600045   0.2175295  0.3289587  -0.1634531 49         5.298467   97.5989    2.402932766712539 2.537448767593055 8.698679026522646 2.500567   4735.567233333333
4736.589   8.684773   61.96123564712919 109.0186   104.5956   0.6068969  0.2263468  0.3529523  -0.2490771 49         4.68273    104.5956   2.475250765162813 2.693029672329918 13.30825507998899 2.565446   4735.7671 
4736.789000000001 8.686448   58.33474500159691 108.5164   104.9257   0.6264805  0.2661221  0.4215886  -0.2903468 49         5.551394   104.9257   2.586927961523 2.895911484993099 13.53659993779579 2.633816   4735.966983464567
4736.989   8.669382   57.53208153391539 107.4212   100.0445   0.6366237  0.2867148  0.4732091  -0.3609621 49         7.056574   100.0445   2.6074580480752 2.863446555000739 9.97582025779813 2.608763   4736.166799999999
4737.189   8.647036   59.44377261385074 105.9774   95.76183   0.6664483  0.3644302  0.6228771  -0.2457927 49         6.289019   95.76183   2.684732995198944 2.850254656729987 7.57340385563156 2.556682   4736.366633595801
4737.389   8.667593   61.80689632986297 104.6061   95.04103   0.687798   0.4309884  0.7863292  0.01165992 49         5.828694   95.04103   3.348543002764592 3.521731416462267 8.017930183964221 2.567772   4736.5665 
4737.589   8.656779   62.67859762797512 103.922    95.55447   0.6501586  0.3711783  0.8121954  0.253845   49         5.919216   95.55447   4.302875040755298 4.78550658471204 9.308580660453261 2.598193   4736.766383727034
4737.789000000001 8.641871   62.39177195230891 104.317    95.73018   0.5882754  0.2119078  0.6532781  0.2035248  49         7.030409   95.73018   5.087847617948568 5.926650160819611 9.220668291772599 2.556532   4736.966200000001
4737.989   8.642151   62.17138143223963 105.5989   95.23455   0.5524825  0.09741106 0.5116913  0.0784329  49         8.065621   95.23455   4.962379917184591 5.722881510237734 8.015780919151426 2.52404    4737.1661 
4738.189   8.639215   62.45841211033695 107.0767   95.72272   0.5504141  0.07337092 0.5028335  0.2107851  49         8.006064   95.72272   4.708197470972479 5.241746954645343 7.395081281179647 2.533659   4737.365900000001
4738.389   8.651132   62.78791741999486 107.7262   96.19879   0.5362545  -0.0130115 0.3604257  0.06759772 49         7.73581    96.19879   4.548593668976175 4.808029128221445 7.236103858222741 2.53438    4737.565783989501
4738.589   8.66621    62.90087422048011 107.0396   93.8821    0.5684639  0.03361501 0.4092357  0.1899796  49         7.766149   93.8821    4.504405773479705 4.479686172907561 7.177204547313812 2.532476   4737.7656 
4738.789000000001 8.662948   62.95321825483072 106.1105   92.26383   0.5588631  -0.01522658 0.3424338  0.2722718  49         7.801696   92.26383   4.408296306238904 4.133279952179907 7.016555914653442 2.501828   4737.965500000001
4738.989   8.65616    63.06080775623835 106.1919   93.31159   0.5230657  -0.1532757 0.1025109  -0.04108046 49         8.000255   93.31159   4.149811586881176 3.826844951701583 6.782939263473188 2.498337   4738.1653 
4739.189   8.651866   63.09609498752384 107.3525   94.41084   0.5651425  -0.1067509 0.09376669 -0.1127157 49         7.745805   94.41084   3.854588862838512 3.656490428493769 6.513440981816173 2.508446   4738.365184251969
4739.389   8.650533   63.17244062649005 108.8284   94.31673   0.5895844  -0.0828734 0.07765271 -0.1624334 49         7.70961    94.31673   3.700856685709521 3.641757119465566 6.010868384018973 2.506559   4738.565000000001
4739.589   8.659769   63.70237888125843 109.4518   94.56645   0.6177287  -0.04067734 0.09948071 -0.1128208 49         8.639859   94.56645   3.532604744569022 3.59129042729801 5.558277644134007 2.505547   4738.7649 
4739.789000000001 8.671436   64.76402498981656 108.5438   95.10953   0.6247377  -0.05674337 0.03189285 -0.2132626 49         9.68852    95.10953   3.284267108199129 3.352814449595318 5.372219602335307 2.493602   4738.964700000001
4739.989   8.649179   65.69150176761485 106.3652   95.63125   0.6593733  -0.003629169 0.05447332 -0.2146226 49         9.796583   95.63125   3.143699961030173 3.184710782047952 5.384520505327086 2.476583   4739.164584514435
4740.189   8.65206    65.76990829427665 104.0563   95.32411   0.6924321  0.06058151 0.1188391  -0.07515495 49         9.538691   95.32411   3.072880838327624 3.045714513922246 5.816126315134819 2.48064    4739.3644 
4740.389   8.647165   64.95323817936502 103.2582   94.62105   0.6801568  0.02740063 0.07184723 0.006611183 49         5.013041   94.62105   3.450623447608824 3.313310061749224 6.929936778697637 2.525728   4739.5643 
4740.589   8.667208   63.67905028536073 106.2775   101.7707   0.6675755  -0.04462154 -0.08296923 -0.2018619 49         6.337724   101.7707   4.180477774220256 4.044808390753238 8.282842772626875 2.559245   4739.764099999999
4740.789000000001 8.730851   62.82485675561285 112.1046   119.3204   0.7071285  0.03221282 -0.01931488 -0.1114704 49         7.494137   119.3204   4.873519237131704 4.971586882706784 9.078178070731489 2.578837   4739.963984776904
4740.989   8.778886   63.3190948906834 117.9      137.9818   0.7112824  0.0247278  -0.06745498 -0.145129  49         6.934373   137.9818   4.992351418995328 5.230280314041706 8.661562432839384 2.58886    4740.1638 
