~Version
 VERS              .         3.0                           : CWLS LOG ASCII STANDARD - VERSION 3.0
 WRAP              .         NO                            : ONE LINE PER DEPTH STEP
 DLM               .         SPACE                         : DELIMITING CHARACTER(SPACE TAB OR COMMA)
~Well Information
#_______________________________________________________________________________
#
#PARAMETER_NAME    .UNIT     VALUE                         : DESCRIPTION
#_______________________________________________________________________________
STRT               .m        2108.1003                     : First reference value
STOP               .m        4106.9003                     : Last reference value
STEP               .m        0.2                           : Step increment
NULL               .         -9999                         : Missing value
COMP               .         PETROLEO BRASILEIRO S/A       : Company
WELL               .         4-ESS-167_resample            : Well name
FLD                .         GOLFINHO                      : Field
LOC                .                                       : Location
SRVC               .                                       : Service Company
CTRY               .                                       : Country
DATE               .                                       : Service Date
LATI               .         -200010.479                   : Latitude
LONG               .         -394042.854                   : Longitude
GDAT               .         SIRGAS2000                    : Geodetic Datum
API                .         342710319700                  : API number
CNTY               .                                       : County
COUNTRY            .                                       : Country
EDF                .M        25.0                          : Elevation Derrick Floor
HZCS               .         UTM                           : Horizontal Coordinate System
LMF                .         MR                            : Log Measure From
MC                 .         39 W                          : Meridiano Central
ORIG               .         SIGEO EXPORTACAO PERFIL       : Origem dos dados
ORIGINALWELLNAME   .         4ESS 0167  ES                 : 
STAT               .         ESPIRITO SANTO                : State
WDMS               .M        966.0                         : Water Depth to Mean Sea Level
X                  .         429077.0                      : Surface X
Y                  .         7788071.0                     : Surface Y
~Parameter Information Block
#_______________________________________________________________________________
#
#PARAMETER_NAME    .UNIT     VALUE                         : DESCRIPTION
#_______________________________________________________________________________
SET                .         ESS167_resample               : 
TLFAMILY_CALI      .         Caliper                       : 
TLFAMILY_COTA      .         Measured Depth                : 
TLFAMILY_DT        .         Compressional Slowness        : 
TLFAMILY_GR        .         Gamma Ray                     : 
TLFAMILY_INPEFA_1  .         Photoelectric Factor          : 
TLFAMILY_INPEFA_2  .         Photoelectric Factor          : 
TLFAMILY_INPEFA_3  .         Photoelectric Factor          : 
TLFAMILY_INPEFA_4  .         Photoelectric Factor          : 
TLFAMILY_LITO      .                                       : 
TLFAMILY_LLD       .         Deep Resistivity              : 
TLFAMILY_RHOB      .         Bulk Density                  : 
TLFamily_CALI      .         Caliper                       : 
TLFamily_COTA      .                                       : 
TLFamily_DEPT      .         Measured Depth                : 
TLFamily_DT        .         Compressional Slowness        : 
TLFamily_GR        .         Gamma Ray                     : 
TLFamily_INPEFA_1  .         Photoelectric Factor          : 
TLFamily_INPEFA_2  .         Photoelectric Factor          : 
TLFamily_INPEFA_3  .         Photoelectric Factor          : 
TLFamily_INPEFA_4  .         Photoelectric Factor          : 
TLFamily_LITO      .                                       : 
TLFamily_LLD       .         Deep Resistivity              : 
TLFamily_NPHI      .         Neutron Porosity              : 
TLFamily_RHOB      .         Bulk Density                  : 
~Curve Information
#_______________________________________________________________________________
#
#LOGNAME           .UNIT     LOG_ID                        : DESCRIPTION
#_______________________________________________________________________________
DEPT               .m                                      :  {F}
CALI               .in                                     : CALIPER {F}
COTA               .                                       :  {F}
DT                 .us/ft                                  : DELTA-T (ALSO CALLED SLOWNESS OR INTERVAL TRANSIT TIME) {F}
GR                 .gAPI                                   : GAMMA RAY {F}
INPEFA_1           .                                       :  {F}
INPEFA_2           .                                       :  {F}
INPEFA_3           .                                       :  {F}
INPEFA_4           .                                       :  {F}
LITO               .                                       :  {F}
LLD                .ohm.m                                  : LATEROLOG DEEP RESISTIVITY {F}
NPHI               .                                       :  {F}
RHOB               .g/cm3                                  : BULK DENSITY {F}
~Ascii
# ...
2363.1003  13.3555    -2363.1003 128.6523   83.845     -0.05756   -0.0296    0.12504    -0.17792   57         1.017600059509277 -9999      2.1938    
2363.3003  13.4723    -2363.3003 130.3609   84.00449999999999 -0.05624   -0.03032   0.12454    -0.15051   57         1.005300045013428 -9999      2.1866    
2363.5003  13.5341    -2363.5003 130.4939   87.0699    -0.03986   0.01783    0.22325    0.06872    57         1.033400058746338 -9999      2.1813    
2363.7003  13.484     -2363.7003 129.4631   90.70829999999999 -0.05333   -0.01037   0.19733    0.15331    57         1.093400001525879 -9999      2.1972    
2363.9003  13.0751    -2363.9003 127.7618   87.72110000000001 -0.05589   -0.0137    0.20687    0.29167    57         1.152400016784668 -9999      2.2144    
2364.1003  12.8586    -2364.1003 126.7547   82.8858    -0.08182   -0.08166   0.09802    0.25181    57         1.198699951171875 -9999      2.2175    
2364.3003  12.8201    -2364.3003 126.9481   78.58190000000001 -0.08604   -0.10178   0.05191    0.24856    57         1.197199940681458 -9999      2.2192    
2364.5003  12.7678    -2364.5003 128.0529   78.2715    -0.06971   -0.07327   0.08322    0.3384     57         1.173799991607666 -9999      2.2262    
2364.7003  12.7467    -2364.7003 129.0597   82.0748    -0.06997   -0.06983   0.09532    0.45995    57         1.130499958992004 -9999      2.2309    
2364.9003  12.7892    -2364.9003 129.4008   82.9229    -0.07145   -0.07958   0.07587    0.54006    57         1.114699959754944 -9999      2.2344    
2365.1003  12.8759    -2365.1003 128.9897   81.89      -0.09051   -0.13048   -0.01631   0.50325    57         1.133900046348572 -9999      2.2373    
2365.3003  12.9015    -2365.3003 128.2455   86.1511    -0.08432   -0.13078   -0.04252   0.51154    57         1.165199995040894 -9999      2.2336    
2365.5003  12.7593    -2365.5003 127.6631   88.0994    -0.06935   -0.09643   0.00486    0.6526     57         1.171499967575073 -9999      2.2217    
2365.7003  12.6532    -2365.7003 127.5716   83.5215    -0.08129   -0.12999   -0.05776   0.65703    57         1.158599972724915 -9999      2.2092    
2365.9003  12.6638    -2365.9003 127.8969   80.3484    -0.08212   -0.14104   -0.09853   0.64168    57         1.138000011444092 -9999      2.2037    
2366.1003  12.6638    -2366.1003 128.6567   82.4858    -0.0824    -0.14955   -0.13437   0.62664    57         1.114599943161011 -9999      2.1991    
2366.3003  12.6638    -2366.3003 129.7182   85.0171    -0.0849    -0.16551   -0.19005   0.55233    57         1.109899997711182 -9999      2.1964    
2366.5003  12.6426    -2366.5003 130.1498   83.8536    -0.07183   -0.14158   -0.18007   0.5564     57         1.105599999427795 -9999      2.2072    
2366.7003  12.6135    -2366.7003 129.5549   84.2782    -0.08583   -0.18424   -0.28336   0.38819    57         1.111199975013733 -9999      2.224     
2366.9003  12.6041    -2366.9003 128.4078   87.6947    -0.05595   -0.12141   -0.21678   0.43501    57         1.126500010490418 -9999      2.2339    
2367.1003  12.611     -2367.1003 127.6148   92.60080000000001 -0.0607    -0.12972   -0.24476   0.41461    57         1.16509997844696 -9999      2.2466    
2367.3003  12.6357    -2367.3003 127.2872   96.493     -0.0699    -0.16312   -0.33556   0.26436    57         1.205000042915344 -9999      2.2601    
2367.5003  12.7189    -2367.5003 127.5073   93.1666    -0.06891   -0.17095   -0.38989   0.12475    57         1.184000015258789 -9999      2.26      
2367.7003  12.7791    -2367.7003 128.0426   88.9768    -0.06378   -0.16884   -0.42953   -0.01642   57         1.149700045585632 -9999      2.2525    
2367.9003  12.777     -2367.9003 128.3654   88.393     -0.04924   -0.14333   -0.43272   -0.13401   57         1.145400047302246 -9999      2.2546    
2368.1003  12.7736    -2368.1003 128.2187   91.1666    -0.0299    -0.09522   -0.3801    -0.13709   57         1.188199996948242 -9999      2.2662    
2368.3003  12.821     -2368.3003 128.264    92.57380000000001 -0.03932   -0.12361   -0.46154   -0.34006   57         1.229699969291687 -9999      2.2683    
2368.5003  12.9297    -2368.5003 129.1902   89.2452    0.0016     -0.02498   -0.32579   -0.22961   57         1.226699948310852 -9999      2.2587    
2368.7003  12.9856    -2368.7003 131.2663   87.65560000000001 -0.00885   -0.04169   -0.35847   -0.28676   57         1.167899966239929 -9999      2.2511    
2368.9003  13.0689    -2368.9003 132.3706   89.09439999999999 0.00421    -0.00719   -0.31433   -0.23748   57         1.107900023460388 -9999      2.2359    
2369.1003  13.1292    -2369.1003 131.123    89.6456    -0.00418   -0.02209   -0.3428    -0.25438   57         1.103099942207336 -9999      2.2235    
2369.3003  13.0536    -2369.3003 128.5665   89.3009    -0.01644   -0.05698   -0.42343   -0.39401   57         1.112800002098084 -9999      2.2347    
2369.5003  13.0702    -2369.5003 127.5157   87.0684    -0.00571   -0.03296   -0.40596   -0.41478   57         1.097000002861023 -9999      2.2345    
2369.7003  13.2624    -2369.7003 127.526    86.62479999999999 -0.00156   -0.03081   -0.43423   -0.53497   57         1.061900019645691 -9999      2.2124    
2369.9003  13.3555    -2369.9003 128.3882   84.167     0.00889    -0.00471   -0.41287   -0.58679   57         1.043300032615662 -9999      2.1981    
2370.1003  13.2563    -2370.1003 129.2797   81.044     0.02368    0.02858    -0.37957   -0.62993   57         1.034500002861023 -9999      2.2016    
2370.3003  12.7261    -2370.3003 129.623    83.014     0.05472    0.11453    -0.23778   -0.47613   57         1.046800017356873 -9999      2.2188    
2370.5003  12.6202    -2370.5003 129.1943   85.4062    0.04241    0.09475    -0.26115   -0.52081   57         1.062199950218201 -9999      2.2275    
2370.7003  12.6108    -2370.7003 127.9893   85.01779999999999 0.06552    0.16195    -0.13929   -0.35154   57         1.105299949645996 -9999      2.2244    
2370.9003  12.596     -2370.9003 126.7024   81.6639    0.04138    0.1159     -0.19335   -0.38983   57         1.134400010108948 -9999      2.2317    
2371.1003  12.6015    -2371.1003 126.1741   76.9773    0.03714    0.10312    -0.22068   -0.4763    44         1.130399942398071 -9999      2.2411    
2371.3003  12.6188    -2371.3003 126.8872   76.3787    0.05232    0.14372    -0.15239   -0.4481    44         1.105700016021729 -9999      2.2082    
2371.5003  12.6169    -2371.5003 128.3305   73.84480000000001 0.08575    0.23965    0.03024    -0.20292   44         1.087700009346008 -9999      2.144     
2371.7003  12.6018    -2371.7003 129.6417   71.6555    0.07148    0.22684    0.05349    -0.10955   44         1.089900016784668 -9999      2.1246    
2371.9003  12.6058    -2371.9003 130.3234   73.5099    0.05548    0.19406    0.02046    -0.13986   44         1.085500001907349 -9999      2.1503    
2372.1003  12.6058    -2372.1003 130.7327   76.57250000000001 0.07178    0.24238    0.1231     0.00965    44         1.075199961662293 -9999      2.1697    
2372.3003  12.6085    -2372.3003 131.2047   81.4128    0.06621    0.24281    0.15843    0.10324    44         1.057999968528748 -9999      2.1727    
2372.5003  12.6098    -2372.5003 131.191    83.3425    0.06648    0.25078    0.19674    0.18444    44         1.078099966049194 -9999      2.1687    
2372.7003  12.6111    -2372.7003 130.5198   80.931     0.05989    0.24349    0.2105     0.22803    44         1.147899985313416 -9999      2.1581    
2372.9003  12.6085    -2372.9003 129.5453   78.32769999999999 0.08142    0.30706    0.3489     0.47697    44         1.1875     -9999      2.1579    
2373.1003  12.5779    -2373.1003 128.5678   75.03230000000001 0.06183    0.27634    0.34432    0.57779    44         1.174200057983398 -9999      2.1744    
2373.3003  12.5718    -2373.3003 127.639    69.88509999999999 0.04344    0.23377    0.29504    0.56674    44         1.169100046157837 -9999      2.1736    
2373.5003  12.6187    -2373.5003 127.1603   69.118     0.03724    0.22018    0.28649    0.58275    44         1.182899951934815 -9999      2.1673    
