~Version
 VERS              .         2.0                           : CWLS LOG ASCII STANDARD - VERSION 2.0
 WRAP              .         NO                            : ONE LINE PER DEPTH STEP
 DLM               .         SPACE                         : DELIMITING CHARACTER(SPACE TAB OR COMMA)
~Well Information
#_______________________________________________________________________________
#
#PARAMETER_NAME    .UNIT     VALUE                         : DESCRIPTION
#_______________________________________________________________________________
STRT               .m        1537                          : First reference value
STOP               .m        5197.8                        : Last reference value
STEP               .m        0.2                           : Step increment
NULL               .         -9999                         : Missing value
COMP               .         PETROLEO BRASILEIRO S/A       : Company
WELL               .         4-ESS-151_resample            : Well name
FLD                .         GOLFINHO                      : Field
LOC                .                                       : Location
CNTY               .                                       : County
STAT               .         ESPIRITO SANTO                : State
CTRY               .                                       : Country
SRVC               .                                       : Service Company
DATE               .                                       : Date
API                .         342710302200                  : API number
EDF                .M        18.00                         : Elevation Derrick Floor
GDAT               .         SIRGAS2000                    : Geodetic Datum
HZCS               .         UTM                           : Horizontal Coordinate System
LMF                .         MR                            : Log Measure From
LATI               .         -19_56_15.689                 : Latitude
LONG               .         -39_25_50.073                 : Longitude
MC                 .         39 W                          : Meridiano Central
ORIG               .         SIGEO EXPORTACAO PERFIL       : Origem dos dados
ORIGINALWELLNAME   .         4ESS 0151  ES                 : 
WDMS               .M        1332.00                       : Water Depth to Mean Sea Level
X                  .         454939.60                     : Surface X
Y                  .         7795340.90                    : Surface Y
~Parameter Information Block
#_______________________________________________________________________________
#
#PARAMETER_NAME    .UNIT     VALUE                         : DESCRIPTION
#_______________________________________________________________________________
SET                .         ESS151_resample               : 
TLFamily_CALI      .         Caliper                       : 
TLFamily_DEPT      .         Measured Depth                : 
TLFamily_DT        .         Compressional Slowness        : 
TLFamily_GR        .         Gamma Ray                     : 
TLFamily_INPEFA_1  .                                       : 
TLFamily_INPEFA_2  .                                       : 
TLFamily_INPEFA_3  .                                       : 
TLFamily_INPEFA_4  .                                       : 
TLFamily_LITO      .                                       : 
TLFamily_LLD       .         Deep Resistivity              : 
TLFamily_NPHI      .         Neutron Porosity              : 
TLFamily_OG        .                                       : 
TLFamily_RHOB      .         Bulk Density                  : 
~Curve Information
#_______________________________________________________________________________
#
#LOGNAME           .UNIT     LOG_ID                        : DESCRIPTION
#_______________________________________________________________________________
DEPT               .m                                      :  
CALI               .in                                     : CALIPER 
DT                 .us/ft                                  : DELTA-T (ALSO CALLED SLOWNESS OR INTERVAL TRANSIT TIME) 
GR                 .gAPI                                   : GAMMA RAY 
INPEFA_1           .                                       :  
INPEFA_2           .                                       :  
INPEFA_3           .                                       :  
INPEFA_4           .                                       :  
LITO               .                                       :  
LLD                .ohm.m                                  : LATEROLOG DEEP RESISTIVITY 
NPHI               .%                                      : THERMAL NEUTRON POROSITY (ORIGINAL RATIO METHOD) IN SELECTED LITHOLOGY 
OG                 .                                       :  
RHOB               .g/cm3                                  : BULK DENSITY 
~Ascii
# ...
3530.6     12.2444    98.2355    90.21      0.2198719  -0.1929779 -0.2162123 -0.5139689 57         1.5049     28.8927    90.21      2.4193    
3530.8     12.2444    97.9471    89.4815    0.2324791  -0.1786672 -0.2001247 -0.4572713 57         1.5229     27.8961    89.4815    2.4224    
3531       12.2425    97.6601    90.7927    0.237545   -0.1812334 -0.2023981 -0.3716734 57         1.5291     27.5565    90.7927    2.4245    
3531.2     12.237     97.5673    93.6913    0.2255761  -0.2370905 -0.3075177 -0.452079  57         1.5417     28.0346    93.6913    2.4275    
3531.4     12.2409    97.5637    93.6236    0.2418961  -0.2216349 -0.3128827 -0.4300756 57         1.5418     28.2591    93.6236    2.4256    
3531.6     12.2437    97.5102    91.595     0.2503332  -0.2220512 -0.3387625 -0.4283517 57         1.5539     27.6736    91.595     2.4223    
3531.8     12.2286    97.3773    90.2119    0.2742519  -0.1712357 -0.2689404 -0.2429557 57         1.5588     26.8494    90.2119    2.4272    
3532       12.2238    97.3546    91.2597    0.2787983  -0.1689401 -0.2693827 -0.08394898 57         1.5243     26.7218    91.2597    2.4344    
3532.2     12.2087    97.5427    91.632     0.268418   -0.2080322 -0.3463259 -0.01062062 57         1.4957     27.3448    91.632     2.4336    
3532.4     12.204     97.7034    92.1258    0.2693081  -0.2325215 -0.4370381 -0.04027196 57         1.4714     27.9158    92.1258    2.4288    
3532.6     12.2025    97.5373    94.7809    0.2890868  -0.1998468 -0.4393695 0.04548655 57         1.4784     27.9596    94.7809    2.4265    
3532.8     12.18      96.8303    93.3679    0.2867713  -0.2325162 -0.5649251 -0.1014596 57         1.4963     27.3705    93.3679    2.4253    
3533       12.1762    95.6948    87.7368    0.3158457  -0.1846965 -0.5947144 -0.2760765 57         1.5361     26.3879    87.7368    2.4177    
3533.2     12.1748    94.4357    82.6703    0.3637811  -0.07018112 -0.4979503 -0.3124637 57         1.5656     25.1313    82.6703    2.4092    
3533.4     12.172     93.5548    78.7771    0.4132718  0.06936325 -0.3281765 -0.1955414 57         1.5887     24.359     78.7771    2.4094    
3533.6     12.1962    93.2011    76.1342    0.4234787  0.1185085  -0.2768847 -0.226707  57         1.5851     24.3324    76.1342    2.412     
3533.8     12.2054    93.2331    74.7288    0.4371915  0.1987524  -0.1353352 -0.05588199 57         1.5998     24.5155    74.7288    2.4139    
3534       12.2106    93.2139    74.968     0.432186   0.2051476  -0.1378171 -0.1115633 57         1.5991     24.7856    74.968     2.416     
3534.2     12.2141    93.0082    77.5404    0.435112   0.2459905  -0.07504813 -0.1153802 57         1.6212     25.2866    77.5404    2.4183    
3534.4     12.2156    92.7175    78.1513    0.4528286  0.3227753  0.0517233  -0.01556475 57         1.6251     25.7195    78.1513    2.4232    
3534.6     12.2184    92.2946    76.0059    0.4617696  0.3961399  0.2138169  0.2637492  57         1.6615     25.463     76.0059    2.4289    
3534.8     12.2161    91.686     72.3354    0.418764   0.3199662  0.1294834  0.239229   57         1.6731     24.5465    72.3354    2.4347    
3535       12.2121    91.1106    70.3907    0.415702   0.328237   0.1348729  0.2051748  57         1.6983     23.964     70.3907    2.4392    
3535.2     12.221     90.646     73.247     0.4258593  0.3864896  0.2420884  0.3384844  57         1.7094     24.4672    73.247     2.4398    
3535.4     12.2348    90.392     76.8256    0.415237   0.3936033  0.2812112  0.4381107  57         1.6843     24.3399    76.8256    2.4421    
3535.6     12.2429    90.1585    76.226     0.4035568  0.3892289  0.290053   0.4884888  57         1.669      24.7965    76.226     2.4427    
3535.8     12.2484    89.2914    73.9167    0.3895088  0.3801581  0.2915493  0.5265221  57         1.688      25.1889    73.9167    2.4399    
3536       12.2534    87.705     69.0223    0.3689937  0.3421107  0.222941   0.3936348  58         1.7785     23.7905    69.0223    2.444     
3536.2     12.257     86.2524    59.7186    0.3970547  0.4364079  0.3720048  0.5566046  58         1.9054     21.4669    59.7186    2.4581    
3536.4     12.2484    86.002     49.6353    0.3712579  0.4075009  0.3646101  0.6070448  58         1.9889     19.1395    49.6353    2.4692    
3536.6     12.241     86.9911    47.2558    0.3547498  0.3811207  0.3247384  0.5133478  58         1.9008     19.0513    47.2558    2.4603    
3536.8     12.2441    88.8166    53.4631    0.3705841  0.4521634  0.4568481  0.6688483  58         1.7436     20.7601    53.4631    2.4446    
3537       12.246     90.4951    61.9308    0.3411871  0.4010373  0.3982247  0.6424894  58         1.631      23.1852    61.9308    2.4387    
3537.2     12.2472    91.5018    69.4728    0.3260042  0.3712876  0.3377749  0.5002795  58         1.6059     24.8849    69.4728    2.4381    
3537.4     12.2482    92.0164    72.2096    0.329612   0.3950026  0.3651294  0.47371    58         1.6489     25.1418    72.2096    2.4426    
3537.6     12.2529    92.1748    73.0314    0.3255003  0.4025269  0.3776495  0.4855592  57         1.7416     24.77      73.0314    2.4508    
3537.8     12.254     92.1888    80.6164    0.3137823  0.3842334  0.34425    0.4583337  57         1.8056     24.7971    80.6164    2.4595    
3538       12.257     92.1849    88.9172    0.3084717  0.382582   0.3374341  0.5012498  57         1.8271     25.6765    88.9172    2.4597    
3538.2     12.2595    92.2262    91.3475    0.287774   0.3333646  0.2437865  0.4140412  57         1.8297     26.1064    91.3475    2.4516    
3538.4     12.2685    92.6095    92.0789    0.2876035  0.336724   0.2241348  0.403292   57         1.8113     26.0645    92.0789    2.4431    
3538.6     12.27      93.3717    93.9317    0.2640282  0.2768033  0.09849957 0.2314724  57         1.7881     26.6167    93.9317    2.4363    
3538.8     12.27      94.0085    96.9186    0.2660989  0.2693735  0.02488345 0.03730973 57         1.785      27.9721    96.9186    2.4361    
3539       12.2707    94.4877    100.8167   0.2743778  0.2928839  0.02332948 -0.03652177 57         1.7813     28.8499    100.8167   2.4369    
3539.2     12.2692    95.0247    98.8894    0.2717753  0.2910249  -0.005540826 -0.1113321 57         1.7688     28.7288    98.8894    2.4384    
3539.4     12.2705    95.3488    97.9139    0.2619101  0.2707799  -0.06177304 -0.2172309 57         1.7865     28.6257    97.9139    2.4482    
3539.6     12.2737    95.3906    100.5739   0.2451807  0.2207062  -0.1868083 -0.4900621 57         1.7862     29.2482    100.5739   2.4549    
3539.8     12.2779    95.2496    100.5527   0.2691474  0.2860494  -0.1183598 -0.5161911 57         1.7663     29.0013    100.5527   2.4502    
3540       12.2751    94.9342    101.9872   0.2596262  0.2750765  -0.1436599 -0.584212  57         1.7806     28.06      101.9872   2.4483    
3540.2     12.2769    94.5686    105.3839   0.2617707  0.2859868  -0.1384631 -0.5797965 57         1.816      27.4828    105.3839   2.4573    
3540.4     12.2784    94.447     104.9714   0.2389318  0.2292482  -0.2384645 -0.6907552 57         1.8764     27.8008    104.9714   2.4666    
3540.6     12.2777    94.3207    102.9154   0.2413348  0.2250391  -0.2737563 -0.7470595 57         1.8998     28.2742    102.9154   2.4731    
3540.8     12.2777    94.0871    102.6938   0.2413812  0.2254018  -0.2766214 -0.689057  57         1.9372     27.0868    102.6938   2.4769    
3541       12.2802    94.05      103.4651   0.2150142  0.1482278  -0.4098797 -0.8341709 57         1.9418     26.2307    103.4651   2.4716    
3541.2     12.2658    94.1635    105.2862   0.226778   0.1683238  -0.3991725 -0.8476279 57         1.9248     26.5826    105.2862   2.4624    
3541.4     12.258     94.5085    105.8192   0.2217926  0.1532521  -0.4211751 -0.8496305 57         1.9041     27.5976    105.8192   2.4536    
3541.6     12.2495    95.0095    106.7191   0.2159538  0.1287069  -0.4643793 -0.9061471 57         1.8326     28.0106    106.7191   2.4481    
