~Version
 VERS              .         2.0                           : CWLS LOG ASCII STANDARD - VERSION 2.0
 WRAP              .         NO                            : ONE LINE PER DEPTH STEP
 DLM               .         SPACE                         : DELIMITING CHARACTER(SPACE TAB OR COMMA)
~Well Information
#_______________________________________________________________________________
#
#PARAMETER_NAME    .UNIT     VALUE                         : DESCRIPTION
#_______________________________________________________________________________
STRT               .m        1537                          : First reference value
STOP               .m        5197.8                        : Last reference value
STEP               .m        0.2                           : Step increment
NULL               .         -9999                         : Missing value
COMP               .         PETROLEO BRASILEIRO S/A       : Company
WELL               .         4-ESS-151_resample            : Well name
FLD                .         GOLFINHO                      : Field
LOC                .                                       : Location
CNTY               .                                       : County
STAT               .         ESPIRITO SANTO                : State
CTRY               .                                       : Country
SRVC               .                                       : Service Company
DATE               .                                       : Date
API                .         342710302200                  : API number
EDF                .M        18.00                         : Elevation Derrick Floor
GDAT               .         SIRGAS2000                    : Geodetic Datum
HZCS               .         UTM                           : Horizontal Coordinate System
LMF                .         MR                            : Log Measure From
LATI               .         -19_56_15.689                 : Latitude
LONG               .         -39_25_50.073                 : Longitude
MC                 .         39 W                          : Meridiano Central
ORIG               .         SIGEO EXPORTACAO PERFIL       : Origem dos dados
ORIGINALWELLNAME   .         4ESS 0151  ES                 : 
WDMS               .M        1332.00                       : Water Depth to Mean Sea Level
X                  .         454939.60                     : Surface X
Y                  .         7795340.90                    : Surface Y
~Parameter Information Block
#_______________________________________________________________________________
#
#PARAMETER_NAME    .UNIT     VALUE                         : DESCRIPTION
#_______________________________________________________________________________
SET                .         ESS151_resample               : 
TLFamily_CALI      .         Caliper                       : 
TLFamily_DEPT      .         Measured Depth                : 
TLFamily_DT        .         Compressional Slowness        : 
TLFamily_GR        .         Gamma Ray                     : 
TLFamily_INPEFA_1  .                                       : 
TLFamily_INPEFA_2  .                                       : 
TLFamily_INPEFA_3  .                                       : 
TLFamily_INPEFA_4  .                                       : 
TLFamily_LITO      .                                       : 
TLFamily_LLD       .         Deep Resistivity              : 
TLFamily_NPHI      .         Neutron Porosity              : 
TLFamily_OG        .                                       : 
TLFamily_RHOB      .         Bulk Density                  : 
~Curve Information
#_______________________________________________________________________________
#
#LOGNAME           .UNIT     LOG_ID                        : DESCRIPTION
#_______________________________________________________________________________
DEPT               .m                                      :  
CALI               .in                                     : CALIPER 
DT                 .us/ft                                  : DELTA-T (ALSO CALLED SLOWNESS OR INTERVAL TRANSIT TIME) 
GR                 .gAPI                                   : GAMMA RAY 
INPEFA_1           .                                       :  
INPEFA_2           .                                       :  
INPEFA_3           .                                       :  
INPEFA_4           .                                       :  
LITO               .                                       :  
LLD                .ohm.m                                  : LATEROLOG DEEP RESISTIVITY 
NPHI               .%                                      : THERMAL NEUTRON POROSITY (ORIGINAL RATIO METHOD) IN SELECTED LITHOLOGY 
OG                 .                                       :  
RHOB               .g/cm3                                  : BULK DENSITY 
~Ascii
# ...
2802.6     12.8321    100.4039   61.1045    0.4268521  -0.001021862 0.1519283  0.2175466  58         1.6238     27.224     61.1045    2.3384    
2802.8     12.8378    98.9893    55.5723    0.4415463  0.01356155 0.1516543  0.1932503  58         1.7296     26.0126    55.5723    2.3575    
2803       12.8444    98.2231    48.1166    0.4477649  -0.000239128 0.09829739 0.05196537 58         1.7741     24.5062    48.1166    2.3874    
2803.2     12.8471    98.6799    43.9294    0.45492    0.006471556 0.09614044 -0.03804204 58         1.6968     22.9517    43.9294    2.407     
2803.4     12.8486    99.7524    48.2162    0.4696147  0.02678939 0.1077717  -0.1565577 58         1.6087     23.2704    48.2162    2.3898    
2803.6     12.8482    100.6262   54.463     0.4962542  0.08789884 0.1996102  -0.1432224 58         1.5933     25.7934    54.463     2.37      
2803.8     12.835     101.3644   53.8822    0.5001187  0.1016574  0.2485015  -0.0972683 58         1.6262     25.7556    53.8822    2.3832    
2804       12.8324    101.998    53.9293    0.4837025  0.05050866 0.1727238  -0.2854126 58         1.6177     23.4478    53.9293    2.3922    
2804.2     12.8325    102.3629   59.4231    0.5128399  0.1167744  0.2758068  -0.2647175 58         1.5786     23.8945    59.4231    2.3683    
2804.4     12.8308    102.222    64.0956    0.5239661  0.1551427  0.3771782  -0.1258468 58         1.5785     25.9813    64.0956    2.3472    
2804.6     12.8333    101.4997   64.6139    0.5178392  0.1441618  0.3976452  -0.06185814 58         1.6542     26.79      64.6139    2.3558    
2804.8     12.8383    100.4191   61.0206    0.5178885  0.1491172  0.4434561  0.07789016 58         1.7428     26.2187    61.0206    2.3731    
2805       12.8398    99.6009    55.5608    0.5038566  0.1030492  0.3851452  0.0699999  58         1.7792     24.3703    55.5608    2.3834    
2805.2     12.8417    99.703     53.079     0.5008385  0.07733196 0.340902   0.04791879 58         1.7336     23.4124    53.079     2.3889    
2805.4     12.8442    100.5193   56.7475    0.5063968  0.07530034 0.3328455  0.05187443 58         1.6474     24.2682    56.7475    2.3817    
2805.6     12.8382    101.4031   65.6016    0.5088456  0.06705039 0.3127997  0.004565197 58         1.5848     26.285     65.6016    2.3616    
2805.8     12.8309    101.3743   69.5789    0.5079583  0.04800808 0.2675593  -0.1277534 58         1.5842     27.7114    69.5789    2.3504    
2806       12.8334    100.1326   65.7133    0.5185323  0.0578823  0.2605408  -0.2849064 58         1.6347     27.4011    65.7133    2.3546    
2806.2     12.8337    98.5414    61.3145    0.5482942  0.1288922  0.3677861  -0.2812328 58         1.7177     26.5493    61.3145    2.3603    
2806.4     12.8329    97.194     57.9499    0.566269   0.1846064  0.4869125  -0.1691693 58         1.8328     25.7041    57.9499    2.3737    
2806.6     12.8217    96.5113    54.1425    0.5725105  0.2132379  0.5780361  -0.01247591 58         1.9168     24.8904    54.1425    2.4036    
2806.8     12.8186    96.7614    53.1967    0.5580772  0.1967068  0.6203535  0.2250358  58         1.9045     23.4917    53.1967    2.4152    
2807       12.8209    97.8389    57.3076    0.5144517  0.06645178 0.4238459  0.07994407 58         1.8348     23.4992    57.3076    2.3935    
2807.2     12.826     99.1315    58.1809    0.5229898  0.06699874 0.4084726  0.12122    58         1.7716     24.4539    58.1809    2.3777    
2807.4     12.8297    100.2945   56.0547    0.5263045  0.04979803 0.355961   0.07630853 58         1.7616     24.0687    56.0547    2.3787    
2807.6     12.8344    101.5772   56.9072    0.525687   0.03331216 0.3097952  0.02872141 58         1.7529     23.9358    56.9072    2.3844    
2807.8     12.843     102.9153   59.8981    0.550631   0.08024467 0.3661742  0.1548452  58         1.6683     24.7649    59.8981    2.3838    
2808       12.8494    103.882    64.1015    0.5500214  0.072096   0.3578534  0.2703598  58         1.5587     26.1367    64.1015    2.3619    
2808.2     12.8527    104.0985   67.622     0.533354   0.01224695 0.2511406  0.2299062  58         1.4835     27.5657    67.622     2.3474    
2808.4     12.8528    103.129    68.0813    0.5483401  0.03256821 0.2588814  0.29296    58         1.5254     27.6977    68.0813    2.3627    
2808.6     12.855     100.6828   66.6855    0.5500305  0.03002086 0.2481584  0.3839565  58         1.6876     26.8638    66.6855    2.3699    
2808.8     12.8587    97.105     65.5759    0.5489082  0.01488326 0.2098845  0.4446415  58         1.9311     26.3135    65.5759    2.3694    
2809       12.8723    93.9454    63.8661    0.5382059  -0.02981969 0.1107581  0.4047513  58         2.1678     24.3955    63.8661    2.3971    
2809.2     12.8751    92.2204    59.2006    0.5335072  -0.07123265 -0.007569384 0.2689513  58         2.3033     21.2515    59.2006    2.4318    
2809.4     12.8722    92.2392    54.567     0.5575501  -0.03321699 -0.002232603 0.2462024  58         2.3246     19.6602    54.567     2.4453    
2809.6     12.8717    93.8292    53.811     0.5705718  -0.003275263 0.0277365  0.336503   58         2.228      19.7331    53.811     2.4518    
2809.8     12.8696    96.4294    59.7044    0.56918    -0.01560199 -0.01840548 0.3289975  58         2.0255     19.8668    59.7044    2.4453    
2810       12.8735    99.0234    70.9582    0.5773394  0.00175273 -0.01085317 0.4232442  58         1.8118     21.397     70.9582    2.4181    
2810.2     12.8743    100.6632   77.0365    0.5589371  -0.05833966 -0.144257  0.2848043  58         1.6614     23.6744    77.0365    2.395     
2810.4     12.8665    101.3353   74.5758    0.5668436  -0.05435523 -0.1996024 0.1663805  58         1.624      25.4343    74.5758    2.3854    
2810.6     12.8706    101.2236   70.7596    0.5985693  0.01984724 -0.1265423 0.2807877  58         1.6471     26.6419    70.7596    2.3873    
2810.8     12.8723    101.0802   65.8737    0.5882458  -0.001494353 -0.1761589 0.3303919  58         1.6656     26.2022    65.8737    2.4008    
2811       12.8692    101.2392   63.6014    0.5609866  -0.09038682 -0.3776481 0.06776594 58         1.6572     24.5413    63.6014    2.4085    
2811.2     12.8776    101.7242   66.9826    0.588294   -0.0404661 -0.3822392 -0.03881938 58         1.6499     25.2168    66.9826    2.4005    
2811.4     12.8831    102.3173   68.6476    0.6010484  -0.01313272 -0.397303  -0.1315774 58         1.6594     26.2619    68.6476    2.3979    
2811.6     12.8994    102.6043   67.8388    0.6041248  -0.0133878 -0.4602969 -0.3236156 58         1.6813     25.4723    67.8388    2.4029    
2811.8     12.9102    102.3448   67.6072    0.6320138  0.05984554 -0.3914753 -0.3257149 58         1.6671     25.3808    67.6072    2.3999    
2812       12.9215    102.0023   69.591     0.6385323  0.08463987 -0.3803065 -0.3649207 58         1.6372     25.792     69.591     2.3919    
2812.2     12.9355    101.6712   71.7589    0.6481294  0.1266902  -0.3254305 -0.2989663 58         1.629      26.4492    71.7589    2.3877    
2812.4     12.9493    101.0394   69.1771    0.6360502  0.1030167  -0.3865068 -0.4081874 58         1.6819     26.9047    69.1771    2.3929    
2812.6     12.9608    100.4165   64.673     0.6510231  0.1500474  -0.3449997 -0.4228384 58         1.7095     25.8067    64.673     2.4011    
2812.8     12.9816    100.3838   63.463     0.6545377  0.1822318  -0.2997539 -0.4021434 58         1.7179     24.498     63.463     2.3996    
2813       12.9825    101.0569   64.7305    0.6387811  0.14784    -0.3899707 -0.6464122 58         1.7085     24.9577    64.7305    2.3878    
2813.2     12.9744    102.0974   68.4147    0.6705222  0.2416172  -0.2796596 -0.708739  58         1.7125     25.1904    68.4147    2.3828    
2813.4     12.9783    102.8565   70.9238    0.687981   0.3155447  -0.1621706 -0.6817772 58         1.7503     25.4853    70.9238    2.3946    
2813.6     12.9814    102.5092   66.9915    0.6924521  0.3523314  -0.0941039 -0.7077094 58         1.7794     25.664     66.9915    2.4039    
