~Version
 VERS              .         3.0                           : CWLS LOG ASCII STANDARD - VERSION 3.0
 WRAP              .         NO                            : ONE LINE PER DEPTH STEP
 DLM               .         SPACE                         : DELIMITING CHARACTER(SPACE TAB OR COMMA)
~Well Information
#_______________________________________________________________________________
#
#PARAMETER_NAME    .UNIT     VALUE                         : DESCRIPTION
#_______________________________________________________________________________
STRT               .m        2108.1003                     : First reference value
STOP               .m        4106.9003                     : Last reference value
STEP               .m        0.2                           : Step increment
NULL               .         -9999                         : Missing value
COMP               .         PETROLEO BRASILEIRO S/A       : Company
WELL               .         4-ESS-167_resample            : Well name
FLD                .         GOLFINHO                      : Field
LOC                .                                       : Location
SRVC               .                                       : Service Company
CTRY               .                                       : Country
DATE               .                                       : Service Date
LATI               .         -200010.479                   : Latitude
LONG               .         -394042.854                   : Longitude
GDAT               .         SIRGAS2000                    : Geodetic Datum
API                .         342710319700                  : API number
CNTY               .                                       : County
COUNTRY            .                                       : Country
EDF                .M        25.0                          : Elevation Derrick Floor
HZCS               .         UTM                           : Horizontal Coordinate System
LMF                .         MR                            : Log Measure From
MC                 .         39 W                          : Meridiano Central
ORIG               .         SIGEO EXPORTACAO PERFIL       : Origem dos dados
ORIGINALWELLNAME   .         4ESS 0167  ES                 : 
STAT               .         ESPIRITO SANTO                : State
WDMS               .M        966.0                         : Water Depth to Mean Sea Level
X                  .         429077.0                      : Surface X
Y                  .         7788071.0                     : Surface Y
~Parameter Information Block
#_______________________________________________________________________________
#
#PARAMETER_NAME    .UNIT     VALUE                         : DESCRIPTION
#_______________________________________________________________________________
SET                .         ESS167_resample               : 
TLFAMILY_CALI      .         Caliper                       : 
TLFAMILY_COTA      .         Measured Depth                : 
TLFAMILY_DT        .         Compressional Slowness        : 
TLFAMILY_GR        .         Gamma Ray                     : 
TLFAMILY_INPEFA_1  .         Photoelectric Factor          : 
TLFAMILY_INPEFA_2  .         Photoelectric Factor          : 
TLFAMILY_INPEFA_3  .         Photoelectric Factor          : 
TLFAMILY_INPEFA_4  .         Photoelectric Factor          : 
TLFAMILY_LITO      .                                       : 
TLFAMILY_LLD       .         Deep Resistivity              : 
TLFAMILY_RHOB      .         Bulk Density                  : 
TLFamily_CALI      .         Caliper                       : 
TLFamily_COTA      .                                       : 
TLFamily_DEPT      .         Measured Depth                : 
TLFamily_DT        .         Compressional Slowness        : 
TLFamily_GR        .         Gamma Ray                     : 
TLFamily_INPEFA_1  .         Photoelectric Factor          : 
TLFamily_INPEFA_2  .         Photoelectric Factor          : 
TLFamily_INPEFA_3  .         Photoelectric Factor          : 
TLFamily_INPEFA_4  .         Photoelectric Factor          : 
TLFamily_LITO      .                                       : 
TLFamily_LLD       .         Deep Resistivity              : 
TLFamily_NPHI      .         Neutron Porosity              : 
TLFamily_RHOB      .         Bulk Density                  : 
~Curve Information
#_______________________________________________________________________________
#
#LOGNAME           .UNIT     LOG_ID                        : DESCRIPTION
#_______________________________________________________________________________
DEPT               .m                                      :  {F}
CALI               .in                                     : CALIPER {F}
COTA               .                                       :  {F}
DT                 .us/ft                                  : DELTA-T (ALSO CALLED SLOWNESS OR INTERVAL TRANSIT TIME) {F}
GR                 .gAPI                                   : GAMMA RAY {F}
INPEFA_1           .                                       :  {F}
INPEFA_2           .                                       :  {F}
INPEFA_3           .                                       :  {F}
INPEFA_4           .                                       :  {F}
LITO               .                                       :  {F}
LLD                .ohm.m                                  : LATEROLOG DEEP RESISTIVITY {F}
NPHI               .                                       :  {F}
RHOB               .g/cm3                                  : BULK DENSITY {F}
~Ascii
# ...
3144.7003  12.4194    -3144.7003 85.88863000000001 125.5468   -0.1033    -0.09236   0.43198    0.61668    57         1.45707    -9999      2.3735    
3144.9003  12.43292   -3144.9003 84.4053    124.4755   -0.11797   -0.1408    0.38361    0.62042    57         1.54395    -9999      2.3805    
3145.1003  12.41808   -3145.1003 82.27988000000001 121.572    -0.14065   -0.21445   0.2862     0.56083    49         1.74568    -9999      2.40219   
3145.3003  12.4226    -3145.3003 79.6319    108.6772   -0.15329   -0.27302   0.18524    0.42272    49         2.08051    -9999      2.42599   
3145.5003  12.40923   -3145.5003 75.65183   87.27182000000001 -0.13068   -0.23739   0.25061    0.54347    49         2.36451    -9999      2.44499   
3145.7003  12.38091   -3145.7003 71.20560999999999 72.40884   -0.17048   -0.3539    0.06089    0.31846    49         2.33117    -9999      2.47159   
3145.9003  12.39711   -3145.9003 73.82517   73.02313   -0.16236   -0.37046   0.00111    0.17608    49         2.02916    -9999      2.46641   
3146.1003  12.44956   -3146.1003 80.89099   76.73756   -0.15619   -0.38006   -0.03465   0.0824     57         1.71284    -9999      2.39295   
3146.3003  12.45121   -3146.3003 83.39532   87.53207   -0.16705   -0.43872   -0.16591   -0.19348   57         1.4604     -9999      2.31264   
3146.5003  12.48269   -3146.5003 85.09351   113.22     -0.12997   -0.37977   -0.10814   -0.25404   57         1.33864    -9999      2.2963    
3146.7003  12.55056   -3146.7003 85.91698   133.4958   -0.09539   -0.3053    0.01551    -0.12543   57         1.307      -9999      2.31689   
3146.9003  12.62263   -3146.9003 85.42843000000001 127.6806   -0.08958   -0.30364   0.02383    -0.12829   57         1.3087     -9999      2.315     
3147.1003  12.38405   -3147.1003 84.38848   118.5366   -0.06568   -0.23866   0.17116    0.17156    57         1.3051     -9999      2.3102    
3147.3003  12.34822   -3147.3003 84.33843   122.3415   -0.10519   -0.3286    0.07966    0.26176    57         1.23563    -9999      2.33279   
3147.5003  12.3204    -3147.5003 90.02341   122.4689   -0.14612   -0.44863   -0.10897   0.13125    57         1.17982    -9999      2.3374    
3147.7003  12.33752   -3147.7003 94.01433   118.2386   -0.14886   -0.475     -0.14685   0.20899    57         1.19048    -9999      2.30762   
3147.9003  12.32848   -3147.9003 93.43496   119.2417   -0.18648   -0.58889   -0.33464   0.08231    57         1.26646    -9999      2.2933    
3148.1003  12.40359   -3148.1003 91.71899999999999 122.4796   -0.17004   -0.59036   -0.37575   0.0445     57         1.33028    -9999      2.2959    
3148.3003  12.3857    -3148.3003 90.3948    124.726    -0.18473   -0.652     -0.50619   -0.1389    57         1.3582     -9999      2.2992    
3148.5003  12.33612   -3148.5003 89.86699   120.3782   -0.15668   -0.62413   -0.51616   -0.24578   57         1.3658     -9999      2.32918   
3148.7003  12.32231   -3148.7003 89.85149   118.3328   -0.12484   -0.55862   -0.4273    -0.16189   57         1.33631    -9999      2.36368   
3148.9003  12.3115    -3148.9003 89.7084    117.9221   -0.1284    -0.58811   -0.50287   -0.31645   57         1.27961    -9999      2.3684    
3149.1003  12.2886    -3149.1003 86.61304   112.0692   -0.09948   -0.53353   -0.44402   -0.33444   57         1.30466    -9999      2.3707    
3149.3003  12.28359   -3149.3003 73.63121   107.2066   -0.08335   -0.50551   -0.42198   -0.40108   57         1.52305    -9999      2.39388   
3149.5003  12.30079   -3149.5003 66.07704   99.78881   -0.03777   -0.40142   -0.27181   -0.28611   57         2.01211    -9999      2.44397   
3149.7003  12.29172   -3149.7003 66.0514    88.20766   -0.03113   -0.37005   -0.19747   -0.14274   57         2.5743     -9999      2.4624    
3149.9003  12.29691   -3149.9003 66.0514    81.30162   -0.03777   -0.38175   -0.20655   -0.09416   57         2.82704    -9999      2.39844   
3150.1003  12.30088   -3150.1003 66.0514    80.13426   -0.05243   -0.42161   -0.27852   -0.153     57         2.44064    -9999      2.3771    
3150.3003  12.31139   -3150.3003 66.0514    88.23894   -0.05277   -0.42887   -0.30215   -0.14786   57         1.81048    -9999      2.44616   
3150.5003  12.30692   -3150.5003 66.0514    102.8676   -0.04501   -0.41631   -0.29141   -0.08747   57         1.40356    -9999      2.4658    
3150.7003  12.33888   -3150.7003 66.0514    111.1835   -0.05379   -0.44095   -0.34317   -0.1272    57         1.33321    -9999      2.40604   
3150.9003  12.3425    -3150.9003 66.0514    116.1479   -0.04798   -0.43864   -0.36925   -0.18787   57         1.39378    -9999      2.36032   
3151.1003  12.31801   -3151.1003 66.0514    114.4763   -0.03827   -0.4164    -0.35087   -0.19643   49         1.42539    -9999      2.3517    
3151.3003  12.31305   -3151.3003 64.62276   107.9808   -0.0336    -0.40816   -0.35793   -0.24369   49         1.41669    -9999      2.3565    
3151.5003  12.3008    -3151.5003 64.58369999999999 99.01902   -0.0349    -0.4156    -0.3995    -0.39716   49         1.50072    -9999      2.3598    
3151.7003  12.27192   -3151.7003 69.15319   86.96523999999999 0.00371    -0.32048   -0.26405   -0.29823   49         1.90283    -9999      2.36949   
3151.9003  12.27299   -3151.9003 71.93528000000001 81.09090000000001 0.00188    -0.31255   -0.2511    -0.32036   49         2.6109     -9999      2.41127   
3152.1003  12.26499   -3152.1003 72.55387   78.16177   0.01756    -0.26751   -0.1836    -0.2857    49         3.41322    -9999      2.45758   
3152.3003  12.2713    -3152.3003 72.15219   74.21984000000001 0.02684    -0.22779   -0.10968   -0.21107   49         3.70282    -9999      2.4724    
3152.5003  12.28219   -3152.5003 72.56477   68.78458000000001 0.02633    -0.21759   -0.09023   -0.21847   49         3.66246    -9999      2.47799   
3152.7003  12.29691   -3152.7003 73.86033999999999 66.42647   0.04322    -0.15851   0.01843    -0.08637   49         3.38496    -9999      2.49779   
3152.9003  12.26841   -3152.9003 74.98945999999999 71.40819999999999 0.03997    -0.14731   0.05352    -0.02692   49         2.91405    -9999      2.5067    
3153.1003  12.25191   -3153.1003 74.61230000000001 79.09584   0.05343    -0.09706   0.15086    0.12731    49         2.27831    -9999      2.48341   
3153.3003  12.26149   -3153.3003 72.52201   84.39144   0.04122    -0.10049   0.17495    0.23443    49         1.82306    -9999      2.44002   
3153.5003  12.28909   -3153.5003 69.20271   84.56608   0.03741    -0.1006    0.17641    0.26754    49         1.724      -9999      2.39292   
3153.7003  12.2664    -3153.7003 66.26831   83.99939000000001 0.0333     -0.09093   0.20527    0.36927    49         1.95313    -9999      2.3785    
3153.9003  12.2676    -3153.9003 64.44058   83.7349    0.03585    -0.07343   0.23763    0.49127    49         2.2997     -9999      2.41168   
3154.1003  12.31019   -3154.1003 63.56818   81.90501999999999 -0.01927   -0.19834   0.02402    0.24773    49         2.80012    -9999      2.45218   
3154.3003  12.2882    -3154.3003 62.73842   79.85948000000001 -0.01433   -0.20155   -0.03296   0.09624    49         3.60372    -9999      2.466     
3154.5003  12.281     -3154.5003 62.14292   79.62555   0.01564    -0.14074   0.00943    0.00335    49         5.11417    -9999      2.47659   
3154.7003  12.33238   -3154.7003 62.52037   76.07619   0.04637    -0.04967   0.14878    0.1228     49         6.41449    -9999      2.51598   
3154.9003  12.36228   -3154.9003 65.47069999999999 73.2431    0.07601    0.03141    0.27071    0.21868    49         5.54257    -9999      2.55808   
3155.1003  12.35531   -3155.1003 70.65862   73.93843   0.08466    0.08588    0.38743    0.38552    49         3.55403    -9999      2.54941   
3155.3003  12.3494    -3155.3003 75.60464   74.58644   0.06595    0.07214    0.40294    0.48479    49         2.43413    -9999      2.50382   
3155.5003  12.28102   -3155.5003 78.26346   76.19024   0.03426    0.00421    0.28721    0.30543    49         1.901      -9999      2.46742   
