~Version
 VERS              .         2.0                           : CWLS LOG ASCII STANDARD - VERSION 2.0
 WRAP              .         NO                            : ONE LINE PER DEPTH STEP
 DLM               .         SPACE                         : DELIMITING CHARACTER(SPACE TAB OR COMMA)
~Well Information
#_______________________________________________________________________________
#
#PARAMETER_NAME    .UNIT     VALUE                         : DESCRIPTION
#_______________________________________________________________________________
STRT               .m        1537                          : First reference value
STOP               .m        5197.8                        : Last reference value
STEP               .m        0.2                           : Step increment
NULL               .         -9999                         : Missing value
COMP               .         PETROLEO BRASILEIRO S/A       : Company
WELL               .         4-ESS-151_resample            : Well name
FLD                .         GOLFINHO                      : Field
LOC                .                                       : Location
CNTY               .                                       : County
STAT               .         ESPIRITO SANTO                : State
CTRY               .                                       : Country
SRVC               .                                       : Service Company
DATE               .                                       : Date
API                .         342710302200                  : API number
EDF                .M        18.00                         : Elevation Derrick Floor
GDAT               .         SIRGAS2000                    : Geodetic Datum
HZCS               .         UTM                           : Horizontal Coordinate System
LMF                .         MR                            : Log Measure From
LATI               .         -19_56_15.689                 : Latitude
LONG               .         -39_25_50.073                 : Longitude
MC                 .         39 W                          : Meridiano Central
ORIG               .         SIGEO EXPORTACAO PERFIL       : Origem dos dados
ORIGINALWELLNAME   .         4ESS 0151  ES                 : 
WDMS               .M        1332.00                       : Water Depth to Mean Sea Level
X                  .         454939.60                     : Surface X
Y                  .         7795340.90                    : Surface Y
~Parameter Information Block
#_______________________________________________________________________________
#
#PARAMETER_NAME    .UNIT     VALUE                         : DESCRIPTION
#_______________________________________________________________________________
SET                .         ESS151_resample               : 
TLFamily_CALI      .         Caliper                       : 
TLFamily_DEPT      .         Measured Depth                : 
TLFamily_DT        .         Compressional Slowness        : 
TLFamily_GR        .         Gamma Ray                     : 
TLFamily_INPEFA_1  .                                       : 
TLFamily_INPEFA_2  .                                       : 
TLFamily_INPEFA_3  .                                       : 
TLFamily_INPEFA_4  .                                       : 
TLFamily_LITO      .                                       : 
TLFamily_LLD       .         Deep Resistivity              : 
TLFamily_NPHI      .         Neutron Porosity              : 
TLFamily_OG        .                                       : 
TLFamily_RHOB      .         Bulk Density                  : 
~Curve Information
#_______________________________________________________________________________
#
#LOGNAME           .UNIT     LOG_ID                        : DESCRIPTION
#_______________________________________________________________________________
DEPT               .m                                      :  
CALI               .in                                     : CALIPER 
DT                 .us/ft                                  : DELTA-T (ALSO CALLED SLOWNESS OR INTERVAL TRANSIT TIME) 
GR                 .gAPI                                   : GAMMA RAY 
INPEFA_1           .                                       :  
INPEFA_2           .                                       :  
INPEFA_3           .                                       :  
INPEFA_4           .                                       :  
LITO               .                                       :  
LLD                .ohm.m                                  : LATEROLOG DEEP RESISTIVITY 
NPHI               .%                                      : THERMAL NEUTRON POROSITY (ORIGINAL RATIO METHOD) IN SELECTED LITHOLOGY 
OG                 .                                       :  
RHOB               .g/cm3                                  : BULK DENSITY 
~Ascii
# ...
5186.200000000001 8.514793   86.32539   166.9484   -0.000175391 -0.09125916 0.05046352 0.05404543 57         -9999      -9999      166.9484   2.521098  
5186.4     8.520201   86.15588   166.9484   -0.001013499 -0.09512136 0.03524249 0.03669186 57         -9999      -9999      166.9484   2.531494  
5186.6     8.521797   86.82647   166.9484   -0.001950153 -0.1013773 0.01294671 0.009734393 57         -9999      -9999      166.9484   2.546692  
5186.8     8.520501   87.87769   166.9484   -0.002903791 -0.1064159 -0.005556857 -0.01417295 57         -9999      -9999      166.9484   2.557696  
5187       8.523797   88.28781   166.9484   -0.002979921 -0.1068787 -0.01564661 -0.03452495 57         -9999      -9999      166.9484   2.551905  
5187.200000000001 8.518103   87.92705   166.9484   -0.003097975 -0.1074863 -0.02728482 -0.05826313 57         -9999      -9999      166.9484   2.532511  
5187.4     8.503713   87.38316   166.9484   -0.003272234 -0.1100977 -0.04442857 -0.08565322 57         -9999      -9999      166.9484   2.515008  
5187.6     8.510985   87.03992   166.9484   -0.004017417 -0.1142278 -0.0634003 -0.1123452 57         -9999      -9999      166.9484   2.510201  
5187.8     -9999      87.37462   166.9484   -0.004764621 -0.1173558 -0.07959551 -0.1375362 57         -9999      -9999      166.9484   -9999     
5188       -9999      88.4537    166.9484   -0.005320192 -0.1181635 -0.09083448 -0.1607325 57         -9999      -9999      166.9484   -9999     
5188.200000000001 -9999      89.75584   166.9484   -0.005426495 -0.117373  -0.1006313 -0.1864761 57         -9999      -9999      166.9484   -9999     
5188.4     -9999      90.79715   166.9484   -0.005178827 -0.1160271 -0.1110781 -0.2106614 57         -9999      -9999      166.9484   -9999     
5188.6     -9999      91.17477   166.9484   -0.005238319 -0.1177635 -0.1287303 -0.236199  57         -9999      -9999      166.9484   -9999     
5188.8     -9999      91.23949   166.9484   -0.005328632 -0.1192758 -0.1444307 -0.2520099 57         -9999      -9999      166.9484   -9999     
5189       -9999      91.17155   166.9484   -0.005281598 -0.1192844 -0.1557235 -0.2588974 57         -9999      -9999      166.9484   -9999     
5189.200000000001 -9999      90.99389   166.9484   -0.005160835 -0.118577  -0.1649726 -0.2619562 57         -9999      -9999      166.9484   -9999     
5189.4     -9999      90.90012   166.9484   -0.004972352 -0.1171841 -0.1723082 -0.2620679 57         -9999      -9999      166.9484   -9999     
5189.6     -9999      90.86454   166.9484   -0.004711472 -0.1150945 -0.1777743 -0.2599185 57         -9999      -9999      166.9484   -9999     
5189.8     -9999      90.45447   166.9484   -0.004382125 -0.1123323 -0.1814806 -0.2560959 57         -9999      -9999      166.9484   -9999     
5190       -9999      89.62424   166.9484   -0.003981436 -0.1088991 -0.1834914 -0.251015  57         -9999      -9999      166.9484   -9999     
5190.200000000001 -9999      88.85575   166.9484   -0.003508532 -0.1047918 -0.1838374 -0.2449103 57         -9999      -9999      166.9484   -9999     
5190.4     -9999      88.50592   166.9484   -0.00296578 -0.1000527 -0.1826737 -0.2380244 57         -9999      -9999      166.9484   -9999     
5190.6     -9999      88.42863   166.9484   -0.002351706 -0.0946677 -0.1799661 -0.2303551 57         -9999      -9999      166.9484   -9999     
5190.8     -9999      88.29228   166.9484   -0.001667209 -0.08865132 -0.175767  -0.2219007 57         -9999      -9999      166.9484   -9999     
5191       -9999      88.05073   166.9484   -0.000912292 -0.08200361 -0.1700761 -0.2126596 57         -9999      -9999      166.9484   -9999     
5191.200000000001 -9999      87.92902   166.9484   -0.0000870 -0.07472455 -0.1628934 -0.2026304 57         -9999      -9999      166.9484   -9999     
5191.4     -9999      88.44743   166.9484   0.00080881 -0.06681412 -0.1542187 -0.1918119 57         -9999      -9999      166.9484   -9999     
5191.6     -9999      89.54642   166.9484   0.001774994 -0.05827233 -0.1440522 -0.180203  57         -9999      -9999      166.9484   -9999     
5191.8     -9999      90.51328   166.9484   0.0028116  -0.04909917 -0.1323936 -0.1678029 57         -9999      -9999      166.9484   -9999     
5192       -9999      90.7764    166.9484   -0.002728856 -0.06215708 -0.1312037 -0.1562241 57         -9999      -9999      166.9484   -9999     
5192.200000000001 -9999      89.70651   166.9484   0.0028311  -0.04198236 -0.1157582 -0.1433105 57         -9999      -9999      166.9484   -9999     
5192.4     -9999      87.48973   166.9484   -0.001133154 -0.04832927 -0.1101917 -0.1309528 57         -9999      -9999      166.9484   -9999     
5192.6     -9999      85.25248   166.9484   0.000783312 -0.03979662 -0.09945131 -0.1183732 57         -9999      -9999      166.9484   -9999     
5192.8     -9999      85.03899   166.9484   -0.000393425 -0.03854199 -0.09086745 -0.1060028 57         -9999      -9999      166.9484   -9999     
5193       -9999      86.91686   166.9484   0.0000788  -0.03390544 -0.08143286 -0.09385793 57         -9999      -9999      166.9484   -9999     
5193.200000000001 -9999      89.82189   166.9484   0.0000353  -0.02986779 -0.07192745 -0.08198617 57         -9999      -9999      166.9484   -9999     
5193.4     -9999      91.96934   166.9484   -0.0000774 -0.02661233 -0.06298761 -0.07055509 57         -9999      -9999      166.9484   -9999     
5193.6     -9999      92.21361   166.9484   0.0000372  -0.02254714 -0.05380918 -0.05955993 57         -9999      -9999      166.9484   -9999     
5193.8     -9999      91.27782   166.9484   -0.000268901 -0.01998711 -0.04552904 -0.04916323 57         -9999      -9999      166.9484   -9999     
5194       -9999      90.18904   166.9484   0.0000604  -0.01560082 -0.03673169 -0.0392933 57         -9999      -9999      166.9484   -9999     
5194.200000000001 -9999      89.20377   166.9484   -0.000261163 -0.01310843 -0.02893398 -0.03009532 57         -9999      -9999      166.9484   -9999     
5194.4     -9999      88.56137   166.9484   0.0000762  -0.009054548 -0.02092353 -0.02153128 57         -9999      -9999      166.9484   -9999     
5194.6     -9999      88.22364   166.9484   -0.000333105 -0.006922277 -0.01390385 -0.01368474 57         -9999      -9999      166.9484   -9999     
5194.8     -9999      88.06427   166.9484   0.0000638  -0.003033136 -0.006717698 -0.006508219 57         -9999      -9999      166.9484   -9999     
5195       -9999      87.86991   -9999      -9999      -9999      -9999      -9999      57         -9999      -9999      -9999      -9999     
5195.200000000001 -9999      87.56165   -9999      -9999      -9999      -9999      -9999      57         -9999      -9999      -9999      -9999     
5195.4     -9999      87.3439    -9999      -9999      -9999      -9999      -9999      57         -9999      -9999      -9999      -9999     
5195.6     -9999      87.18337   -9999      -9999      -9999      -9999      -9999      57         -9999      -9999      -9999      -9999     
5195.8     -9999      87.17837   -9999      -9999      -9999      -9999      -9999      57         -9999      -9999      -9999      -9999     
5196       -9999      87.26608   -9999      -9999      -9999      -9999      -9999      57         -9999      -9999      -9999      -9999     
5196.200000000001 -9999      87.08691   -9999      -9999      -9999      -9999      -9999      57         -9999      -9999      -9999      -9999     
5196.4     -9999      86.89339   -9999      -9999      -9999      -9999      -9999      57         -9999      -9999      -9999      -9999     
5196.6     -9999      86.82751   -9999      -9999      -9999      -9999      -9999      57         -9999      -9999      -9999      -9999     
5196.8     -9999      87.07303   -9999      -9999      -9999      -9999      -9999      57         -9999      -9999      -9999      -9999     
5197       -9999      87.46011   -9999      -9999      -9999      -9999      -9999      57         -9999      -9999      -9999      -9999     
