~Version
 VERS              .         2.0                           : CWLS LOG ASCII STANDARD - VERSION 2.0
 WRAP              .         NO                            : ONE LINE PER DEPTH STEP
 DLM               .         SPACE                         : DELIMITING CHARACTER(SPACE TAB OR COMMA)
~Well Information
#_______________________________________________________________________________
#
#PARAMETER_NAME    .UNIT     VALUE                         : DESCRIPTION
#_______________________________________________________________________________
STRT               .m        1542                          : First reference value
STOP               .m        5640.8                        : Last reference value
STEP               .m        0.2                           : Step increment
NULL               .         -9999                         : Missing value
COMP               .         PETROLEO BRASILEIRO S/A       : Company
WELL               .         4-ESS-174A_resample           : Well name
FLD                .         GOLFINHO                      : Field
LOC                .                                       : Location
CNTY               .                                       : County
STAT               .         ESPIRITO SANTO                : State
CTRY               .                                       : Country
SRVC               .                                       : Service Company
DATE               .                                       : Date
API                .         342710322400                  : API number
EDF                .M        19.00                         : Elevation Derrick Floor
GDAT               .         SIRGAS2000                    : Geodetic Datum
HZCS               .         UTM                           : Horizontal Coordinate System
LMF                .         MR                            : Log Measure From
LATI               .         -19_56_54.869                 : Latitude
LONG               .         -39_29_58.132                 : Longitude
MC                 .         39 W                          : Meridiano Central
ORIG               .         SIGEO EXPORTACAO PERFIL       : Origem dos dados
ORIGINALWELLNAME   .         4ESS 0174A ES                 : 
WDMS               .M        1199.00                       : Water Depth to Mean Sea Level
X                  .         447729.60                     : Surface X
Y                  .         7794048.90                    : Surface Y
~Parameter Information Block
#_______________________________________________________________________________
#
#PARAMETER_NAME    .UNIT     VALUE                         : DESCRIPTION
#_______________________________________________________________________________
SET                .         ESS174A_resample              : 
TLFamily_CALI      .         Caliper                       : 
TLFamily_DEPT      .         Measured Depth                : 
TLFamily_DT        .         Compressional Slowness        : 
TLFamily_GR        .         Gamma Ray                     : 
TLFamily_INPEFA_1  .                                       : 
TLFamily_INPEFA_2  .                                       : 
TLFamily_INPEFA_3  .                                       : 
TLFamily_INPEFA_4  .                                       : 
TLFamily_LITO      .                                       : 
TLFamily_LLD       .         Deep Resistivity              : 
TLFamily_NPHI      .         Neutron Porosity              : 
TLFamily_OG        .                                       : 
TLFamily_RHOB      .         Bulk Density                  : 
~Curve Information
#_______________________________________________________________________________
#
#LOGNAME           .UNIT     LOG_ID                        : DESCRIPTION
#_______________________________________________________________________________
DEPT               .m                                      :  
CALI               .in                                     : CALIPER 
DT                 .us/ft                                  : DELTA-T (ALSO CALLED SLOWNESS OR INTERVAL TRANSIT TIME) 
GR                 .gAPI                                   : GAMMA RAY 
INPEFA_1           .                                       :  
INPEFA_2           .                                       :  
INPEFA_3           .                                       :  
INPEFA_4           .                                       :  
LITO               .                                       :  
LLD                .ohm.m                                  : LATEROLOG DEEP RESISTIVITY 
NPHI               .%                                      : THERMAL NEUTRON POROSITY (ORIGINAL RATIO METHOD) IN SELECTED LITHOLOGY 
OG                 .                                       :  
RHOB               .g/cm3                                  : BULK DENSITY 
~Ascii
# ...
4048.6     12.5797    85.9538    158.29     0.02459414 -0.06532707 0.1697917  0.140168   57         2.61689996719351 23.1225    158.29     2.5589    
4048.8     12.5865    85.9467    157.122    0.0335771  -0.0477839 0.2002279  0.2312107  57         2.561700105667114 23.2397    157.122    2.5472    
4049       12.5842    85.8931    153.372    0.03687777 -0.03303246 0.2413429  0.394498   57         2.55019998550415 23.2766    153.372    2.5354    
4049.2     12.5894    85.8099    153.0128   0.002972298 -0.1064559 0.1020316  0.2311306  57         2.573800086975054 22.6296    153.0128   2.5467    
4049.4     12.6004    85.6424    154.122    0.008250013 -0.102046  0.09430513 0.227381   57         2.569200038909912 23.5644    154.122    2.562     
4049.6     12.6218    85.3653    155.0948   0.0139551  -0.08918969 0.1167328  0.3139335  57         2.559799909591812 24.8669    155.0948   2.56      
4049.8     12.6213    85.056     155.2398   0.01561924 -0.08398136 0.1282641  0.4044081  57         2.596100091934204 24.4992    155.2398   2.5652    
4050       12.614     84.9119    155.7058   -0.005560854 -0.1309622 0.03390783 0.2961956  57         2.589900016784668 23.456     155.7058   2.5707    
4050.2     12.614     85.0264    157.1459   -0.005926379 -0.1384543 0.002866178 0.2499595  57         2.589699983597158 23.1891    157.1459   2.5614    
4050.4     12.6153    85.0904    156.3132   0.001889361 -0.1231882 0.02310903 0.3029844  57         2.681699991226196 23.1275    156.3132   2.5682    
4050.6     12.6219    85.0262    153.697    -0.000367258 -0.1287486 0.005675584 0.3024735  57         2.584899902343695 22.1927    153.697    2.592     
4050.8     12.6218    85.001     148.4367   -0.01147278 -0.1571802 -0.06355984 0.1829268  57         2.549999952316284 21.9712    148.4367   2.5962    
4051       12.6135    85.2483    142.6208   -0.007134144 -0.1533357 -0.07597547 0.1328674  57         2.53629994392395 22.5201    142.6208   2.5817    
4051.2     12.6102    85.461     146.3197   0.01015936 -0.1176472 -0.01945508 0.2231645  57         2.510999917984008 22.5701    146.3197   2.5652    
4051.4     12.6091    85.2707    154.886    0.004947495 -0.1281898 -0.04570899 0.1932519  57         2.453200101852417 23.5053    154.886    2.5511    
4051.6     12.6091    84.8849    159.7485   0.002818529 -0.1353509 -0.07192633 0.1401194  57         2.505599975586053 24.3288    159.7485   2.5609    
4051.8     12.6118    84.6199    158.1111   0.01059112 -0.1201027 -0.05357647 0.1605439  57         2.542099952697754 23.3066    158.1111   2.5837    
4052       12.6084    84.5908    155.1579   0.01637252 -0.1064475 -0.03363293 0.197211   57         2.605600118637085 22.409     155.1579   2.5818    
4052.2     12.6084    84.6339    160.1047   0.01374115 -0.1118445 -0.05098297 0.1717395  57         2.55220007896426 22.473     160.1047   2.5679    
4052.4     12.6123    84.6351    165.5074   0.01315247 -0.1144797 -0.06624364 0.1356849  57         2.554500102996826 22.4293    165.5074   2.5568    
4052.6     12.6168    84.5223    163.9213   0.03000224 -0.07513946 0.007056233 0.2745848  57         2.605299949645989 22.5609    163.9213   2.5503    
4052.8     12.625     84.3391    160.0451   0.01168853 -0.1118656 -0.06405947 0.1787448  57         2.51200008392334 22.9479    160.0451   2.5532    
4053       12.624     84.1989    161.9676   0.006539004 -0.1272837 -0.1101041 0.06972227 57         2.502700090408325 23.5433    161.9676   2.5506    
4053.2     12.6271    84.1702    164.9949   0.01042451 -0.1205225 -0.1104235 0.03814267 57         2.514300107955746 23.2113    164.9949   2.5432    
4053.4     12.6231    84.2043    162.9691   0.01018434 -0.1219411 -0.1245722 -0.01454317 57         2.427900075912476 23.3025    162.9691   2.5389    
4053.6     12.6205    84.2898    159.7366   0.004421772 -0.1372346 -0.1704753 -0.1447317 57         2.384099960327458 23.8415    159.7366   2.5362    
4053.8     12.6215    84.4228    160.296    0.007456992 -0.1332763 -0.1800277 -0.2240207 57         2.49210000038147 22.9666    160.296    2.5487    
4054       12.6225    84.4563    160.7805   0.007859642 -0.1378321 -0.2115685 -0.3690673 57         2.50410008430481 22.4552    160.7805   2.5696    
4054.2     12.6225    84.3316    156.0099   0.02195298 -0.1083967 -0.1720117 -0.39002   57         2.585799932479953 23.0493    156.0099   2.5815    
4054.4     12.623     84.1228    152.132    0.02703419 -0.09751122 -0.1639812 -0.4549469 57         2.658299922943115 22.71      152.132    2.5854    
4054.6     12.6243    84.0713    153.1161   0.02844829 -0.09498157 -0.1742673 -0.569717  57         2.721400022506733 22.8782    153.1161   2.5806    
4054.8     12.6311    84.2912    153.6006   0.038994   -0.07403512 -0.152486  -0.6484614 57         2.753599882125855 22.5909    153.6006   2.5708    
4055       12.6416    84.7616    151.5141   0.05923121 -0.02922595 -0.07912528 -0.6266394 57         2.69160008430481 22.2384    151.5141   2.5609    
4055.2     12.6508    85.2643    150.6162   0.07713661 0.01525637 0.004864414 -0.5476339 57         2.645100116729693 22.4428    150.6162   2.5529    
4055.4     12.6544    85.6075    151.7374   0.08554029 0.03925815 0.05327342 -0.5123285 57         2.603699922561646 23.4015    151.7374   2.5536    
4055.6     12.6544    85.7042    150.4148   0.07107389 0.01812162 0.02224227 -0.5938596 57         2.476700067520129 24.0557    150.4148   2.5675    
4055.8     12.6654    85.6275    151.5501   0.1071432  0.1002967  0.1825163  -0.3543028 57         2.469799995422363 24.4857    151.5501   2.5801    
4056       12.6718    85.4934    155.9042   0.08423111 0.0660119  0.1407412  -0.3871329 57         2.446000099182129 24.0097    155.9042   2.5723    
4056.2     12.6793    85.4375    157.681    0.09426656 0.09233647 0.1991975  -0.281409  57         2.376699924468971 23.6603    157.681    2.5606    
4056.4     12.6332    85.545     156.6423   0.08820987 0.09158829 0.2198404  -0.1958462 57         2.431600093841553 23.046     156.6423   2.5645    
4056.6     12.6046    85.749     156.6509   0.08776646 0.09898942 0.2511086  -0.08910406 57         2.461499929428084 22.5697    156.6509   2.5752    
4056.8     12.5993    85.8911    156.3702   0.08348043 0.09979413 0.2734576  0.02501488 57         2.458600044250488 21.9974    156.3702   2.5827    
4057       12.5777    85.7205    154.3419   0.07789096 0.09724996 0.2906512  0.1506078  57         2.45740008354187 22.3631    154.3419   2.5827    
4057.2     12.5675    85.2076    150.5958   0.05727002 0.06297746 0.2482604  0.1899741  57         2.530800104141193 23.1805    150.5958   2.5769    
4057.4     12.5671    84.4207    146.837    0.03155776 0.008545413 0.1491313  0.08545774 57         2.487499952316284 23.0188    146.837    2.5664    
4057.6     12.5651    83.5628    145.1662   0.02311686 -0.007468651 0.1219635  0.09431104 57         2.566900014877455 21.6109    145.1662   2.5561    
4057.8     12.5651    82.9585    143.5526   0.01515982 -0.02527842 0.08700138 0.0821707  57         2.6596999168396 20.0082    143.5526   2.56      
4058       12.563     82.8178    138.946    0.001859071 -0.05945199 0.007652627 -0.05603119 57         2.746700048446655 19.8405    138.946    2.5733    
4058.2     12.564     83.0206    133.1979   0.01774048 -0.02482018 0.06749281 0.05629389 57         2.733999967575062 19.6067    133.1979   2.5871    
4058.4     12.5667    83.3807    130.0829   0.009309224 -0.04316026 0.02745905 0.01472343 57         2.696099996566773 19.443     130.0829   2.5942    
4058.6     12.5624    83.8835    135.2759   -0.004472395 -0.0737682 -0.04122524 -0.0997387 57         2.673899888992372 19.5599    135.2759   2.5838    
4058.8     12.563     84.9101    136.8591   -0.01458174 -0.1042722 -0.1258727 -0.2983498 57         2.661099910736084 19.7529    136.8591   2.5688    
4059       12.563     86.3387    139.2326   0.000255991 -0.07708257 -0.09760001 -0.3156109 57         2.538500070571899 20.5173    139.2326   2.561     
