~Version
 VERS              .         2.0                           : CWLS LOG ASCII STANDARD - VERSION 2.0
 WRAP              .         NO                            : ONE LINE PER DEPTH STEP
 DLM               .         SPACE                         : DELIMITING CHARACTER(SPACE TAB OR COMMA)
~Well Information
#_______________________________________________________________________________
#
#PARAMETER_NAME    .UNIT     VALUE                         : DESCRIPTION
#_______________________________________________________________________________
STRT               .m        2424.989                      : First reference value
STOP               .m        5587.189                      : Last reference value
STEP               .m        0.2                           : Step increment
NULL               .         -9999                         : Missing value
COMP               .         PETROLEO BRASILEIRO S/A       : Company
WELL               .         4ESS 0138  ES                 : Well name
FLD                .         CANAPU                        : Field
LOC                .                                       : Location
CNTY               .                                       : County
STAT               .         ESPIRITO SANTO                : State
CTRY               .                                       : Country
SRVC               .                                       : Service Company
DATE               .                                       : Date
API                .         342710293200                  : API number
EDF                .M        18.00                         : Elevation Derrick Floor
GDAT               .         SIRGAS2000                    : Geodetic Datum
HZCS               .         UTM                           : Horizontal Coordinate System
LAT                .         -20.018293                    : Latitude
LONG               .         -39.316753                    : Longitude
MC                 .         39 W                          : Meridiano Central
ORIG               .         SIGEO EXPORTACAO PERFIL       : Origem dos dados
WDMS               .M        1614.00                       : Water Depth to Mean Sea Level
XCOORD             .         466869.60                     : Surface X
YCOORD             .         7786462.90                    : Surface Y
~Parameter Information Block
#_______________________________________________________________________________
#
#PARAMETER_NAME    .UNIT     VALUE                         : DESCRIPTION
#_______________________________________________________________________________
SET                .         ESS138_resample               : 
TLFamily_CALI      .         Caliper                       : 
TLFamily_DEPT      .         Measured Depth                : 
TLFamily_DT        .         Compressional Slowness        : 
TLFamily_DTS       .         Compressional Slowness        : 
TLFamily_GR        .         Gamma Ray                     : 
TLFamily_INPEFA_1  .                                       : 
TLFamily_INPEFA_2  .                                       : 
TLFamily_INPEFA_3  .                                       : 
TLFamily_INPEFA_4  .                                       : 
TLFamily_LITO      .                                       : 
TLFamily_NPHI      .         Neutron Porosity              : 
TLFamily_OG        .                                       : 
TLFamily_RESD      .         Deep Resistivity              : 
TLFamily_RESM      .         Medium Resistivity            : 
TLFamily_RESS      .         Shallow Resistivity           : 
TLFamily_RHOB      .         Bulk Density                  : 
TLFamily_TVD       .         True Vertical Depth           : 
~Curve Information
#_______________________________________________________________________________
#
#LOGNAME           .UNIT     LOG_ID                        : DESCRIPTION
#_______________________________________________________________________________
DEPT               .m                                      :  
CALI               .in                                     :  
DT                 .us/ft                                  :  
DTS                .us/ft                                  :  
GR                 .gAPI                                   : GAMMA RAY 
INPEFA_1           .                                       :  
INPEFA_2           .                                       :  
INPEFA_3           .                                       :  
INPEFA_4           .                                       :  
LITO               .Sem                                    : Não definido 
NPHI               .%                                      : THERMAL NEUTRON POROSITY (ORIGINAL RATIO METHOD) IN SELECTED LITHOLOGY 
OG                 .                                       :  
RESD               .ohm.m                                  :  
RESM               .ohm.m                                  :  
RESS               .ohm.m                                  :  
RHOB               .g/cm3                                  :  
TVD                .                                       : Vertical Depth 
~Ascii
# ...
4940.789000000001 8.822294   76.27486708032735 135.3558   175.3433   0.2797083  -0.1880746 -0.326223  -0.4518085 57         19.81136   175.3433   4.344995282448631 4.374029692566174 7.443921214434258 2.586996   4939.787700000001
4940.989   8.828786   76.41998987873589 133.1854   177.8948   0.2911805  -0.1627826 -0.3076478 -0.5284505 57         19.75045   177.8948   4.493646406345071 4.490882785098783 7.580561399673956 2.597244   4939.987525459317
4941.189   8.809106   76.75767438993735 130.6794   178.6331   0.3231331  -0.06623497 -0.1570471 -0.3488151 57         19.39515   178.6331   4.660137183334464 4.662804798010901 7.828626134968414 2.600489   4940.187400000001
4941.389   8.825378   76.43731683445803 128.3646   171.802    0.303629   -0.09572091 -0.1691988 -0.3580675 57         19.72386   171.802    4.987544713807654 5.078265008495223 8.454377440511861 2.610176   4940.387175590551
4941.589   8.833668   74.65339726725971 127.4478   160.1759   0.3081568  -0.06291087 -0.08849902 -0.2023938 57         19.2545    160.1759   5.332518444375779 5.652896679399218 9.42310752781318 2.612644   4940.587  
4941.789000000001 8.79432    72.17907598699627 128.0051   154.0413   0.2836629  -0.111657  -0.1290704 -0.2306122 57         20.43353   154.0413   5.289372278864319 5.756028205192616 9.538793630747358 2.619029   4940.786800000001
4941.989   8.810947   70.96417188269103 129.0413   153.5849   0.2739106  -0.1289898 -0.1409864 -0.2731959 57         18.80764   153.5849   4.780805560053884 5.12286467572901 8.420106596530532 2.606317   4940.986600787401
4942.189   8.824583   71.85985897595265 129.5985   154.5074   0.2590054  -0.1592181 -0.1718318 -0.3615013 57         19.55878   154.5074   4.558697305735174 4.717470282908488 7.521359592677587 2.601786   4941.186400000001
4942.389   8.817791   73.24585611738935 130.1081   150.1082   0.2615952  -0.1598221 -0.1832763 -0.5058949 57         18.67504   150.1082   4.754034835528405 4.805693373383572 7.856234729963087 2.616667   4941.386250918636
4942.589   8.813225   73.03017155204272 130.6017   145.9874   0.2979193  -0.05119472 -0.006100757 -0.2946197 57         17.4913    145.9874   5.221726342652763 5.299940522881817 8.431056526314563 2.636246   4941.5861 
4942.789000000001 8.822321   71.47117430518368 131.4575   151.3017   0.2612868  -0.1207324 -0.0631285 -0.3586299 57         16.72306   151.3017   5.304503841151811 5.40787134669907 8.717070658596462 2.642306   4941.785900000001
4942.989   8.810191   70.89349761722363 132.7571   159.9312   0.2689485  -0.09852089 -0.02096977 -0.3470844 57         16.20076   159.9312   4.922713224660464 4.999921393364346 8.284936456720072 2.620654   4941.985699999999
4943.189   8.827223   72.27392043467117 134.3282   163.856    0.2671374  -0.08749555 0.02322387 -0.2951284 57         16.80108   163.856    4.675835480410139 4.770508214924083 7.552055793367337 2.598245   4942.185500000001
4943.389   8.807028   74.52984589103589 135.5358   165.5127   0.2489971  -0.1204649 -0.000523294 -0.3518067 57         19.60254   165.5127   4.57797014934171 4.684496401510533 7.164576877197716 2.587231   4942.385326246719
4943.589   8.815969   75.90619258930654 135.0149   165.8152   0.2595834  -0.09021185 0.05193032 -0.3288437 57         21.04412   165.8152   4.5399     4.572355967763023 7.127782938097001 2.604821   4942.5852 
4943.789000000001 8.836985   76.00860974169017 133.018    164.5853   0.2521654  -0.09252135 0.07344519 -0.3187416 57         20.11687   164.5853   4.538581884794505 4.512717479313586 7.140891903186054 2.61598    4942.784976377953
4943.989   8.827868   75.47650633083759 130.5897   161.7716   0.2646451  -0.05150509 0.1513626  -0.2112073 57         19.07244   161.7716   4.54153408745908 4.498631186676454 7.186142067333076 2.621188   4942.984799999999
4944.189   8.832517   74.95919144998295 128.3453   156.1625   0.2668597  -0.02376171 0.2304025  -0.02248996 57         21.03763   156.1625   4.639656781474702 4.636948390555101 7.268707397574592 2.622248   4943.184600000001
4944.389   8.833577   74.47504671352202 126.7984   152.9106   0.2493197  -0.04462531 0.2457513  0.1365189  57         19.79573   152.9106   4.819400283917869 4.909511423312361 7.528671441431944 2.614603   4943.3844 
4944.589   8.796796   73.61199794979615 126.4271   154.4475   0.2177175  -0.1136524 0.1743538  0.1564096  57         18.98968   154.4475   4.989389248455223 5.213300315970298 8.165573218104631 2.635796   4943.5842 
4944.789000000001 8.795257   72.17710620148506 127.0988   158.5925   0.2011166  -0.1583296 0.1082488  0.1066217  57         16.48502   158.5925   4.91698895468491 5.172363643803748 8.693002122767528 2.663627   4943.784051706038
4944.989   8.825195   70.87495848888791 129.2686   162.9929   0.2079283  -0.1380281 0.1388035  0.2094205  57         15.60216   162.9929   4.784744689376817 5.074429641063234 8.372285233258086 2.647582   4943.983826771652
4945.189   8.820146   70.54985420847835 131.6785   166.3875   0.1874645  -0.1858862 0.06750511 0.1426794  57         16.19847   166.3875   4.632220878931524 4.883208586931736 7.781105586694631 2.641748   4944.183700000001
4945.389   8.830477   71.33376108004596 133.536    166.3096   0.1980353  -0.1606312 0.08658857 0.1693383  57         17.8797    166.3096   4.503118903321663 4.679292116614235 7.443333165934969 2.624654   4944.383500000001
4945.589   8.808735   72.67871346060578 134.6509   161.0124   0.1849406  -0.1873764 0.03700669 0.1019199  57         18.11119   161.0124   4.459366605592618 4.573413233193982 7.291462492041481 2.620844   4944.583299999999
4945.789000000001 8.792781   73.99200857969053 134.4409   158.2841   0.1635318  -0.2534821 -0.1014479 -0.2039073 57         19.36431   158.2841   4.425958260803141 4.481367814357174 7.246805481190616 2.624654   4944.783100000001
4945.989   8.802094   75.13140420587914 133.88     159.8844   0.2044851  -0.1637213 -0.02836186 -0.2661013 57         18.79779   159.8844   4.385053156064827 4.372016919480976 7.296328899173415 2.613052   4944.982902099737
4946.189   8.804152   75.68357584795621 134.0128   161.4629   0.2253032  -0.09199452 0.06814262 -0.1737255 57         19.8615    161.4629   4.422295443252438 4.390147363669658 7.448747824905641 2.614825   4945.1827 
4946.389   8.788567   75.3874355125924 134.0205   162.9335   0.2181556  -0.1040076 0.03540504 -0.273069  57         17.0494    162.9335   4.456407510492746 4.466897490490789 7.547493351707958 2.638202   4945.382552230972
4946.589   8.795354   74.4775391225749 133.8029   162.8363   0.2365783  -0.05042098 0.09530264 -0.2389405 57         15.76921   162.8363   4.434700600574124 4.504762411503325 7.557772952750563 2.640082   4945.5824 
4946.789000000001 8.799878   73.83743033822084 133.5467   161.9075   0.2416443  -0.007633244 0.1827957  -0.007139724 57         16.57581   161.9075   4.393663760400941 4.477466121547773 7.555321258606254 2.616951   4945.782200000001
4946.989   8.787948   73.9953020351121 133.3055   160.3419   0.2018942  -0.09834006 0.06071217 -0.08759095 57         17.26691   160.3419   4.397495767509017 4.468977427625984 7.551687136214629 2.611058   4945.981999999999
4947.189   8.79842    74.59998683979619 132.9043   158.5294   0.1949205  -0.1187891 0.0100341  -0.1582629 57         19.39972   158.5294   4.415139994813594 4.449338753670427 7.551795012462914 2.600965   4946.1818 
4947.389   8.804788   74.89521687425039 132.4456   159.7696   0.2007369  -0.10004   0.02447344 -0.1159165 57         19.45395   159.7696   4.396658229350762 4.414037789622219 7.554331457873001 2.583882   4946.3816 
4947.589   8.796026   74.58179447844955 131.9275   165.2466   0.2068433  -0.08384153 0.03391233 -0.08228349 57         19.83283   165.2466   4.411445133888443 4.437268833303001 7.579537364070155 2.593256   4946.581402624672
4947.789000000001 8.804205   74.00209986568797 131.1546   171.3701   0.1976709  -0.09349246 0.01992168 -0.06560541 57         21.31418   171.3701   4.487498293692632 4.511142139577037 7.691126882192383 2.612945   4946.781200000001
