~Version
 VERS              .         2.0                           : CWLS LOG ASCII STANDARD - VERSION 2.0
 WRAP              .         NO                            : ONE LINE PER DEPTH STEP
 DLM               .         SPACE                         : DELIMITING CHARACTER(SPACE TAB OR COMMA)
~Well Information
#_______________________________________________________________________________
#
#PARAMETER_NAME    .UNIT     VALUE                         : DESCRIPTION
#_______________________________________________________________________________
STRT               .m        2424.989                      : First reference value
STOP               .m        5587.189                      : Last reference value
STEP               .m        0.2                           : Step increment
NULL               .         -9999                         : Missing value
COMP               .         PETROLEO BRASILEIRO S/A       : Company
WELL               .         4ESS 0138  ES                 : Well name
FLD                .         CANAPU                        : Field
LOC                .                                       : Location
CNTY               .                                       : County
STAT               .         ESPIRITO SANTO                : State
CTRY               .                                       : Country
SRVC               .                                       : Service Company
DATE               .                                       : Date
API                .         342710293200                  : API number
EDF                .M        18.00                         : Elevation Derrick Floor
GDAT               .         SIRGAS2000                    : Geodetic Datum
HZCS               .         UTM                           : Horizontal Coordinate System
LAT                .         -20.018293                    : Latitude
LONG               .         -39.316753                    : Longitude
MC                 .         39 W                          : Meridiano Central
ORIG               .         SIGEO EXPORTACAO PERFIL       : Origem dos dados
WDMS               .M        1614.00                       : Water Depth to Mean Sea Level
XCOORD             .         466869.60                     : Surface X
YCOORD             .         7786462.90                    : Surface Y
~Parameter Information Block
#_______________________________________________________________________________
#
#PARAMETER_NAME    .UNIT     VALUE                         : DESCRIPTION
#_______________________________________________________________________________
SET                .         ESS138_resample               : 
TLFamily_CALI      .         Caliper                       : 
TLFamily_DEPT      .         Measured Depth                : 
TLFamily_DT        .         Compressional Slowness        : 
TLFamily_DTS       .         Compressional Slowness        : 
TLFamily_GR        .         Gamma Ray                     : 
TLFamily_INPEFA_1  .                                       : 
TLFamily_INPEFA_2  .                                       : 
TLFamily_INPEFA_3  .                                       : 
TLFamily_INPEFA_4  .                                       : 
TLFamily_LITO      .                                       : 
TLFamily_NPHI      .         Neutron Porosity              : 
TLFamily_OG        .                                       : 
TLFamily_RESD      .         Deep Resistivity              : 
TLFamily_RESM      .         Medium Resistivity            : 
TLFamily_RESS      .         Shallow Resistivity           : 
TLFamily_RHOB      .         Bulk Density                  : 
TLFamily_TVD       .         True Vertical Depth           : 
~Curve Information
#_______________________________________________________________________________
#
#LOGNAME           .UNIT     LOG_ID                        : DESCRIPTION
#_______________________________________________________________________________
DEPT               .m                                      :  
CALI               .in                                     :  
DT                 .us/ft                                  :  
DTS                .us/ft                                  :  
GR                 .gAPI                                   : GAMMA RAY 
INPEFA_1           .                                       :  
INPEFA_2           .                                       :  
INPEFA_3           .                                       :  
INPEFA_4           .                                       :  
LITO               .Sem                                    : Não definido 
NPHI               .%                                      : THERMAL NEUTRON POROSITY (ORIGINAL RATIO METHOD) IN SELECTED LITHOLOGY 
OG                 .                                       :  
RESD               .ohm.m                                  :  
RESM               .ohm.m                                  :  
RESS               .ohm.m                                  :  
RHOB               .g/cm3                                  :  
TVD                .                                       : Vertical Depth 
~Ascii
# ...
3097.789   12.19135   97.19260979198505 219.6102   89.6901    0.3905568  0.1038416  -0.07805509 0.4125684  57         40.87936   89.6901    1.019660218331473 1.101763761409562 1.307380764345356 2.28778    3097.531700000001
3097.989   12.2001    93.38868026533153 210.7396   75.73704   0.379379   0.0794269  -0.1142483 0.4424769  57         32.84246   75.73704   1.065210643288614 1.138103362079722 1.367780031736531 2.352738   3097.7315 
3098.189   12.18594   94.23076401357969 208.2328   65.23429   0.3612217  0.02434281 -0.218412  0.2881045  57         30.21128   65.23429   1.023705013519972 1.115201352371827 1.311223753947453 2.427488   3097.9314 
3098.389   12.1703    97.45250792015527 209.4913   69.21249   0.3653331  0.02004525 -0.2660425 0.1263149  57         27.92134   69.21249   0.9658226325243587 1.06041851774192 1.220101828250963 2.449139   3098.1313 
3098.589   12.15865   98.16478801336841 213.3831   78.22079   0.3991667  0.09538367 -0.1966835 0.1030699  57         28.55475   78.22079   0.9865893720761602 1.014516293230136 1.222995561697254 2.367078   3098.3312 
3098.789   12.18008   95.00844135434187 219.6612   78.17012   0.4278532  0.1834986  -0.06934731 0.265481   57         24.75743   78.17012   1.027387858523259 1.053962949017319 1.328723469847606 2.352984   3098.531  
3098.989   12.29586   94.06067713539773 227.5323   75.88092   0.3925204  0.1083841  -0.1710495 0.1019896  57         29.74958   75.88092   1.062170568563798 1.050903053720304 1.366101401734692 2.432989   3098.7309 
3099.189   12.35765   98.55293454148334 235.4686   79.34698   0.4012377  0.1208577  -0.1908641 -0.08599332 57         24.81041   79.34698   0.9855419698013296 0.9818632002844829 1.224734993840865 2.449295   3098.930800000001
3099.389   12.36054   104.2733663123427 239.5711   81.97653   0.4299206  0.1983427  -0.1040608 -0.1235981 57         24.59398   81.97653   0.9198369849431226 0.9502999782562256 1.055603361621121 2.413286   3099.1307 
3099.589   12.36545   103.8129666546177 234.1871   81.81634   0.4468605  0.2578738  -0.02216839 -0.1138874 57         27.91981   81.81634   0.9254708608017025 0.9758564788873139 1.139378252132539 2.375829   3099.3305 
3099.789   12.37327   96.26653097557464 216.292    84.99452   0.4450549  0.2677456  -0.01320838 -0.2277347 57         38.21626   84.99452   0.9672673038692243 1.05929030711095 1.554670915740688 2.398624   3099.5304 
3099.989   12.36008   86.79003641924489 191.1984   88.75584   0.4768358  0.3609342  0.113661   -0.1721212 49         38.31109   88.75584   1.077054070383217 1.228460242152064 2.097551234247128 2.411165   3099.7303 
3100.189   12.36283   83.35204933947627 174.151    88.66524   0.4581634  0.3542998  0.1393484  -0.1434274 49         27.60316   88.66524   1.026428155435528 1.168514159324952 2.275747283113101 2.42441    3099.9302 
3100.389   12.37686   88.16144279419567 173.4227   88.09386   0.439602   0.3042873  0.04826452 -0.4185388 49         17.79169   88.09386   0.7605066016990117 0.8541334632988713 1.785032370524956 2.442393   3100.13   
3100.589   12.39065   97.92750645434572 188.8194   89.64967   0.4899104  0.4474499  0.2472227  -0.2562204 49         15.29473   89.64967   0.5646022302435676 0.6382101736414693 1.008300701112141 2.378053   3100.3299 
3100.789   12.39831   105.5940067361408 213.462    90.77866   0.4666674  0.4270079  0.2582932  -0.2222098 49         19.5516    90.77866   0.4345111421266757 0.4817968648342427 0.6054627402379843 2.271145   3100.5298 
3100.989   12.37534   108.0460141599962 235.8727   91.23291   0.4472798  0.3827175  0.1889911  -0.4127959 49         24.02091   91.23291   0.4425012324235865 0.4506597323009929 0.5078604003050565 2.228185   3100.729621784777
3101.189   12.39961   106.2653036643172 248.7135   93.16486   0.4654516  0.4382299  0.2595162  -0.4356562 58         24.73073   93.16486   0.5605344751055567 0.5343430506260434 0.5618492154932934 2.235267   3100.9295 
3101.389   12.39069   102.8386165789074 252.2383   94.36247   0.4618974  0.4492763  0.2894054  -0.4566915 58         32.86056   94.36247   0.6653889668962365 0.6353113256057154 0.7168219468403381 2.28727    3101.1294 
3101.589   12.38809   100.6057924085414 254.4636   89.89095   0.464524   0.4662834  0.3140997  -0.5334846 58         37.8083    89.89095   0.7265352045349744 0.7040789031939737 0.8812550343959622 2.361314   3101.3293 
3101.789   12.36635   100.7394942636573 256.8697   81.8293    0.4627449  0.4824582  0.3474436  -0.6067158 58         33.93438   81.8293    0.7212823256055942 0.7656050058091349 0.9446073900373884 2.376712   3101.529122047244
3101.989   12.33716   102.435249448761 256.632    80.12173   0.485692   0.5539355  0.4556266  -0.5665224 58         32.76414   80.12173   0.7124884259786529 0.7786450728495079 0.9207161168863902 2.353375   3101.729  
3102.189   12.35322   102.8672509381137 252.1807   83.50029   0.4909093  0.5945009  0.5436156  -0.4759537 58         34.8446    83.50029   0.7561023835645274 0.8004481232609164 0.936081875891809 2.257226   3101.9289 
3102.389   12.34897   101.0911281315352 244.0257   83.34112   0.4845549  0.6033391  0.5944303  -0.3839716 58         34.00019   83.34112   0.8265702948538356 0.8664291907272061 1.038340056172984 2.303071   3102.1288 
3102.589   12.31484   98.2545361256032 233.3858   79.32595   0.4760295  0.6181911  0.6739609  -0.1473243 58         33.48727   79.32595   0.8854987868833342 0.9323888833251642 1.161430780335902 2.366809   3102.328622309712
3102.789   12.29682   96.07764955455394 223.3977   76.78254   0.4446193  0.5539646  0.620564   -0.09570809 58         29.67524   76.78254   0.9183100069979586 0.9610681758223315 1.243457711828353 2.369523   3102.5285 
3102.989   12.30172   95.343611589567 216.8438   74.74586   0.4271446  0.5226383  0.6037774  0.007235231 58         28.51839   74.74586   0.9603275825247306 1.006902128974318 1.311105663325508 2.392029   3102.7284 
3103.189   12.30377   96.246612628929 214.6804   76.61994   0.3990621  0.4627784  0.5458103  0.08178602 58         28.54331   76.61994   0.9734424836548057 1.051334724346628 1.337583337641319 2.422395   3102.9283 
3103.389   12.29591   97.24000136808493 214.8637   82.63293   0.3812754  0.4170977  0.4885977  0.1444739  58         25.68828   82.63293   0.9672538360600657 1.057241943103822 1.306713844037222 2.432622   3103.128122572179
3103.589   12.3268    96.39804954228441 215.0555   83.8719    0.3538656  0.3469733  0.3914464  0.1548518  58         27.27422   83.8719    0.9556597882421805 1.028057927021469 1.271876876876478 2.412773   3103.328  
3103.789   12.3045    94.06525827642983 215.496    83.38595   0.3560013  0.3354736  0.3547974  0.2148804  58         33.13898   83.38595   0.9410908128560978 1.008972674174314 1.263835707822048 2.436054   3103.5279 
3103.989   12.30114   93.17038895013809 217.975    87.12583   0.3478773  0.3078029  0.2995224  0.2633904  58         29.51662   87.12583   0.940765554613042 0.997785317527789 1.243938659687473 2.427564   3103.727747769029
3104.189   12.3149    95.04591267503423 223.6963   90.71358   0.3394849  0.2775119  0.2359468  0.2917741  58         28.21464   90.71358   0.9300484102317829 0.9778826176529859 1.171763493429764 2.418499   3103.9276 
3104.389   12.31716   98.91511006994118 232.8688   91.69532   0.326957   0.2308187  0.1363332  0.2387308  58         30.43264   91.69532   0.8849672598363848 0.9103904978953339 1.068546609643155 2.418056   3104.1275 
3104.589   12.31882   103.034558073429 241.9001   91.35758   0.3121901  0.1728532  0.002171944 0.0503993  58         27.55579   91.35758   0.8664757981144897 0.87991173111392 1.020237780841954 2.392099   3104.3274 
3104.789   12.31095   105.0814943088327 243.7185   91.43613   0.3416349  0.2219536  0.009058568 0.007402811 58         30.60503   91.43613   0.874503953934038 0.8922354501329985 1.043329693560166 2.324021   3104.527248031497
3104.989   12.29518   103.1640435166249 233.5416   89.90664   0.3690006  0.2918866  0.08276002 0.1520643  58         31.86099   89.90664   0.9436303828111897 0.9741405845777847 1.173890078503223 2.429311   3104.7271 
