~Version
 VERS              .         3.0                           : CWLS LOG ASCII STANDARD - VERSION 3.0
 WRAP              .         NO                            : ONE LINE PER DEPTH STEP
 DLM               .         SPACE                         : DELIMITING CHARACTER(SPACE TAB OR COMMA)
~Well Information
#_______________________________________________________________________________
#
#PARAMETER_NAME    .UNIT     VALUE                         : DESCRIPTION
#_______________________________________________________________________________
STRT               .m        2108.1003                     : First reference value
STOP               .m        4106.9003                     : Last reference value
STEP               .m        0.2                           : Step increment
NULL               .         -9999                         : Missing value
COMP               .         PETROLEO BRASILEIRO S/A       : Company
WELL               .         4-ESS-167_resample            : Well name
FLD                .         GOLFINHO                      : Field
LOC                .                                       : Location
SRVC               .                                       : Service Company
CTRY               .                                       : Country
DATE               .                                       : Service Date
LATI               .         -200010.479                   : Latitude
LONG               .         -394042.854                   : Longitude
GDAT               .         SIRGAS2000                    : Geodetic Datum
API                .         342710319700                  : API number
CNTY               .                                       : County
COUNTRY            .                                       : Country
EDF                .M        25.0                          : Elevation Derrick Floor
HZCS               .         UTM                           : Horizontal Coordinate System
LMF                .         MR                            : Log Measure From
MC                 .         39 W                          : Meridiano Central
ORIG               .         SIGEO EXPORTACAO PERFIL       : Origem dos dados
ORIGINALWELLNAME   .         4ESS 0167  ES                 : 
STAT               .         ESPIRITO SANTO                : State
WDMS               .M        966.0                         : Water Depth to Mean Sea Level
X                  .         429077.0                      : Surface X
Y                  .         7788071.0                     : Surface Y
~Parameter Information Block
#_______________________________________________________________________________
#
#PARAMETER_NAME    .UNIT     VALUE                         : DESCRIPTION
#_______________________________________________________________________________
SET                .         ESS167_resample               : 
TLFAMILY_CALI      .         Caliper                       : 
TLFAMILY_COTA      .         Measured Depth                : 
TLFAMILY_DT        .         Compressional Slowness        : 
TLFAMILY_GR        .         Gamma Ray                     : 
TLFAMILY_INPEFA_1  .         Photoelectric Factor          : 
TLFAMILY_INPEFA_2  .         Photoelectric Factor          : 
TLFAMILY_INPEFA_3  .         Photoelectric Factor          : 
TLFAMILY_INPEFA_4  .         Photoelectric Factor          : 
TLFAMILY_LITO      .                                       : 
TLFAMILY_LLD       .         Deep Resistivity              : 
TLFAMILY_RHOB      .         Bulk Density                  : 
TLFamily_CALI      .         Caliper                       : 
TLFamily_COTA      .                                       : 
TLFamily_DEPT      .         Measured Depth                : 
TLFamily_DT        .         Compressional Slowness        : 
TLFamily_GR        .         Gamma Ray                     : 
TLFamily_INPEFA_1  .         Photoelectric Factor          : 
TLFamily_INPEFA_2  .         Photoelectric Factor          : 
TLFamily_INPEFA_3  .         Photoelectric Factor          : 
TLFamily_INPEFA_4  .         Photoelectric Factor          : 
TLFamily_LITO      .                                       : 
TLFamily_LLD       .         Deep Resistivity              : 
TLFamily_NPHI      .         Neutron Porosity              : 
TLFamily_RHOB      .         Bulk Density                  : 
~Curve Information
#_______________________________________________________________________________
#
#LOGNAME           .UNIT     LOG_ID                        : DESCRIPTION
#_______________________________________________________________________________
DEPT               .m                                      :  {F}
CALI               .in                                     : CALIPER {F}
COTA               .                                       :  {F}
DT                 .us/ft                                  : DELTA-T (ALSO CALLED SLOWNESS OR INTERVAL TRANSIT TIME) {F}
GR                 .gAPI                                   : GAMMA RAY {F}
INPEFA_1           .                                       :  {F}
INPEFA_2           .                                       :  {F}
INPEFA_3           .                                       :  {F}
INPEFA_4           .                                       :  {F}
LITO               .                                       :  {F}
LLD                .ohm.m                                  : LATEROLOG DEEP RESISTIVITY {F}
NPHI               .                                       :  {F}
RHOB               .g/cm3                                  : BULK DENSITY {F}
~Ascii
# ...
2750.3003  12.85906   -2750.3003 107.4051   141.2015   -0.15752   0.1179     0.20159    0.21372    57         1.699920058250427 0.37272    2.3044    
2750.5003  12.86739   -2750.5003 107.2363   140.9642   -0.1499    0.16646    0.31026    0.41422    57         1.553889989852905 0.388917   2.31339   
2750.7003  12.92838   -2750.7003 106.4244   140.9071   -0.19877   0.06879    0.17627    0.32563    57         1.549649953842163 0.394285   2.30951   
2750.9003  12.84636   -2750.9003 93.03931   132.2045   -0.22495   0.00286    0.03991    0.08315    57         2.018369913101196 0.375451   2.3012    
2751.1003  12.63102   -2751.1003 80.27721   107.2375   -0.21481   0.03456    0.07296    0.06615    49         3.341880083084106 0.324494   2.37325   
2751.3003  12.53861   -2751.3003 75.93317999999999 81.75320000000001 -0.21771   0.02513    0.01889    -0.13791   49         5.91372013092041 0.236203   2.52302   
2751.5003  12.45541   -2751.5003 77.00790000000001 70.17583000000001 -0.18588   0.12076    0.16444    -0.03472   49         5.326310157775879 0.173479   2.62196   
2751.7003  12.44421   -2751.7003 87.62560000000001 67.38849999999999 -0.17781   0.15981    0.2307     0.02006    49         2.492739915847778 0.16693    2.62921   
2751.9003  12.43051   -2751.9003 95.43987   72.07638   -0.19532   0.1535     0.24875    0.08948    49         1.068819999694824 0.199283   2.55585   
2752.1003  12.41151   -2752.1003 101.5634   78.61830000000001 -0.2231    0.0916     0.1345     -0.093     49         0.8060500025749207 0.269585   2.40518   
2752.3003  12.41009   -2752.3003 104.6663   86.33593999999999 -0.22072   0.11654    0.17032    -0.08131   49         0.9628700017929077 0.322619   2.28085   
2752.5003  12.428     -2752.5003 104.9268   108.6214   -0.22307   0.12661    0.19023    -0.04528   49         1.258239984512329 0.332014   2.26      
2752.7003  12.429     -2752.7003 105.6251   131.9417   -0.26161   0.04819    0.05317    -0.27277   49         1.430130004882813 0.348842   2.27819   
2752.9003  12.4298    -2752.9003 106.1829   134.14     -0.25762   0.05496    0.02786    -0.43747   49         1.408130049705505 0.375606   2.2789    
2753.1003  12.40821   -2753.1003 106.8845   129.6669   -0.22797   0.14       0.15197    -0.38716   57         1.341120004653931 0.372089   2.2738    
2753.3003  12.4012    -2753.3003 107.8307   130.0788   -0.22276   0.17792    0.22788    -0.33361   57         1.363070011138916 0.363101   2.2742    
2753.5003  12.38851   -2753.5003 108.6465   130.2297   -0.2087    0.2339     0.3343     -0.22837   57         1.476230025291443 0.368827   2.2802    
2753.7003  12.41777   -2753.7003 109.0213   134.5942   -0.23971   0.1949     0.31111    -0.23457   57         1.626129984855652 0.385698   2.2784    
2753.9003  12.4268    -2753.9003 108.8579   142.6672   -0.22276   0.24721    0.40516    -0.13986   57         1.679100036621094 0.381796   2.2772    
2754.1003  12.43879   -2754.1003 108.3055   143.3468   -0.20673   0.33364    0.61419    0.2667     57         1.488209962844849 0.377885   2.29609   
2754.3003  12.46878   -2754.3003 107.6879   137.219    -0.26603   0.2217     0.49082    0.28017    57         1.181750059127808 0.364393   2.2972    
2754.5003  12.42245   -2754.5003 107.4863   128.9619   -0.3183    0.10513    0.31156    0.09359    57         1.026049971580505 0.363518   2.26322   
2754.7003  12.41899   -2754.7003 107.9747   121.3152   -0.32185   0.10012    0.30167    0.0909     57         1.04816997051239 0.372898   2.24281   
2754.9003  12.4244    -2754.9003 109.0197   122.4578   -0.30342   0.14377    0.35651    0.11368    57         1.163930058479309 0.3661     2.25089   
2755.1003  12.38913   -2755.1003 110.1241   129.6914   -0.2966    0.18986    0.46304    0.32424    57         1.334310054779053 0.367214   2.2597    
2755.3003  12.3751    -2755.3003 110.7977   133.4621   -0.32655   0.12422    0.36187    0.23887    57         1.516800045967102 0.374609   2.2628    
2755.5003  12.3944    -2755.5003 110.8483   131.7477   -0.32133   0.15194    0.41859    0.37849    57         1.662350058555603 0.381414   2.2712    
2755.7003  12.42208   -2755.7003 110.0413   134.4106   -0.35817   0.0655     0.27913    0.25398    57         1.738360047340393 0.390305   2.28519   
2755.9003  12.47468   -2755.9003 108.3484   136.3477   -0.33979   0.11226    0.3501     0.38308    57         1.795480012893677 0.391795   2.2884    
2756.1003  12.44591   -2756.1003 106.2775   127.7844   -0.3765    0.0308     0.22807    0.30013    57         1.742349982261658 0.380872   2.2851    
2756.3003  12.39234   -2756.3003 104.5062   118.7508   -0.37397   0.02486    0.20157    0.26692    57         1.55499005317688 0.358985   2.2864    
2756.5003  12.39557   -2756.5003 103.556    114.0675   -0.38744   0.00131    0.18319    0.3141     57         1.484609961509705 0.353313   2.2814    
2756.7003  12.41011   -2756.7003 103.2074   118.1123   -0.40345   -0.04484   0.11189    0.2419     57         1.618589997291565 0.368405   2.2703    
2756.9003  12.40121   -2756.9003 103.1757   122.3719   -0.42234   -0.09297   0.0386     0.12821    57         1.869279980659485 0.367585   2.29228   
2757.1003  12.43878   -2757.1003 103.34     120.4416   -0.41736   -0.09306   0.03611    0.06383    57         2.015749931335449 0.361107   2.36017   
2757.3003  12.4528    -2757.3003 103.6191   127.6105   -0.41812   -0.08905   0.06641    0.07814    57         1.964750051498413 0.370524   2.39009   
2757.5003  12.4665    -2757.5003 103.9274   144.4948   -0.44503   -0.16231   -0.03989   -0.12037   57         1.701449990272522 0.387505   2.35372   
2757.7003  12.4984    -2757.7003 103.7718   152.0257   -0.44617   -0.17503   -0.05622   -0.26811   57         1.468600034713745 0.387792   2.32881   
2757.9003  12.4795    -2757.9003 103.307    143.0097   -0.41868   -0.10863   0.08319    -0.15987   57         1.315060019493103 0.382892   2.32401   
2758.1003  12.44582   -2758.1003 103.1927   132.3695   -0.41865   -0.0941    0.16983    -0.03922   57         1.317690014839172 0.380689   2.319     
2758.3003  12.428     -2758.3003 103.95     131.5366   -0.46742   -0.20791   0.03759    -0.22981   57         1.365470051765442 0.371182   2.32569   
2758.5003  12.46946   -2758.5003 105.3267   134.215    -0.43598   -0.13569   0.19777    -0.05198   57         1.41867995262146 0.366722   2.31871   
2758.7003  12.43872   -2758.7003 106.6226   137.758    -0.48531   -0.24276   0.09539    -0.14573   57         1.476269960403442 0.385116   2.29641   
2758.9003  12.4252    -2758.9003 107.0828   137.9306   -0.47707   -0.23942   0.13405    -0.12511   57         1.49879002571106 0.39059    2.29339   
2759.1003  12.4319    -2759.1003 106.8593   138.4207   -0.47935   -0.2314    0.22855    0.14087    57         1.493899941444397 0.378096   2.30709   
2759.3003  12.46918   -2759.3003 106.2811   140.2256   -0.52693   -0.35728   0.07558    0.04615    57         1.396749973297119 0.375596   2.3091    
2759.5003  12.47762   -2759.5003 105.8117   140.4338   -0.51731   -0.34248   0.14882    0.29856    57         1.324329972267151 0.365684   2.29401   
2759.7003  12.49087   -2759.7003 105.6603   141.139    -0.57767   -0.49801   -0.05338   0.23102    57         1.343289971351624 0.363427   2.2834    
2759.9003  12.54678   -2759.9003 105.7676   142.7984   -0.5929    -0.56861   -0.16771   0.19625    57         1.463729977607727 0.383391   2.29019   
2760.1003  12.59436   -2760.1003 105.6446   140.6974   -0.61537   -0.64325   -0.27556   0.22393    57         1.601830005645752 0.373281   2.30659   
2760.3003  12.6116    -2760.3003 104.9142   136.3039   -0.64654   -0.76318   -0.50294   0.02824    57         1.770320057868958 0.366602   2.3087    
2760.5003  12.59152   -2760.5003 103.5547   136.465    -0.66843   -0.86889   -0.74101   -0.28588   57         1.955199956893921 0.371404   2.302     
2760.7003  12.54812   -2760.7003 101.963    137.5476   -0.61713   -0.83024   -0.81113   -0.60811   57         2.124639987945557 0.370885   2.31939   
