~Version
 VERS              .         2.0                           : CWLS LOG ASCII STANDARD - VERSION 2.0
 WRAP              .         NO                            : ONE LINE PER DEPTH STEP
 DLM               .         SPACE                         : DELIMITING CHARACTER(SPACE TAB OR COMMA)
~Well Information
#_______________________________________________________________________________
#
#PARAMETER_NAME    .UNIT     VALUE                         : DESCRIPTION
#_______________________________________________________________________________
STRT               .m        2424.989                      : First reference value
STOP               .m        5587.189                      : Last reference value
STEP               .m        0.2                           : Step increment
NULL               .         -9999                         : Missing value
COMP               .         PETROLEO BRASILEIRO S/A       : Company
WELL               .         4ESS 0138  ES                 : Well name
FLD                .         CANAPU                        : Field
LOC                .                                       : Location
CNTY               .                                       : County
STAT               .         ESPIRITO SANTO                : State
CTRY               .                                       : Country
SRVC               .                                       : Service Company
DATE               .                                       : Date
API                .         342710293200                  : API number
EDF                .M        18.00                         : Elevation Derrick Floor
GDAT               .         SIRGAS2000                    : Geodetic Datum
HZCS               .         UTM                           : Horizontal Coordinate System
LAT                .         -20.018293                    : Latitude
LONG               .         -39.316753                    : Longitude
MC                 .         39 W                          : Meridiano Central
ORIG               .         SIGEO EXPORTACAO PERFIL       : Origem dos dados
WDMS               .M        1614.00                       : Water Depth to Mean Sea Level
XCOORD             .         466869.60                     : Surface X
YCOORD             .         7786462.90                    : Surface Y
~Parameter Information Block
#_______________________________________________________________________________
#
#PARAMETER_NAME    .UNIT     VALUE                         : DESCRIPTION
#_______________________________________________________________________________
SET                .         ESS138_resample               : 
TLFamily_CALI      .         Caliper                       : 
TLFamily_DEPT      .         Measured Depth                : 
TLFamily_DT        .         Compressional Slowness        : 
TLFamily_DTS       .         Compressional Slowness        : 
TLFamily_GR        .         Gamma Ray                     : 
TLFamily_INPEFA_1  .                                       : 
TLFamily_INPEFA_2  .                                       : 
TLFamily_INPEFA_3  .                                       : 
TLFamily_INPEFA_4  .                                       : 
TLFamily_LITO      .                                       : 
TLFamily_NPHI      .         Neutron Porosity              : 
TLFamily_OG        .                                       : 
TLFamily_RESD      .         Deep Resistivity              : 
TLFamily_RESM      .         Medium Resistivity            : 
TLFamily_RESS      .         Shallow Resistivity           : 
TLFamily_RHOB      .         Bulk Density                  : 
TLFamily_TVD       .         True Vertical Depth           : 
~Curve Information
#_______________________________________________________________________________
#
#LOGNAME           .UNIT     LOG_ID                        : DESCRIPTION
#_______________________________________________________________________________
DEPT               .m                                      :  
CALI               .in                                     :  
DT                 .us/ft                                  :  
DTS                .us/ft                                  :  
GR                 .gAPI                                   : GAMMA RAY 
INPEFA_1           .                                       :  
INPEFA_2           .                                       :  
INPEFA_3           .                                       :  
INPEFA_4           .                                       :  
LITO               .Sem                                    : Não definido 
NPHI               .%                                      : THERMAL NEUTRON POROSITY (ORIGINAL RATIO METHOD) IN SELECTED LITHOLOGY 
OG                 .                                       :  
RESD               .ohm.m                                  :  
RESM               .ohm.m                                  :  
RESS               .ohm.m                                  :  
RHOB               .g/cm3                                  :  
TVD                .                                       : Vertical Depth 
~Ascii
# ...
2476.589   -9999      135.8920628104619 -9999      72.86835   -0.004051804 -0.02866344 0.1043674  0.07811236 -9999      -9999      72.86835   -9999      -9999      -9999      -9999      2476.5512 
2476.789   -9999      136.6012425059726 -9999      73.44783   0.000978981 -0.03307652 0.07218952 -0.02593234 -9999      -9999      73.44783   -9999      -9999      -9999      -9999      2476.751141994751
2476.989   -9999      136.0766996849238 -9999      73.63918   -0.0000392 -0.0400022 0.04947951 -0.1055694 -9999      -9999      73.63918   -9999      -9999      -9999      -9999      2476.9511 
2477.189   -9999      135.4992544819995 -9999      73.31423   0.01792813 -0.002950911 0.08997123 -0.08125731 -9999      -9999      73.31423   -9999      -9999      -9999      -9999      2477.151  
2477.389   -9999      135.488303076877 -9999      72.70166   0.02191869 0.01437089 0.1254098  0.009442163 -9999      -9999      72.70166   -9999      -9999      -9999      -9999      2477.351  
2477.589   -9999      136.0366861738865 -9999      71.49025   0.007499371 -0.02191829 0.08074212 -0.00178368 -9999      -9999      71.49025   -9999      -9999      -9999      -9999      2477.5509 
2477.789   -9999      136.4414773775837 -9999      70.74412   0.01344833 -0.005702976 0.1100856  0.1148428  -9999      -9999      70.74412   -9999      -9999      -9999      -9999      2477.7508 
2477.989   -9999      136.0140111327485 -9999      71.16339   -0.01020132 -0.06627279 0.02853445 0.08258985 -9999      -9999      71.16339   -9999      -9999      -9999      -9999      2477.9508 
2478.189   -9999      134.4833264688807 -9999      72.47286   -0.02519036 -0.1167688 -0.06259027 -0.03121606 -9999      -9999      72.47286   -9999      -9999      -9999      -9999      2478.1507 
2478.389   -9999      131.9821853036947 -9999      74.04912   -0.01142335 -0.09507062 -0.05561002 -0.02148489 -9999      -9999      74.04912   -9999      -9999      -9999      -9999      2478.3506 
2478.589   -9999      129.1270786796022 -9999      75.36538   -0.005338961 -0.08234769 -0.04571312 0.04455186 -9999      -9999      75.36538   -9999      -9999      -9999      -9999      2478.5506 
2478.789   -9999      126.928865067289 -9999      75.33749   -0.01651185 -0.1138305 -0.09775373 0.03794008 -9999      -9999      75.33749   -9999      -9999      -9999      -9999      2478.7505 
2478.989   -9999      127.1203082828067 -9999      73.42777   -0.01851409 -0.1264125 -0.1306151 0.04753492 -9999      -9999      73.42777   -9999      -9999      -9999      -9999      2478.9504 
2479.189   -9999      129.4740055915231 -9999      71.69682   -0.02562329 -0.154814  -0.1928773 -0.005809312 -9999      -9999      71.69682   -9999      -9999      -9999      -9999      2479.150142782152
2479.389   -9999      132.4924810214351 -9999      70.24944   -0.02210954 -0.1562241 -0.218904  -0.0144191 -9999      -9999      70.24944   -9999      -9999      -9999      -9999      2479.3499 
2479.589   -9999      133.9905218890333 -9999      70.64061   -0.03191823 -0.1906739 -0.2922241 -0.103473  -9999      -9999      70.64061   -9999      -9999      -9999      -9999      2479.549592913386
2479.789   -9999      133.64559956548 -9999      71.16349   -0.02880271 -0.1990674 -0.3406951 -0.2087881 -9999      -9999      71.16349   -9999      -9999      -9999      -9999      2479.7493 
2479.989   -9999      132.5450284061776 -9999      70.4773    -0.01896956 -0.1849383 -0.352441  -0.2802539 -9999      -9999      70.4773    -9999      -9999      -9999      -9999      2479.949  
2480.189   -9999      132.0425507552978 -9999      67.41943   0.000559174 -0.1379642 -0.3024396 -0.2270931 -9999      -9999      67.41943   -9999      -9999      -9999      -9999      2480.1489 
2480.389   -9999      132.3632802487678 -9999      63.97341   -0.001943629 -0.143839  -0.3196822 -0.2523386 -9999      -9999      63.97341   -9999      -9999      -9999      -9999      2480.3489 
2480.589   -9999      132.8789569924822 -9999      63.87035   0.004790637 -0.1283882 -0.3088744 -0.2475187 -9999      -9999      63.87035   -9999      -9999      -9999      -9999      2480.5488 
2480.789   -9999      133.0108296552038 -9999      65.83025   0.0074182  -0.1185822 -0.2976152 -0.222635  -9999      -9999      65.83025   -9999      -9999      -9999      -9999      2480.7487 
2480.989   -9999      132.1103954965989 -9999      68.82677   0.007588818 -0.1183268 -0.3030325 -0.2326572 -9999      -9999      68.82677   -9999      -9999      -9999      -9999      2480.9487 
2481.189   -9999      129.7900527193159 -9999      72.50994   -0.002424363 -0.1454774 -0.3537344 -0.3541244 -9999      -9999      72.50994   -9999      -9999      -9999      -9999      2481.1486 
2481.389   -9999      126.4661262692413 -9999      72.95204   0.004693106 -0.1332866 -0.357243  -0.4604343 -9999      -9999      72.95204   -9999      -9999      -9999      -9999      2481.3485 
2481.589   -9999      123.7623427183299 -9999      69.70234   0.01895168 -0.1021601 -0.3336728 -0.5646385 -9999      -9999      69.70234   -9999      -9999      -9999      -9999      2481.5485 
2481.789   -9999      122.6588883487566 -9999      67.66622   0.04418986 -0.03238991 -0.2384759 -0.5426902 -9999      -9999      67.66622   -9999      -9999      -9999      -9999      2481.7484 
2481.989   -9999      122.7472626693604 -9999      68.09875   0.06105407 0.02627218 -0.1355877 -0.464294  -9999      -9999      68.09875   -9999      -9999      -9999      -9999      2481.9483 
2482.189   -9999      122.8016539045521 -9999      69.09085   0.04204873 -0.005285326 -0.1570391 -0.5561416 -9999      -9999      69.09085   -9999      -9999      -9999      -9999      2482.1483 
2482.389   -9999      122.2612558199656 -9999      68.87457   0.04585099 -0.000575954 -0.1574179 -0.749833  -9999      -9999      68.87457   -9999      -9999      -9999      -9999      2482.3482 
2482.589   -9999      121.334325835461 -9999      68.38689   0.08401197 0.1069046  0.007906387 -0.705833  -9999      -9999      68.38689   -9999      -9999      -9999      -9999      2482.548118897638
2482.789   -9999      119.7266904775851 -9999      67.59773   0.1039987  0.184654   0.1668449  -0.5907246 -9999      -9999      67.59773   -9999      -9999      -9999      -9999      2482.7481 
2482.989   -9999      116.9229574128373 -9999      65.26968   0.09123792 0.1782304  0.209281   -0.6580967 -9999      -9999      65.26968   -9999      -9999      -9999      -9999      2482.948  
2483.189   -9999      113.4747332475358 -9999      61.18785   0.1048278  0.2531968  0.3951694  -0.4236003 -9999      -9999      61.18785   -9999      -9999      -9999      -9999      2483.147944094488
2483.389   -9999      110.9088044053911 -9999      58.09596   0.06887193 0.1964035  0.4010273  -0.3796354 -9999      -9999      58.09596   -9999      -9999      -9999      -9999      2483.3479 
2483.589   -9999      109.6522175546084 -9999      57.15656   0.06161888 0.1985139  0.470302   -0.2596166 -9999      -9999      57.15656   -9999      -9999      -9999      -9999      2483.5478 
2483.789   -9999      108.8327481127157 -9999      57.32101   0.05219712 0.2178309  0.6052806  0.1414233  -9999      -9999      57.32101   -9999      -9999      -9999      -9999      2483.747769291339
2483.989   -9999      107.6443944815887 -9999      57.84593   -0.07096707 -0.06816195 0.2806942  -0.1285172 -9999      -9999      57.84593   -9999      -9999      -9999      -9999      2483.9477 
2484.189   -9999      106.2803123053604 -9999      59.23998   -0.08045603 -0.1240287 0.1879846  -0.2748604 -9999      -9999      59.23998   -9999      -9999      -9999      -9999      2484.1476 
2484.389   -9999      106.2063685139338 -9999      60.12948   -0.05136834 -0.05562043 0.3023014  -0.0180379 -9999      -9999      60.12948   -9999      -9999      -9999      -9999      2484.347594488189
2484.589   -9999      109.0088442905028 -9999      58.29844   -0.1445089 -0.313547  -0.08301495 -0.613189  -9999      -9999      58.29844   -9999      -9999      -9999      -9999      2484.5475 
