~Version
 VERS              .         2.0                           : CWLS LOG ASCII STANDARD - VERSION 2.0
 WRAP              .         NO                            : ONE LINE PER DEPTH STEP
 DLM               .         SPACE                         : DELIMITING CHARACTER(SPACE TAB OR COMMA)
~Well Information
#_______________________________________________________________________________
#
#PARAMETER_NAME    .UNIT     VALUE                         : DESCRIPTION
#_______________________________________________________________________________
STRT               .m        1537                          : First reference value
STOP               .m        5197.8                        : Last reference value
STEP               .m        0.2                           : Step increment
NULL               .         -9999                         : Missing value
COMP               .         PETROLEO BRASILEIRO S/A       : Company
WELL               .         4-ESS-151_resample            : Well name
FLD                .         GOLFINHO                      : Field
LOC                .                                       : Location
CNTY               .                                       : County
STAT               .         ESPIRITO SANTO                : State
CTRY               .                                       : Country
SRVC               .                                       : Service Company
DATE               .                                       : Date
API                .         342710302200                  : API number
EDF                .M        18.00                         : Elevation Derrick Floor
GDAT               .         SIRGAS2000                    : Geodetic Datum
HZCS               .         UTM                           : Horizontal Coordinate System
LMF                .         MR                            : Log Measure From
LATI               .         -19_56_15.689                 : Latitude
LONG               .         -39_25_50.073                 : Longitude
MC                 .         39 W                          : Meridiano Central
ORIG               .         SIGEO EXPORTACAO PERFIL       : Origem dos dados
ORIGINALWELLNAME   .         4ESS 0151  ES                 : 
WDMS               .M        1332.00                       : Water Depth to Mean Sea Level
X                  .         454939.60                     : Surface X
Y                  .         7795340.90                    : Surface Y
~Parameter Information Block
#_______________________________________________________________________________
#
#PARAMETER_NAME    .UNIT     VALUE                         : DESCRIPTION
#_______________________________________________________________________________
SET                .         ESS151_resample               : 
TLFamily_CALI      .         Caliper                       : 
TLFamily_DEPT      .         Measured Depth                : 
TLFamily_DT        .         Compressional Slowness        : 
TLFamily_GR        .         Gamma Ray                     : 
TLFamily_INPEFA_1  .                                       : 
TLFamily_INPEFA_2  .                                       : 
TLFamily_INPEFA_3  .                                       : 
TLFamily_INPEFA_4  .                                       : 
TLFamily_LITO      .                                       : 
TLFamily_LLD       .         Deep Resistivity              : 
TLFamily_NPHI      .         Neutron Porosity              : 
TLFamily_OG        .                                       : 
TLFamily_RHOB      .         Bulk Density                  : 
~Curve Information
#_______________________________________________________________________________
#
#LOGNAME           .UNIT     LOG_ID                        : DESCRIPTION
#_______________________________________________________________________________
DEPT               .m                                      :  
CALI               .in                                     : CALIPER 
DT                 .us/ft                                  : DELTA-T (ALSO CALLED SLOWNESS OR INTERVAL TRANSIT TIME) 
GR                 .gAPI                                   : GAMMA RAY 
INPEFA_1           .                                       :  
INPEFA_2           .                                       :  
INPEFA_3           .                                       :  
INPEFA_4           .                                       :  
LITO               .                                       :  
LLD                .ohm.m                                  : LATEROLOG DEEP RESISTIVITY 
NPHI               .%                                      : THERMAL NEUTRON POROSITY (ORIGINAL RATIO METHOD) IN SELECTED LITHOLOGY 
OG                 .                                       :  
RHOB               .g/cm3                                  : BULK DENSITY 
~Ascii
# ...
2981.8     12.5668    108.2972   73.4801    -0.1891173 -0.03936687 0.1637943  -0.1127508 49         0.6276     26.9494    73.4801    2.2075    
2982       12.55      107.183    76.2281    -0.1695606 -0.02021884 0.1566791  -0.1507705 49         0.7544     26.1022    76.2281    2.2658    
2982.2     12.5498    106.1556   74.924     -0.1627562 -0.02161234 0.141693   -0.1237671 49         0.7924     24.3615    74.924     2.2937    
2982.4     12.5801    105.8651   70.6419    -0.1542394 -0.02253829 0.123264   -0.07461133 49         0.688      23.9432    70.6419    2.2611    
2982.6     12.6572    106.2404   67.4468    -0.1689927 -0.07993635 0.01774116 -0.1533436 49         0.54       25.1653    67.4468    2.1996    
2982.8     12.5872    106.9128   65.6519    -0.1702852 -0.1109428 -0.07232843 -0.311429  49         0.4221     27.7602    65.6519    2.1554    
2983       12.446     107.3324   65.9968    -0.1395807 -0.0473102 -0.001846955 -0.2535488 49         0.3811     29.0487    65.9968    2.1442    
2983.2     12.4322    106.7553   70.5245    -0.14121   -0.06100023 -0.03397186 -0.2580266 49         0.3939     27.9788    70.5245    2.1515    
2983.4     12.4279    105.4845   74.4235    -0.1385687 -0.06853078 -0.0637519 -0.2640211 49         0.4407     26.8155    74.4235    2.1706    
2983.6     12.4401    104.2607   76.177     -0.1412833 -0.09006212 -0.1185951 -0.3267429 49         0.5419     26.7138    76.177     2.1905    
2983.8     12.4213    103.4207   81.5305    -0.1296394 -0.07234988 -0.1139407 -0.3308998 49         0.6733     27.1198    81.5305    2.2119    
2984       12.4085    102.841    91.4144    -0.1266088 -0.0747029 -0.1347172 -0.3540731 49         0.7883     26.9925    91.4144    2.2366    
2984.2     12.4044    102.5915   98.7679    -0.1216013 -0.07512378 -0.157322  -0.3876945 49         0.7693     26.7752    98.7679    2.2371    
2984.4     12.3959    102.9511   96.1223    -0.1132149 -0.06069532 -0.1429032 -0.3368444 49         0.6562     26.8509    96.1223    2.2099    
2984.6     12.3849    104.2406   86.2566    -0.1158837 -0.07999064 -0.185554  -0.3592718 49         0.5386     26.8501    86.2566    2.1868    
2984.8     12.4059    105.6672   79.5251    -0.1054726 -0.06241826 -0.1661518 -0.2936244 49         0.4771     26.4246    79.5251    2.1781    
2985       12.4511    106.1169   75.4908    -0.1078708 -0.08068503 -0.2013587 -0.2868744 49         0.4522     25.8918    75.4908    2.1729    
2985.2     12.5392    105.8199   72.6733    -0.1043371 -0.08595734 -0.2223535 -0.3070604 49         0.454      25.9108    72.6733    2.1769    
2985.4     12.5843    105.5558   71.1051    -0.1006842 -0.08885784 -0.2348148 -0.3343167 49         0.4521     25.7935    71.1051    2.1862    
2985.6     12.6161    106.1727   72.3946    -0.08537582 -0.06268775 -0.2004584 -0.330177  49         0.4447     25.6223    72.3946    2.1875    
2985.8     12.6178    107.0327   74.0711    -0.06577123 -0.007266207 -0.08269762 -0.1409924 49         0.4445     26.0639    74.0711    2.1891    
2986       12.6289    107.6112   70.9293    -0.06299092 0.003524831 -0.02320916 0.02012573 49         0.4579     26.1752    70.9293    2.1957    
2986.2     12.647     107.9054   68.0246    -0.07406531 -0.01471158 0.005825337 0.2027821  49         0.4715     25.6596    68.0246    2.1999    
2986.4     12.5953    106.6436   68.1112    -0.09530271 -0.08375678 -0.08344112 0.1420413  49         0.4817     25.5338    68.1112    2.2012    
2986.6     12.5525    104.4814   69.5148    -0.08267   -0.06067204 -0.03305995 0.2202796  49         0.4839     24.9671    69.5148    2.2046    
2986.8     12.5462    104.0466   69.9097    -0.08436471 -0.08017381 -0.05203634 0.1876498  49         0.4669     24.1333    69.9097    2.214     
2987       12.5326    104.9062   69.5868    -0.07770251 -0.07141704 -0.02033656 0.2058325  49         0.4341     24.6566    69.5868    2.2132    
2987.2     12.5371    105.7336   69.359     -0.06944469 -0.05607804 0.03321494 0.2715436  49         0.407      25.4379    69.359     2.1874    
2987.4     12.493     106.2121   68.507     -0.067391  -0.05518908 0.06803503 0.3337819  49         0.405      25.9105    68.507     2.167     
2987.6     12.4702    106.0892   68.4038    -0.08368935 -0.1099017 0.00358887 0.2135318  49         0.4247     26.149     68.4038    2.1729    
2987.8     12.4631    105.4765   68.4571    -0.07165217 -0.09425723 0.03664531 0.1511679  49         0.4479     25.8302    68.4571    2.187     
2988       12.4586    105.0063   68.9736    -0.06084665 -0.06964298 0.1013898  0.1204379  49         0.4888     25.385     68.9736    2.1987    
2988.2     12.436     104.8561   69.7489    -0.0461394 -0.02222558 0.2224253  0.2075145  49         0.5273     24.9919    69.7489    2.2099    
2988.4     12.4204    104.8345   69.6816    -0.04349783 -0.004080345 0.3055961  0.2980724  49         0.5301     24.8004    69.6816    2.2095    
2988.6     12.4029    105.0555   67.6442    -0.03556188 0.03298847 0.4301138  0.5394464  49         0.4789     25.6498    67.6442    2.1858    
2988.8     12.4005    105.2316   64.4175    -0.07209568 -0.04700445 0.3706807  0.6242498  49         0.425      26.7032    64.4175    2.1544    
2989       12.4131    105.2486   62.9727    -0.09405108 -0.1186398 0.2624278  0.5356881  49         0.4282     27.1233    62.9727    2.1413    
2989.2     12.4159    105.6917   66.6268    -0.0843513 -0.103508  0.2821325  0.6216168  49         0.5008     27.7485    66.6268    2.153     
2989.4     12.4134    106.8602   72.8998    -0.1047629 -0.1767163 0.1405584  0.4466042  49         0.5971     27.7497    72.8998    2.1743    
2989.6     12.3976    107.8813   75.5181    -0.07518096 -0.114163  0.2048     0.5100338  49         0.6234     27.548     75.5181    2.1881    
2989.8     12.4       108.0943   74.0482    -0.07817664 -0.1238683 0.1781126  0.5330009  49         0.5566     27.1652    74.0482    2.1892    
2990       12.4104    107.9884   71.8976    -0.08489125 -0.1533922 0.09704626 0.4555149  49         0.4863     26.3654    71.8976    2.1825    
2990.2     12.4143    107.5301   69.8191    -0.06743247 -0.1203907 0.1089451  0.5009587  49         0.4588     25.6763    69.8191    2.1829    
2990.4     12.4061    106.5656   69.5732    -0.0815662 -0.1660308 -0.001664118 0.3877957  49         0.5236     25.2237    69.5732    2.1969    
2990.6     12.3917    105.6205   72.7882    -0.08035283 -0.1842559 -0.09966175 0.1904464  49         0.6223     25.6862    72.7882    2.2084    
2990.8     12.3767    105.1986   74.072     -0.0575777 -0.1410448 -0.1002975 0.07172308 49         0.6595     26.658     74.072     2.2064    
2991       12.3842    105.4096   71.5473    -0.03780812 -0.08945158 -0.05774469 0.06890297 49         0.5742     27.1511    71.5473    2.1927    
2991.2     12.4097    105.907    68.0419    -0.03733778 -0.09289299 -0.1031184 -0.05866243 49         0.4563     26.4402    68.0419    2.1741    
2991.4     12.4338    106.1056   66.6677    -0.02093341 -0.04892175 -0.06499331 -0.07461372 49         0.4356     25.4389    66.6677    2.1719    
2991.6     12.434     105.3009   67.397     -0.01390707 -0.02918775 -0.05571187 -0.1098063 49         0.5226     25.288     67.397     2.1937    
2991.8     12.4187    103.8125   74.373     -0.01946639 -0.04520025 -0.109098  -0.2848217 49         0.6937     25.7325    74.373     2.2201    
2992       12.3885    102.7517   82.957     -0.000764276 0.001075688 -0.06475481 -0.381644  49         0.7578     26.6238    82.957     2.228     
2992.2     12.4009    102.582    84.9373    0.02295552 0.0759447  0.06035293 -0.3032576 49         0.6588     26.5052    84.9373    2.2145    
2992.4     12.4189    103.2537   83.6387    0.0151747  0.07238056 0.08094291 -0.3064998 49         0.5388     25.3086    83.6387    2.2053    
2992.6     12.4397    104.9753   78.2939    0.007708336 0.05924816 0.07361912 -0.3796956 49         0.5045     25.0706    78.2939    2.213     
2992.8     12.4526    106.775    73.4156    0.02398831 0.1059856  0.1618736  -0.3202753 49         0.5002     25.0207    73.4156    2.2163    
