~Version
 VERS              .         2.0                           : CWLS LOG ASCII STANDARD - VERSION 2.0
 WRAP              .         NO                            : ONE LINE PER DEPTH STEP
 DLM               .         SPACE                         : DELIMITING CHARACTER(SPACE TAB OR COMMA)
~Well Information
#_______________________________________________________________________________
#
#PARAMETER_NAME    .UNIT     VALUE                         : DESCRIPTION
#_______________________________________________________________________________
STRT               .m        2424.989                      : First reference value
STOP               .m        5587.189                      : Last reference value
STEP               .m        0.2                           : Step increment
NULL               .         -9999                         : Missing value
COMP               .         PETROLEO BRASILEIRO S/A       : Company
WELL               .         4ESS 0138  ES                 : Well name
FLD                .         CANAPU                        : Field
LOC                .                                       : Location
CNTY               .                                       : County
STAT               .         ESPIRITO SANTO                : State
CTRY               .                                       : Country
SRVC               .                                       : Service Company
DATE               .                                       : Date
API                .         342710293200                  : API number
EDF                .M        18.00                         : Elevation Derrick Floor
GDAT               .         SIRGAS2000                    : Geodetic Datum
HZCS               .         UTM                           : Horizontal Coordinate System
LAT                .         -20.018293                    : Latitude
LONG               .         -39.316753                    : Longitude
MC                 .         39 W                          : Meridiano Central
ORIG               .         SIGEO EXPORTACAO PERFIL       : Origem dos dados
WDMS               .M        1614.00                       : Water Depth to Mean Sea Level
XCOORD             .         466869.60                     : Surface X
YCOORD             .         7786462.90                    : Surface Y
~Parameter Information Block
#_______________________________________________________________________________
#
#PARAMETER_NAME    .UNIT     VALUE                         : DESCRIPTION
#_______________________________________________________________________________
SET                .         ESS138_resample               : 
TLFamily_CALI      .         Caliper                       : 
TLFamily_DEPT      .         Measured Depth                : 
TLFamily_DT        .         Compressional Slowness        : 
TLFamily_DTS       .         Compressional Slowness        : 
TLFamily_GR        .         Gamma Ray                     : 
TLFamily_INPEFA_1  .                                       : 
TLFamily_INPEFA_2  .                                       : 
TLFamily_INPEFA_3  .                                       : 
TLFamily_INPEFA_4  .                                       : 
TLFamily_LITO      .                                       : 
TLFamily_NPHI      .         Neutron Porosity              : 
TLFamily_OG        .                                       : 
TLFamily_RESD      .         Deep Resistivity              : 
TLFamily_RESM      .         Medium Resistivity            : 
TLFamily_RESS      .         Shallow Resistivity           : 
TLFamily_RHOB      .         Bulk Density                  : 
TLFamily_TVD       .         True Vertical Depth           : 
~Curve Information
#_______________________________________________________________________________
#
#LOGNAME           .UNIT     LOG_ID                        : DESCRIPTION
#_______________________________________________________________________________
DEPT               .m                                      :  
CALI               .in                                     :  
DT                 .us/ft                                  :  
DTS                .us/ft                                  :  
GR                 .gAPI                                   : GAMMA RAY 
INPEFA_1           .                                       :  
INPEFA_2           .                                       :  
INPEFA_3           .                                       :  
INPEFA_4           .                                       :  
LITO               .Sem                                    : Não definido 
NPHI               .%                                      : THERMAL NEUTRON POROSITY (ORIGINAL RATIO METHOD) IN SELECTED LITHOLOGY 
OG                 .                                       :  
RESD               .ohm.m                                  :  
RESM               .ohm.m                                  :  
RESS               .ohm.m                                  :  
RHOB               .g/cm3                                  :  
TVD                .                                       : Vertical Depth 
~Ascii
# ...
3504.789   12.21793   95.2456184647488 210.9776   120.4418   0.1300727  0.1913475  -0.13886   -0.4144937 49         33.52528   120.4418   0.2004894926295655 0.1910922242955212 0.3542010191308507 2.185733   3504.277279265092
3504.989   12.22622   96.93751952404153 222.3523   118.2998   0.1772048  0.2980849  -0.005959168 -0.2960344 49         25.29096   118.2998   0.2081836996964916 0.1877543284057827 0.322255148507188 2.224098   3504.4772 
3505.189   12.22608   97.06825270364901 234.4053   116.3264   0.1686014  0.2868845  -0.001151755 -0.2790646 49         26.09881   116.3264   0.2158579684394908 0.1910349971134218 0.2651153218096699 2.140316   3504.6771 
3505.389   12.21696   96.96020343610371 245.5213   115.7088   0.1987096  0.3639463  0.1243455  -0.06226664 49         30.1727    115.7088   0.2165505763463973 0.1927089182312463 0.2445149048136666 2.161348   3504.877  
3505.589   12.23589   98.1531415924304 255.0202   114.5097   0.1765614  0.3270117  0.1171394  0.03986879 49         31.80952   114.5097   0.1957076511616447 0.1882094591952153 0.2580126833623594 2.187693   3505.0769 
3505.789   12.18499   100.7038825728432 262.221    111.3291   0.169723   0.3236915  0.1556867  0.2689194  49         30.71541   111.3291   0.1774231256168181 0.1781347609478604 0.270270584823079 2.175013   3505.276854593176
3505.989   12.20055   104.0876080170068 267.221    107.4938   0.1245061  0.2030725  0.002614578 0.177365   49         37.4032    107.4938   0.1753550491187663 0.1687664355073341 0.2662095630005286 2.089664   3505.4768 
3506.189   12.25279   107.3908407256424 271.6656   104.415    0.1300272  0.2120065  0.02199636 0.3109264  49         34.64779   104.415    0.1664219277199094 0.1649188803154578 0.2548847463729849 2.053999   3505.6767 
3506.389   12.26894   109.4968284947358 274.8448   101.6334   0.09547565 0.1148676  -0.1094526 0.2535144  49         35.72726   101.6334   0.1592988228913929 0.1600567531587069 0.2499191070835275 2.060944   3505.8766 
3506.589   12.25272   109.6050762867372 274.0806   101.1492   0.09182417 0.07826262 -0.1862543 0.2005314  49         36.93084   101.1492   0.1566365377554436 0.159400001168251 0.2522608343411739 2.062922   3506.0765 
3506.789   12.26506   107.9732943557407 268.9593   102.4633   0.1071842  0.08860672 -0.1986254 0.2007738  49         35.31645   102.4633   0.1714991177528404 0.1633084038482721 0.2564903607662875 2.060358   3506.2764 
3506.989   12.26953   105.7795538914772 262.577    102.9856   0.0873026  0.03502019 -0.2778196 0.1165694  49         36.52411   102.9856   0.1867188134775742 0.1764643607961776 0.2583950060464546 2.072426   3506.476400000001
3507.189   12.24744   103.9505913001015 256.9976   104.2104   0.09957248 0.03312586 -0.3223499 -0.04670046 57         31.17282   104.2104   0.2053181653670936 0.189798272259519 0.2555382084089215 2.110997   3506.676300000001
3507.389   12.24321   102.9632049920987 251.8553   105.488    0.1290314  0.09721476 -0.2578861 -0.09221064 57         29.24558   105.488    0.2118897360608731 0.1982505098047257 0.274658899471635 2.11369    3506.8762 
3507.589   12.30279   102.5126180773958 245.5031   110.4016   0.1450158  0.1365744  -0.2108357 -0.1496489 57         36.04951   110.4016   0.2225461511699064 0.2338997497083696 0.3385770184472195 2.225075   3507.0761 
3507.789   12.33521   102.2965324782328 237.9428   118.1053   0.2034065  0.2894516  0.01033337 0.07833925 57         38.63945   118.1053   0.2906374555685028 0.2869824860118248 0.4470953793969134 2.314995   3507.275999999999
3507.989   12.30046   102.4717267854949 231.7505   118.0784   0.2076789  0.3275001  0.1030489  0.1972905  57         40.20858   118.0784   0.3938176665303964 0.3942922844727251 0.6010689526993274 2.343741   3507.4759 
3508.189   12.32237   103.040743610053 229.5678   112.1346   0.1818533  0.3209136  0.1801022  0.4803949  57         38.38908   112.1346   0.4976224268293473 0.4807039242165072 0.6631174586937865 2.376627   3507.6759 
3508.389   12.31753   103.5661347156437 232.2165   105.9045   0.1209223  0.174554   -0.000733782 0.2585862  57         41.33889   105.9045   0.3761872324532175 0.3661821939878197 0.5694193891832903 2.224634   3507.8758 
3508.589   12.32679   103.5823037455403 238.8537   104.2929   0.08135624 0.07500905 -0.1585608 -0.08945316 57         35.6659    104.2929   0.2812565872657827 0.2864406023177451 0.4456692488287006 2.14057    3508.0757 
3508.789   12.38443   103.2485676162201 244.5926   108.6007   0.1220168  0.1600039  -0.07811557 -0.2033232 57         34.0919    108.6007   0.2898656513795956 0.2797740652601444 0.4334479957893513 2.142179   3508.2756 
3508.989   12.41854   102.9051963425684 242.5461   116.2846   0.1444972  0.2137716  -0.03467499 -0.4408439 57         32.56951   116.2846   0.4915653182647721 0.435171190909491 0.5696175798828873 2.251076   3508.4755 
3509.189   12.45315   102.5927284420938 229.3904   121.6953   0.2198889  0.4386283  0.3119653  -0.09216668 49         34.99263   121.6953   0.6570146316709012 0.5828580843576516 0.7762304942650669 2.353029   3508.6755 
3509.389   12.26506   102.1878081394303 215.0529   124.693    0.1744588  0.3635021  0.2573743  -0.2615938 49         38.59407   124.693    0.6270391660275847 0.6280713425800436 0.9276273552528882 2.388585   3508.8754 
3509.589   12.22386   101.4804739363871 209.4418   125.7659   0.1934117  0.4617376  0.4614981  0.01380564 49         43.59516   125.7659   0.6010737079537152 0.6693360723139494 0.9875086641157549 2.340583   3509.0753 
3509.789   12.18695   100.2535917627546 210.3436   121.7011   0.1609957  0.4063548  0.4366924  -0.0257712 49         51.90854   121.7011   0.5769316968172523 0.645026852869373 0.9339890792276708 2.37462    3509.2752 
3509.989   12.17921   98.76020496598568 206.7002   117.9387   0.1484696  0.4161     0.5074273  0.07784443 57         45.76016   117.9387   0.4819170181080897 0.5088670607854584 0.7450509226363793 2.361856   3509.4751 
3510.189   12.17348   96.81408256870805 195.4444   114.7499   0.107367   0.3380956  0.4456676  0.002329228 57         40.28948   114.7499   0.415771678111322 0.4194489912392042 0.527659012277819 2.326874   3509.6751 
3510.389   12.17726   93.28423477533136 181.019    108.2014   0.09881411 0.3326781  0.4640283  -0.01072327 57         29.30158   108.2014   0.2825686819101466 0.2972257785705341 0.4234162163763779 2.231282   3509.875  
3510.589   12.19059   87.5961071625146 173.0648   100.1488   0.08279204 0.3025096  0.4385093  -0.1324568 57         31.56397   100.1488   0.5123111940334431 0.4654872322873326 0.4992557191485103 2.17905    3510.0749 
3510.789   12.19016   82.65469446458288 176.2199   90.24503   0.1007793  0.3722837  0.5737985  0.04038413 57         27.50257   90.24503   0.5368961561466374 0.512958626209993 0.6551384253712146 2.18791    3510.2748 
3510.989   12.1945    81.83108941025635 187.952    82.79826   0.08296103 0.3597422  0.616723   0.1842953  57         24.37565   82.79826   0.4979166870910013 0.5635927097666557 0.801317311387737 2.391921   3510.4747 
3511.189   12.18505   86.59105954709409 200.7456   88.19299   0.04793619 0.3053533  0.6032367  0.3069381  49         16.44407   88.19299   0.5254079795493593 0.5873464941638408 0.8189895499366693 2.426566   3510.67468136483
3511.389   12.18988   93.20763865793887 208.3084   104.473    -0.01231104 0.1611307  0.4275854  0.1300131  49         23.64895   104.473    0.5499224936025402 0.5938564460364038 0.7730423262720949 2.446244   3510.8746 
3511.589   12.17157   98.78262359138283 208.9644   122.1195   -0.01528911 0.15401    0.4253783  0.1501744  49         25.65185   122.1195   0.55025744842034 0.5879034765088822 0.7659533942545049 2.421925   3511.0745 
3511.789   12.17683   101.8617055897945 206.59     126.1672   -0.04590492 0.08874287 0.357814   0.1200058  49         35.82311   126.1672   0.4609551212092102 0.4984531385272881 0.7082675888581618 2.406763   3511.2744 
3511.989   12.18546   103.0201659715708 210.2067   115.1497   -0.04112727 0.07600725 0.3080638  -0.06096348 58         37.99203   115.1497   0.3693792345766794 0.4132896964095383 0.5916714672016803 2.397166   3511.4743 
