~Version
 VERS              .         2.0                           : CWLS LOG ASCII STANDARD - VERSION 2.0
 WRAP              .         NO                            : ONE LINE PER DEPTH STEP
 DLM               .         SPACE                         : DELIMITING CHARACTER(SPACE TAB OR COMMA)
~Well Information
#_______________________________________________________________________________
#
#PARAMETER_NAME    .UNIT     VALUE                         : DESCRIPTION
#_______________________________________________________________________________
STRT               .m        1537                          : First reference value
STOP               .m        5197.8                        : Last reference value
STEP               .m        0.2                           : Step increment
NULL               .         -9999                         : Missing value
COMP               .         PETROLEO BRASILEIRO S/A       : Company
WELL               .         4-ESS-151_resample            : Well name
FLD                .         GOLFINHO                      : Field
LOC                .                                       : Location
CNTY               .                                       : County
STAT               .         ESPIRITO SANTO                : State
CTRY               .                                       : Country
SRVC               .                                       : Service Company
DATE               .                                       : Date
API                .         342710302200                  : API number
EDF                .M        18.00                         : Elevation Derrick Floor
GDAT               .         SIRGAS2000                    : Geodetic Datum
HZCS               .         UTM                           : Horizontal Coordinate System
LMF                .         MR                            : Log Measure From
LATI               .         -19_56_15.689                 : Latitude
LONG               .         -39_25_50.073                 : Longitude
MC                 .         39 W                          : Meridiano Central
ORIG               .         SIGEO EXPORTACAO PERFIL       : Origem dos dados
ORIGINALWELLNAME   .         4ESS 0151  ES                 : 
WDMS               .M        1332.00                       : Water Depth to Mean Sea Level
X                  .         454939.60                     : Surface X
Y                  .         7795340.90                    : Surface Y
~Parameter Information Block
#_______________________________________________________________________________
#
#PARAMETER_NAME    .UNIT     VALUE                         : DESCRIPTION
#_______________________________________________________________________________
SET                .         ESS151_resample               : 
TLFamily_CALI      .         Caliper                       : 
TLFamily_DEPT      .         Measured Depth                : 
TLFamily_DT        .         Compressional Slowness        : 
TLFamily_GR        .         Gamma Ray                     : 
TLFamily_INPEFA_1  .                                       : 
TLFamily_INPEFA_2  .                                       : 
TLFamily_INPEFA_3  .                                       : 
TLFamily_INPEFA_4  .                                       : 
TLFamily_LITO      .                                       : 
TLFamily_LLD       .         Deep Resistivity              : 
TLFamily_NPHI      .         Neutron Porosity              : 
TLFamily_OG        .                                       : 
TLFamily_RHOB      .         Bulk Density                  : 
~Curve Information
#_______________________________________________________________________________
#
#LOGNAME           .UNIT     LOG_ID                        : DESCRIPTION
#_______________________________________________________________________________
DEPT               .m                                      :  
CALI               .in                                     : CALIPER 
DT                 .us/ft                                  : DELTA-T (ALSO CALLED SLOWNESS OR INTERVAL TRANSIT TIME) 
GR                 .gAPI                                   : GAMMA RAY 
INPEFA_1           .                                       :  
INPEFA_2           .                                       :  
INPEFA_3           .                                       :  
INPEFA_4           .                                       :  
LITO               .                                       :  
LLD                .ohm.m                                  : LATEROLOG DEEP RESISTIVITY 
NPHI               .%                                      : THERMAL NEUTRON POROSITY (ORIGINAL RATIO METHOD) IN SELECTED LITHOLOGY 
OG                 .                                       :  
RHOB               .g/cm3                                  : BULK DENSITY 
~Ascii
# ...
3900.2     14.4818    99.6581    88.5951    -0.03162811 -0.2454952 0.06499568 0.4582862  57         1.2419     43.9007    88.5951    2.0942    
3900.4     14.1701    101.3896   91.2787    -0.01547364 -0.2625592 0.005551948 0.3607269  57         1.266      46.4644    91.2787    2.0771    
3900.6     13.9967    102.5108   92.6678    -0.00166515 -0.2616815 -0.002436612 0.354816   57         1.2086     44.838     92.6678    2.0262    
3900.8     13.9251    102.1993   90.6761    0.01323238 -0.2467535 0.01928936 0.4056125  57         1.1183     45.0855    90.6761    2.0185    
3901       13.3079    99.8323    89.6408    0.03246371 -0.2139061 0.0687682  0.5172289  57         1.1279     43.5887    89.6408    2.0879    
3901.2     12.9562    95.0123    89.6779    0.02081291 -0.2481516 0.0271103  0.6156405  57         1.3118     41.4071    89.6779    2.1919    
3901.4     12.4694    89.702     88.5098    0.001623719 -0.3353549 -0.1650788 0.3850751  57         1.6064     37.2815    88.5098    2.3366    
3901.6     12.3657    87.5712    87.7405    0.02782127 -0.2960372 -0.1734992 0.325047   57         1.8862     30.231     87.7405    2.4138    
3901.8     12.4469    93.4072    87.3777    0.04590075 -0.2817552 -0.2344522 0.1242044  57         1.8241     30.1414    87.3777    2.3606    
3902       12.4552    104.339    87.8482    0.08366837 -0.1925357 -0.1544596 0.1124782  57         1.5375     33.2821    87.8482    2.2782    
3902.2     12.502     110.2927   93.7166    0.1109824  -0.1293985 -0.1070862 0.0613531  57         1.2883     36.9216    93.7166    2.2094    
3902.4     12.5854    111.0913   101.3303   0.123423   -0.08807445 -0.07439096 -0.005399201 57         1.2002     38.7597    101.3303   2.1551    
3902.6     12.6744    109.424    105.8635   0.1394223  -0.03800046 -0.02544132 -0.1317121 57         1.2232     36.7386    105.8635   2.1512    
3902.8     12.61      105.9924   107.3433   0.1615572  0.03705268 0.07975943 -0.2003654 57         1.3418     35.5063    107.3433   2.1875    
3903       12.5239    101.7482   108.1217   0.1799092  0.1141416  0.2194801  -0.1981976 57         1.5277     35.7253    108.1217   2.2085    
3903.2     12.412     98.7301    110.4823   0.1950957  0.1960144  0.4064755  -0.03537581 57         1.7432     34.5287    110.4823   2.1945    
3903.4     12.3304    97.352     107.2886   0.1776783  0.2066824  0.528257   0.2362704  57         1.8896     32.4763    107.2886   2.1875    
3903.6     12.2694    96.7067    98.3829    0.1122883  0.06535318 0.3805242  0.1611753  57         1.9867     31.4135    98.3829    2.233     
3903.8     12.3564    96.5573    89.3339    0.08487613 0.001949851 0.3111916  0.1191973  57         1.9426     31.4365    89.3339    2.2589    
3904       12.3269    96.2833    82.0944    0.08659668 0.003702698 0.3298691  0.197991   49         1.7506     31.5815    82.0944    2.1731    
3904.2     12.5444    94.4048    81.8887    0.06354358 -0.06275305 0.2275223  0.06050755 49         1.4287     32.0428    81.8887    2.0913    
3904.4     12.1578    91.0039    86.7494    0.06203248 -0.066424  0.2283784  0.04040481 49         1.1558     32.0166    86.7494    2.1463    
3904.6     12.0144    84.8286    86.7584    0.0540213  -0.09481909 0.1808407  -0.07748625 49         0.9822     25.8715    86.7584    2.2548    
3904.8     11.9448    75.585     79.868     0.06007833 -0.08194873 0.2027041  -0.1362526 49         0.9599     18.2347    79.868     2.3168    
3905       11.9335    71.7544    70.7654    0.06177461 -0.07565743 0.228051   -0.1869064 49         0.9975     15.2037    70.7654    2.3362    
3905.2     11.9549    73.265     63.2142    0.06995717 -0.05016987 0.2946983  -0.1404497 49         1.0773     14.0253    63.2142    2.3342    
3905.4     12.0188    75.7127    61.6797    0.07370616 -0.02408094 0.3955802  0.05116894 49         1.1282     13.7854    61.6797    2.3353    
3905.6     12.0652    78.2404    64.2727    0.04088806 -0.09481942 0.3547941  0.1504499  49         1.1305     14.1472    64.2727    2.3481    
3905.8     12.0392    82.7735    65.9573    0.02339708 -0.1534919 0.2893317  0.1399404  49         1.0869     14.8287    65.9573    2.3475    
3906       12.0118    89.9022    66.4516    0.01401297 -0.1828246 0.2788744  0.2105191  49         1.0398     15.7875    66.4516    2.3326    
3906.2     12.0011    94.9611    67.9125    0.000696843 -0.2359349 0.2123816  0.1705181  49         1.0328     17.0397    67.9125    2.3254    
3906.4     12.0404    99.0755    75.3202    0.01855683 -0.1913225 0.3226516  0.4377539  49         1.1313     19.6097    75.3202    2.3087    
3906.6     12.167     104.0992   92.2671    -0.01343519 -0.2757769 0.2392961  0.5289521  57         1.3671     23.6781    92.2671    2.2427    
3906.8     12.6314    107.4703   107.9533   -0.03222092 -0.3456458 0.1355565  0.5284486  57         1.7484     28.3216    107.9533   2.1646    
3907       12.7743    108.1923   111.1223   -0.04989916 -0.4172435 0.002066048 0.4004896  57         2.1356     31.8457    111.1223   2.1443    
3907.2     12.3566    108.1572   108.2495   -0.05444042 -0.4582515 -0.1100585 0.1899241  57         2.1856     33.5766    108.2495   2.1765    
3907.4     12.9579    107.7035   104.9761   -0.01984705 -0.4003792 -0.08866365 0.04790609 57         1.9825     35.125     104.9761   2.2125    
3907.6     13.5827    106.3016   102.1607   0.01437728 -0.3063163 0.04658471 0.1823378  57         1.7769     36.3841    102.1607   2.1962    
3907.8     13.9473    104.8445   99.3344    -0.001071644 -0.3489693 -0.03531011 0.09486445 57         1.6704     38.3401    99.3344    2.1023    
3908       13.6006    103.645    96.486     0.004512679 -0.3441567 -0.06077527 0.06811135 57         1.6002     39.0965    96.486     2.034     
3908.2     13.5835    102.1857   93.3894    0.0240032  -0.2967537 -0.006268988 0.2254469  57         1.5509     40.0248    93.3894    2.0965    
3908.4     13.9612    101.0426   91.6115    -0.009312379 -0.3916894 -0.1893977 0.05257948 57         1.5353     41.5737    91.6115    2.1988    
3908.6     13.9363    101.1149   96.239     0.007795042 -0.3645062 -0.2114495 0.002976979 57         1.5195     42.4211    96.239     2.2165    
3908.8     14.3216    101.5966   102.6951   0.01166965 -0.3706474 -0.291942  -0.1601123 57         1.5679     42.018     102.6951   2.1766    
3909       14.2111    101.4376   105.9761   0.03107183 -0.333505  -0.3086013 -0.2684921 57         1.6152     42.5908    105.9761   2.1781    
3909.2     13.9423    101.4868   105.9016   0.05663123 -0.2732947 -0.2711014 -0.2518777 57         1.6214     41.6182    105.9016   2.2122    
3909.4     13.6394    101.6514   101.9916   0.0558462  -0.2809187 -0.3361368 -0.3514106 57         1.5455     41.1165    101.9916   2.1553    
3909.6     13.6914    100.8365   102.0318   0.06894195 -0.2595279 -0.3699578 -0.4551311 57         1.4186     43.2124    102.0318   2.0122    
3909.8     13.9421    97.4052    105.8383   0.09212376 -0.2042275 -0.3376837 -0.4540419 57         1.39       44.3499    105.8383   1.9978    
3910       13.3325    92.9826    108.3804   0.1059461  -0.1685523 -0.3237935 -0.4284467 57         1.3307     41.6796    108.3804   2.1263    
3910.2     12.6368    90.8352    106.9569   0.1036675  -0.1865    -0.4106594 -0.5803503 57         1.1059     36.5847    106.9569   2.1742    
3910.4     12.6471    91.1129    97.1607    0.1374517  -0.09966598 -0.313797  -0.5488626 57         0.8644     33.4447    97.1607    2.138     
3910.6     12.2584    92.2351    84.7377    0.1488283  -0.05700717 -0.2576772 -0.5294949 49         0.7441     27.9501    84.7377    2.174     
3910.8     12.0784    93.3191    81.1742    0.1638744  -0.004383138 -0.1827594 -0.5699497 49         0.73       20.4527    81.1742    2.2776    
3911       11.9936    97.4005    83.8457    0.1801591  0.07306452 -0.03009819 -0.4679776 49         0.6836     18.4271    83.8457    2.3435    
3911.2     12.0517    102.0472   84.1603    0.176367   0.09900223 0.05633565 -0.4273235 49         0.5689     20.2266    84.1603    2.3221    
