~Version
 VERS              .         2.0                           : CWLS LOG ASCII STANDARD - VERSION 2.0
 WRAP              .         NO                            : ONE LINE PER DEPTH STEP
 DLM               .         SPACE                         : DELIMITING CHARACTER(SPACE TAB OR COMMA)
~Well Information
#_______________________________________________________________________________
#
#PARAMETER_NAME    .UNIT     VALUE                         : DESCRIPTION
#_______________________________________________________________________________
STRT               .m        1542                          : First reference value
STOP               .m        5640.8                        : Last reference value
STEP               .m        0.2                           : Step increment
NULL               .         -9999                         : Missing value
COMP               .         PETROLEO BRASILEIRO S/A       : Company
WELL               .         4-ESS-174A_resample           : Well name
FLD                .         GOLFINHO                      : Field
LOC                .                                       : Location
CNTY               .                                       : County
STAT               .         ESPIRITO SANTO                : State
CTRY               .                                       : Country
SRVC               .                                       : Service Company
DATE               .                                       : Date
API                .         342710322400                  : API number
EDF                .M        19.00                         : Elevation Derrick Floor
GDAT               .         SIRGAS2000                    : Geodetic Datum
HZCS               .         UTM                           : Horizontal Coordinate System
LMF                .         MR                            : Log Measure From
LATI               .         -19_56_54.869                 : Latitude
LONG               .         -39_29_58.132                 : Longitude
MC                 .         39 W                          : Meridiano Central
ORIG               .         SIGEO EXPORTACAO PERFIL       : Origem dos dados
ORIGINALWELLNAME   .         4ESS 0174A ES                 : 
WDMS               .M        1199.00                       : Water Depth to Mean Sea Level
X                  .         447729.60                     : Surface X
Y                  .         7794048.90                    : Surface Y
~Parameter Information Block
#_______________________________________________________________________________
#
#PARAMETER_NAME    .UNIT     VALUE                         : DESCRIPTION
#_______________________________________________________________________________
SET                .         ESS174A_resample              : 
TLFamily_CALI      .         Caliper                       : 
TLFamily_DEPT      .         Measured Depth                : 
TLFamily_DT        .         Compressional Slowness        : 
TLFamily_GR        .         Gamma Ray                     : 
TLFamily_INPEFA_1  .                                       : 
TLFamily_INPEFA_2  .                                       : 
TLFamily_INPEFA_3  .                                       : 
TLFamily_INPEFA_4  .                                       : 
TLFamily_LITO      .                                       : 
TLFamily_LLD       .         Deep Resistivity              : 
TLFamily_NPHI      .         Neutron Porosity              : 
TLFamily_OG        .                                       : 
TLFamily_RHOB      .         Bulk Density                  : 
~Curve Information
#_______________________________________________________________________________
#
#LOGNAME           .UNIT     LOG_ID                        : DESCRIPTION
#_______________________________________________________________________________
DEPT               .m                                      :  
CALI               .in                                     : CALIPER 
DT                 .us/ft                                  : DELTA-T (ALSO CALLED SLOWNESS OR INTERVAL TRANSIT TIME) 
GR                 .gAPI                                   : GAMMA RAY 
INPEFA_1           .                                       :  
INPEFA_2           .                                       :  
INPEFA_3           .                                       :  
INPEFA_4           .                                       :  
LITO               .                                       :  
LLD                .ohm.m                                  : LATEROLOG DEEP RESISTIVITY 
NPHI               .%                                      : THERMAL NEUTRON POROSITY (ORIGINAL RATIO METHOD) IN SELECTED LITHOLOGY 
OG                 .                                       :  
RHOB               .g/cm3                                  : BULK DENSITY 
~Ascii
1542.0     -9999      -9999      79.7754    0.06521726 0.06374392 0.1149613  0.06542419 -9         -9999      -9999      79.7754    -9999     
1542.2     -9999      -9999      79.8695    0.07089828 0.07817264 0.1482775  0.145351   -9         -9999      -9999      79.8695    -9999     
1542.4     -9999      -9999      77.7494    0.06439642 0.06367282 0.1240286  0.1285976  -9         -9999      -9999      77.7494    -9999     
1542.6     -9999      -9999      76.9621    0.055579   0.04148549 0.07662886 0.04249178 -9         -9999      -9999      76.9621    -9999     
1542.8     -9999      -9999      78.0332    0.06385379 0.05441777 0.0951903  0.06056061 -9         -9999      -9999      78.0332    -9999     
1543       -9999      -9999      78.7372    0.05545604 0.03633141 0.05890082 -0.004685616 -9         -9999      -9999      78.7372    -9999     
1543.2     -9999      -9999      80.5697    0.04490154 0.006392798 -0.01277109 -0.174968  -9         -9999      -9999      80.5697    -9999     
1543.4     -9999      -9999      84.0557    0.05015216 0.01123941 -0.02024349 -0.2596319 -9         -9999      -9999      84.0557    -9999     
1543.6     -9999      -9999      85.0198    0.07086349 0.0502019  0.04050633 -0.2246314 -9         -9999      -9999      85.0198    -9999     
1543.8     -9999      -9999      83.5666    0.07841306 0.07070514 0.08293635 -0.1702845 -9         -9999      -9999      83.5666    -9999     
1544       -9999      -9999      84.2751    0.0849613  0.08403282 0.1060527  -0.154178  -9         -9999      -9999      84.2751    -9999     
1544.2     -9999      -9999      84.655     0.07725472 0.07204809 0.09124991 -0.1701193 -9         -9999      -9999      84.655     -9999     
1544.4     -9999      -9999      81.7826    0.06884883 0.04942685 0.03730759 -0.3048118 -9         -9999      -9999      81.7826    -9999     
1544.6     -9999      -9999      79.2067    0.06881617 0.04665923 0.0246964  -0.3735719 -9         -9999      -9999      79.2067    -9999     
1544.8     -9999      -9999      80.9077    0.09163714 0.09397104 0.1073046  -0.2790849 -9         -9999      -9999      80.9077    -9999     
1545       -9999      -9999      82.3758    0.08285269 0.08067971 0.08962173 -0.3076634 -9         -9999      -9999      82.3758    -9999     
1545.2     -9999      -9999      81.3994    0.08988336 0.09350158 0.109823   -0.2966242 -9         -9999      -9999      81.3994    -9999     
1545.4     -9999      -9999      82.4076    0.08576996 0.08686167 0.09875824 -0.3257235 -9         -9999      -9999      82.4076    -9999     
1545.6     -9999      -9999      86.5949    0.08649012 0.08712664 0.0948776  -0.3574976 -9         -9999      -9999      86.5949    -9999     
1545.8     -9999      -9999      88.4827    0.09826458 0.1141888  0.1478267  -0.2749953 -9         -9999      -9999      88.4827    -9999     
1546       -9999      -9999      89.1426    0.08817065 0.09494329 0.1150083  -0.3244037 -9         -9999      -9999      89.1426    -9999     
1546.2     -9999      -9999      91.8072    0.08355036 0.08183903 0.08203938 -0.412958  -9         -9999      -9999      91.8072    -9999     
1546.4     -9999      -9999      92.7521    0.1081623  0.1372004  0.1898573  -0.2326674 -9         -9999      -9999      92.7521    -9999     
1546.6     -9999      -9999      86.7419    0.08691518 0.09478896 0.1153898  -0.336282  -9         -9999      -9999      86.7419    -9999     
1546.8     -9999      -9999      79.8007    0.08316761 0.08175205 0.07865869 -0.4383187 -9         -9999      -9999      79.8007    -9999     
1547       -9999      -9999      76.5635    0.1023955  0.1225477  0.1526616  -0.3326279 -9         -9999      -9999      76.5635    -9999     
1547.2     -9999      -9999      79.6787    0.09318219 0.1062045  0.1266522  -0.3623862 -9         -9999      -9999      79.6787    -9999     
1547.4     -9999      -9999      85.4215    0.09895087 0.1166387  0.142422   -0.3471137 -9         -9999      -9999      85.4215    -9999     
1547.6     -9999      -9999      89.6054    0.095295   0.11018    0.1310518  -0.3669194 -9         -9999      -9999      89.6054    -9999     
1547.8     -9999      -9999      85.7446    0.1036168  0.1272982  0.1617378  -0.32046   -9         -9999      -9999      85.7446    -9999     
1548       -9999      -9999      82.2911    0.1064094  0.1371351  0.1874279  -0.2555756 -9         -9999      -9999      82.2911    -9999     
1548.2     -9999      -9999      82.5215    0.09593515 0.1140735  0.1430874  -0.3277175 -9         -9999      -9999      82.5215    -9999     
1548.4     -9999      -9999      84.2996    0.1101099  0.1451881  0.2023548  -0.2284316 -9         -9999      -9999      84.2996    -9999     
1548.6     -9999      -9999      85.8139    0.1004316  0.1265062  0.1712351  -0.2626168 -9         -9999      -9999      85.8139    -9999     
1548.8     -9999      -9999      84.8973    0.1031626  0.1306243  0.1752729  -0.2654597 -9         -9999      -9999      84.8973    -9999     
1549       -9999      -9999      85.2735    0.110427   0.1490053  0.2149131  -0.1837944 -9         -9999      -9999      85.2735    -9999     
1549.2     -9999      -9999      88.2316    0.1005744  0.1274955  0.1737181  -0.2473692 -9         -9999      -9999      88.2316    -9999     
1549.4     -9999      -9999      85.9944    0.112344   0.151389   0.2161257  -0.1843709 -9         -9999      -9999      85.9944    -9999     
1549.6     -9999      -9999      85.4328    0.1288144  0.1918327  0.3041279  0.003114981 -9         -9999      -9999      85.4328    -9999     
1549.8     -9999      -9999      89.7529    0.1331081  0.2072385  0.3495054  0.1500278  -9         -9999      -9999      89.7529    -9999     
1550       -9999      -9999      89.117     0.1335218  0.2146854  0.3819149  0.2922213  -9         -9999      -9999      89.117     -9999     
1550.2     -9999      -9999      86.8701    0.1269046  0.2117725  0.4055831  0.4688277  -9         -9999      -9999      86.8701    -9999     
1550.4     -9999      -9999      86.765     0.09604035 0.1448694  0.2862411  0.3503977  -9         -9999      -9999      86.765     -9999     
1550.6     -9999      -9999      87.9061    0.1010637  0.1570452  0.3157554  0.4668744  -9         -9999      -9999      87.9061    -9999     
1550.8     -9999      -9999      87.5707    0.08526129 0.1216307  0.2512663  0.4219584  -9         -9999      -9999      87.5707    -9999     
1551       -9999      -9999      86.312     0.09045332 0.1345949  0.2811161  0.5421046  -9         -9999      -9999      86.312     -9999     
1551.2     -9999      -9999      87.714     0.05436844 0.05331321 0.1231261  0.3276627  -9         -9999      -9999      87.714     -9999     
1551.4     -9999      -9999      88.034     0.05578352 0.04624695 0.08929148 0.2520661  -9         -9999      -9999      88.034     -9999     
1551.6     -9999      -9999      88.4587    0.05531386 0.03814344 0.05732093 0.1753891  -9         -9999      -9999      88.4587    -9999     
1551.8     -9999      -9999      89.5665    0.08097399 0.08973157 0.1452243  0.3165163  -9         -9999      -9999      89.5665    -9999     
1552       -9999      -9999      88.8094    0.07956047 0.08843097 0.1440409  0.3485211  -9         -9999      -9999      88.8094    -9999     
1552.2     -9999      -9999      89.2532    0.07668374 0.08314622 0.1341966  0.3725498  -9         -9999      -9999      89.2532    -9999     
1552.4     -9999      -9999      89.0369    0.06833076 0.0624885  0.08955043 0.3249351  -9         -9999      -9999      89.0369    -9999     
1552.6     -9999      -9999      84.6296    0.06470834 0.05102385 0.05767012 0.2791363  -9         -9999      -9999      84.6296    -9999     
1552.8     -9999      -9999      80.4669    0.06129648 0.039264   0.02351734 0.2235571  -9         -9999      -9999      80.4669    -9999     
1553       -9999      -9999      80.9751    0.05846904 0.02975479 -0.00515302 0.1751837  -9         -9999      -9999      80.9751    -9999     
