~Version
 VERS              .         2.0                           : CWLS LOG ASCII STANDARD - VERSION 2.0
 WRAP              .         NO                            : ONE LINE PER DEPTH STEP
 DLM               .         SPACE                         : DELIMITING CHARACTER(SPACE TAB OR COMMA)
~Well Information
#_______________________________________________________________________________
#
#PARAMETER_NAME    .UNIT     VALUE                         : DESCRIPTION
#_______________________________________________________________________________
STRT               .m        1542                          : First reference value
STOP               .m        5640.8                        : Last reference value
STEP               .m        0.2                           : Step increment
NULL               .         -9999                         : Missing value
COMP               .         PETROLEO BRASILEIRO S/A       : Company
WELL               .         4-ESS-174A_resample           : Well name
FLD                .         GOLFINHO                      : Field
LOC                .                                       : Location
CNTY               .                                       : County
STAT               .         ESPIRITO SANTO                : State
CTRY               .                                       : Country
SRVC               .                                       : Service Company
DATE               .                                       : Date
API                .         342710322400                  : API number
EDF                .M        19.00                         : Elevation Derrick Floor
GDAT               .         SIRGAS2000                    : Geodetic Datum
HZCS               .         UTM                           : Horizontal Coordinate System
LMF                .         MR                            : Log Measure From
LATI               .         -19_56_54.869                 : Latitude
LONG               .         -39_29_58.132                 : Longitude
MC                 .         39 W                          : Meridiano Central
ORIG               .         SIGEO EXPORTACAO PERFIL       : Origem dos dados
ORIGINALWELLNAME   .         4ESS 0174A ES                 : 
WDMS               .M        1199.00                       : Water Depth to Mean Sea Level
X                  .         447729.60                     : Surface X
Y                  .         7794048.90                    : Surface Y
~Parameter Information Block
#_______________________________________________________________________________
#
#PARAMETER_NAME    .UNIT     VALUE                         : DESCRIPTION
#_______________________________________________________________________________
SET                .         ESS174A_resample              : 
TLFamily_CALI      .         Caliper                       : 
TLFamily_DEPT      .         Measured Depth                : 
TLFamily_DT        .         Compressional Slowness        : 
TLFamily_GR        .         Gamma Ray                     : 
TLFamily_INPEFA_1  .                                       : 
TLFamily_INPEFA_2  .                                       : 
TLFamily_INPEFA_3  .                                       : 
TLFamily_INPEFA_4  .                                       : 
TLFamily_LITO      .                                       : 
TLFamily_LLD       .         Deep Resistivity              : 
TLFamily_NPHI      .         Neutron Porosity              : 
TLFamily_OG        .                                       : 
TLFamily_RHOB      .         Bulk Density                  : 
~Curve Information
#_______________________________________________________________________________
#
#LOGNAME           .UNIT     LOG_ID                        : DESCRIPTION
#_______________________________________________________________________________
DEPT               .m                                      :  
CALI               .in                                     : CALIPER 
DT                 .us/ft                                  : DELTA-T (ALSO CALLED SLOWNESS OR INTERVAL TRANSIT TIME) 
GR                 .gAPI                                   : GAMMA RAY 
INPEFA_1           .                                       :  
INPEFA_2           .                                       :  
INPEFA_3           .                                       :  
INPEFA_4           .                                       :  
LITO               .                                       :  
LLD                .ohm.m                                  : LATEROLOG DEEP RESISTIVITY 
NPHI               .%                                      : THERMAL NEUTRON POROSITY (ORIGINAL RATIO METHOD) IN SELECTED LITHOLOGY 
OG                 .                                       :  
RHOB               .g/cm3                                  : BULK DENSITY 
~Ascii
# ...
3780.2     12.1621    82.3976    108.1255   0.0793355  -0.101714  0.1080337  0.3419307  49         0.9968000054361659 17.1233    108.1255   2.4022    
3780.4     12.2544    82.9845    119.0939   0.06120859 -0.1469288 0.004275809 0.27106    49         1.14330005645752 16.2322    119.0939   2.4276    
3780.6     12.2244    82.3067    129.856    0.04538214 -0.1921653 -0.1112324 0.1487735  49         1.335100054740906 16.9961    129.856    2.4488    
3780.8     12.1908    81.5749    135.315    0.02787395 -0.2423157 -0.2401452 -0.01359442 49         1.301599979400635 18.8625    135.315    2.4616    
3781       12.2397    80.8828    134.9224   0.02186648 -0.2709722 -0.3358852 -0.1543636 57         1.363199949264526 21.1839    134.9224   2.4539    
3781.2     12.2039    79.3113    129.1648   0.01288668 -0.3158341 -0.4851554 -0.4808221 57         1.356699943543419 21.6142    129.1648   2.4196    
3781.4     12.1901    76.2673    121.6489   0.04929905 -0.25735   -0.4336902 -0.4948909 57         1.813099980354309 19.7696    121.6489   2.3902    
3781.6     12.1864    72.7716    110.6194   0.07806354 -0.2058917 -0.3749192 -0.4381846 57         2.529200077056885 17.294     110.6194   2.4088    
3781.8     12.1766    70.0173    96.3364    0.09439681 -0.1837291 -0.376098  -0.4984292 57         3.303999900817871 11.2984    96.3364    2.4871    
3782       12.1951    68.664     88.2077    0.1089518  -0.1591926 -0.361365  -0.5064374 49         2.876699924468994 5.646      88.2077    2.5594    
3782.2     12.2189    69.058     90.1566    0.1308969  -0.1169448 -0.3040494 -0.4065594 49         2.233099937437704 5.022      90.1566    2.5626    
3782.4     12.2304    72.278     98.9861    0.1438962  -0.09154409 -0.270847  -0.3197331 49         1.810799956321716 7.3038     98.9861    2.5279    
3782.6     12.2249    78.2092    106.4651   0.1391902  -0.1009296 -0.2958185 -0.3021537 49         1.737100005149841 9.8508     106.4651   2.4921    
3782.8     12.2129    79.9237    106.6495   0.1306423  -0.1290978 -0.3738329 -0.4295127 49         1.696900010108948 11.0938    106.6495   2.4735    
3783       12.1743    78.8053    106.8405   0.1384466  -0.1169544 -0.3693737 -0.4239802 49         1.692700028419495 12.1687    106.8405   2.4657    
3783.2     12.2145    78.1789    111.8529   0.1377064  -0.125339  -0.4057854 -0.4955277 49         1.694700002670676 13.6692    111.8529   2.4493    
3783.4     12.2005    78.4222    119.6772   0.1488091  -0.1087989 -0.3999329 -0.5354192 49         1.800899982452393 15.0394    119.6772   2.4418    
3783.6     12.2219    78.7471    127.1939   0.1704138  -0.0613989 -0.3186762 -0.4079666 49         2.037300109863281 16.5736    127.1939   2.4592    
3783.8     12.2417    78.301     133.2151   0.1736242  -0.05541502 -0.3184459 -0.4149413 49         2.215399980545044 18.4861    133.2151   2.4643    
3784       12.2568    76.8693    135.0665   0.1839998  -0.03101089 -0.2786409 -0.3448958 57         2.391000032424927 19.3578    135.0665   2.4471    
3784.2     12.2598    74.3454    131.4293   0.1724167  -0.05841609 -0.3441721 -0.4659018 57         2.444900035859339 20.2872    131.4293   2.4603    
3784.4     12.3312    70.5138    118.4367   0.1809337  -0.04411387 -0.3360458 -0.4951765 57         2.878099918365479 18.799     118.4367   2.503     
3784.6     12.2843    66.5909    100.2066   0.2033371  0.003643081 -0.2558205 -0.38153   57         3.592499971389771 13.3626    100.2066   2.5374    
3784.8     12.2601    64.448     86.8568    0.2160808  0.03888071 -0.1827695 -0.2261471 57         4.413400173187256 7.6379     86.8568    2.5562    
3785       12.2937    64.6951    82.5637    0.1971475  0.002205536 -0.2528569 -0.3227599 49         4.755599975585938 5.6137     82.5637    2.564     
3785.2     12.3113    65.7137    81.7527    0.1887342  -0.02105397 -0.3173391 -0.4858105 49         4.276800155636683 5.669      81.7527    2.5951    
3785.4     12.3031    66.3346    81.3663    0.2257148  0.05864711 -0.1792594 -0.3063226 49         3.178200006484985 5.8173     81.3663    2.6482    
3785.6     12.2709    65.8349    86.0141    0.2318541  0.08174314 -0.129149  -0.2058017 49         2.413300037384033 6.6477     86.0141    2.6498    
3785.8     12.2688    64.1159    94.3247    0.2341442  0.09023493 -0.1181636 -0.1937744 49         1.882400035858154 10.3205    94.3247    2.5503    
3786       12.262     62.3349    99.3388    0.2375161  0.1017718  -0.1023174 -0.1745435 49         1.791399955749512 16.2739    99.3388    2.4073    
3786.2     12.2237    61.6498    100.1985   0.2547904  0.1427744  -0.02994219 -0.04757082 49         1.853299975395405 16.8347    100.1985   2.3641    
3786.4     12.2       62.524     98.2034    0.2660073  0.17737    0.04353207 0.1347859  49         1.873900055885315 9.2773     98.2034    2.4686    
3786.6     12.1932    65.477     93.2531    0.2668021  0.188333   0.07222588 0.264447   49         1.632500052452087 4.2541     93.2531    2.5706    
3786.8     12.169     69.2478    89.4893    0.2471008  0.1580019  0.02586063 0.2900457  49         1.258000016212463 4.5196     89.4893    2.5627    
3787       12.1666    71.6359    89.094     0.214492   0.08373462 -0.134817  0.03532219 49         0.9463000297546387 7.5776     89.094     2.5048    
3787.2     12.1534    73.459     92.924     0.2301787  0.118226   -0.08628324 0.1224433  49         0.8809000253677057 11.2024    92.924     2.4506    
3787.4     12.1508    75.2211    96.6953    0.2342572  0.1176472  -0.1196925 0.02342261 49         0.840399980545044 14.0486    96.6953    2.393     
3787.6     12.1639    76.7562    93.7504    0.2484566  0.157134   -0.05155047 0.1414274  49         0.9962000250816345 16.528     93.7504    2.3502    
3787.8     12.1639    78.0179    88.1011    0.2728087  0.2103938  0.0365583  0.2885217  49         1.013200044631958 17.5737    88.1011    2.3617    
3788       12.1666    78.877     91.1067    0.288704   0.2576786  0.1322935  0.4892301  49         1.099599957466126 16.4597    91.1067    2.3971    
3788.2     12.1722    79.1921    100.0014   0.2821071  0.2610713  0.1568366  0.6198117  49         0.9617000222205294 16.6059    100.0014   2.399     
3788.4     12.2008    79.1568    98.7779    0.2675533  0.2461706  0.1440906  0.6908379  49         0.8446999788284302 18.4326    98.7779    2.3707    
3788.6     12.1539    78.9641    91.6794    0.228996   0.167935   -0.0129126 0.4495115  49         0.7610999941825867 18.8838    91.6794    2.3359    
3788.8     12.1547    78.4597    89.5298    0.2082898  0.126865   -0.1090878 0.2602689  49         0.886900007724762 20.0094    89.5298    2.3171    
3789       12.1629    77.6426    91.7604    0.1952246  0.09494552 -0.2025557 0.02181281 49         0.9847000241279602 19.344     91.7604    2.3418    
3789.2     12.1392    76.7974    91.539     0.2223325  0.1337079  -0.1962122 -0.1901755 49         1.143900036811853 15.8902    91.539     2.3897    
3789.4     12.1442    76.6559    89.2859    0.2719422  0.2550368  0.02421556 0.09598313 49         1.171800017356873 13.8617    89.2859    2.4232    
3789.6     12.1506    77.2978    89.7791    0.2753129  0.2624822  0.0138628  -0.01966606 49         1.182299971580505 13.4264    89.7791    2.4467    
3789.8     12.1795    78.4464    98.3365    0.2874758  0.3088778  0.1056051  0.09374323 49         1.33270001411438 15.2674    98.3365    2.4506    
3790       12.1972    79.4899    112.6698   0.2819482  0.3043849  0.08951712 0.02348126 57         1.57889997959137 21.0369    112.6698   2.4401    
3790.2     12.2476    79.9452    119.0407   0.2719913  0.2904573  0.04731081 -0.142563  57         1.868999958038584 24.0401    119.0407   2.4548    
3790.4     12.2525    79.3263    112.4541   0.2730474  0.3000375  0.05093443 -0.2401581 57         1.904800057411194 21.5778    112.4541   2.4729    
3790.6     12.199     77.7072    103.8691   0.2923163  0.3417826  0.1022057  -0.3132727 57         1.79419994354248 17.6438    103.8691   2.4668    
3790.8     12.166     76.9352    94.9093    0.3079517  0.392385   0.1985539  -0.2456644 57         1.616999983787537 15.2106    94.9093    2.4608    
