~Version
 VERS              .         2.0                           : CWLS LOG ASCII STANDARD - VERSION 2.0
 WRAP              .         NO                            : ONE LINE PER DEPTH STEP
 DLM               .         SPACE                         : DELIMITING CHARACTER(SPACE TAB OR COMMA)
~Well Information
#_______________________________________________________________________________
#
#PARAMETER_NAME    .UNIT     VALUE                         : DESCRIPTION
#_______________________________________________________________________________
STRT               .m        2424.989                      : First reference value
STOP               .m        5587.189                      : Last reference value
STEP               .m        0.2                           : Step increment
NULL               .         -9999                         : Missing value
COMP               .         PETROLEO BRASILEIRO S/A       : Company
WELL               .         4ESS 0138  ES                 : Well name
FLD                .         CANAPU                        : Field
LOC                .                                       : Location
CNTY               .                                       : County
STAT               .         ESPIRITO SANTO                : State
CTRY               .                                       : Country
SRVC               .                                       : Service Company
DATE               .                                       : Date
API                .         342710293200                  : API number
EDF                .M        18.00                         : Elevation Derrick Floor
GDAT               .         SIRGAS2000                    : Geodetic Datum
HZCS               .         UTM                           : Horizontal Coordinate System
LAT                .         -20.018293                    : Latitude
LONG               .         -39.316753                    : Longitude
MC                 .         39 W                          : Meridiano Central
ORIG               .         SIGEO EXPORTACAO PERFIL       : Origem dos dados
WDMS               .M        1614.00                       : Water Depth to Mean Sea Level
XCOORD             .         466869.60                     : Surface X
YCOORD             .         7786462.90                    : Surface Y
~Parameter Information Block
#_______________________________________________________________________________
#
#PARAMETER_NAME    .UNIT     VALUE                         : DESCRIPTION
#_______________________________________________________________________________
SET                .         ESS138_resample               : 
TLFamily_CALI      .         Caliper                       : 
TLFamily_DEPT      .         Measured Depth                : 
TLFamily_DT        .         Compressional Slowness        : 
TLFamily_DTS       .         Compressional Slowness        : 
TLFamily_GR        .         Gamma Ray                     : 
TLFamily_INPEFA_1  .                                       : 
TLFamily_INPEFA_2  .                                       : 
TLFamily_INPEFA_3  .                                       : 
TLFamily_INPEFA_4  .                                       : 
TLFamily_LITO      .                                       : 
TLFamily_NPHI      .         Neutron Porosity              : 
TLFamily_OG        .                                       : 
TLFamily_RESD      .         Deep Resistivity              : 
TLFamily_RESM      .         Medium Resistivity            : 
TLFamily_RESS      .         Shallow Resistivity           : 
TLFamily_RHOB      .         Bulk Density                  : 
TLFamily_TVD       .         True Vertical Depth           : 
~Curve Information
#_______________________________________________________________________________
#
#LOGNAME           .UNIT     LOG_ID                        : DESCRIPTION
#_______________________________________________________________________________
DEPT               .m                                      :  
CALI               .in                                     :  
DT                 .us/ft                                  :  
DTS                .us/ft                                  :  
GR                 .gAPI                                   : GAMMA RAY 
INPEFA_1           .                                       :  
INPEFA_2           .                                       :  
INPEFA_3           .                                       :  
INPEFA_4           .                                       :  
LITO               .Sem                                    : Não definido 
NPHI               .%                                      : THERMAL NEUTRON POROSITY (ORIGINAL RATIO METHOD) IN SELECTED LITHOLOGY 
OG                 .                                       :  
RESD               .ohm.m                                  :  
RESM               .ohm.m                                  :  
RESS               .ohm.m                                  :  
RHOB               .g/cm3                                  :  
TVD                .                                       : Vertical Depth 
~Ascii
# ...
3711.989   12.34469   87.73423815149005 195.9926   97.79834   -0.002095449 0.08286805 0.4704041  0.2803019  49         18.66496   97.79834   0.3963527056466633 0.4087273673424365 0.5227488157507585 2.336503   3711.4145 
3712.189   12.33436   86.62341542882223 200.2914   100.7662   -0.01528412 0.03099067 0.4119827  0.2289054  49         17.46009   100.7662   0.3952230988919163 0.4063000082969666 0.5122787703420979 2.347987   3711.6145 
3712.389   12.35425   87.17454687003578 207.4084   104.8558   -0.01878798 0.009472825 0.4043518  0.2756973  49         18.43287   104.8558   0.3936601840196234 0.4141018999172918 0.4993763470360216 2.345855   3711.8145 
3712.589   12.36833   90.09223361278023 215.5337   110.0871   -0.02396149 -0.01618629 0.3943663  0.3815019  49         25.2765    110.0871   0.423608148088686 0.4453454476062972 0.5170192858361126 2.36307    3712.0144 
3712.789   12.36538   93.44750708232454 221.0809   115.2391   -0.06120311 -0.1306188 0.2421092  0.2764812  49         28.57272   115.2391   0.4552777545288956 0.4557062142932865 0.58282951496333 2.376908   3712.2144 
3712.989   12.36966   95.39916117109918 222.6389   118.7105   -0.05200911 -0.1400616 0.215878   0.2988517  57         30.33275   118.7105   0.4952798947709794 0.4971759589179838 0.6536064939565812 2.35079    3712.4144 
3713.189   12.38469   97.04761643297508 221.4277   121.087    -0.06146474 -0.1908098 0.1335008  0.2608755  57         31.34645   121.087    0.5147081700518554 0.5131306982448206 0.6880965922768109 2.392005   3712.614397637796
3713.389   12.37452   99.59391129861731 217.6978   122.8374   -0.06593055 -0.2317234 0.05320635 0.1918777  57         31.32154   122.8374   0.5283451979309343 0.5344602086967709 0.6965728497337673 2.405535   3712.8143 
3713.589   12.38114   100.9835387703005 211.5682   121.8292   -0.06749946 -0.2683454 -0.03123268 0.08068629 57         31.59254   121.8292   0.544873659225071 0.5666311101066045 0.7085153182780586 2.375294   3713.0143 
3713.789   12.39382   98.43552584910555 204.6312   118.5265   -0.06420251 -0.2954203 -0.1164027 -0.09497702 57         33.06047   118.5265   0.5862708376291405 0.6104100875539807 0.7594728987125508 2.362586   3713.2143 
3713.989   12.43455   92.49424295099401 198.7786   112.2257   -0.0450462 -0.2798738 -0.1435917 -0.2223574 57         25.84321   112.2257   0.6792259860870461 0.6798628835621333 0.8651706607076423 2.400321   3713.4142 
3714.189   12.53336   88.65580519228082 196.419    106.6562   -0.01784897 -0.2302396 -0.1056071 -0.2234661 57         24.96079   106.6562   0.7452019786349422 0.7620369770940189 1.00437258139012 2.464941   3713.6142 
3714.389   12.60034   90.19433785987006 197.7352   111.802    -0.0078498 -0.2204576 -0.1180933 -0.2819956 57         22.20632   111.802    0.7226436827984462 0.767775418540749 1.080091808180333 2.469777   3713.8142 
3714.589   12.65862   94.85650364432709 202.9328   122.9895   -0.003101686 -0.2238892 -0.155838  -0.4063043 57         29.71546   122.9895   0.6515525177686594 0.7047725157154138 1.028282282573521 2.405619   3714.0141 
3714.789   12.64571   97.90453757138421 212.33     129.7466   0.03040004 -0.1580842 -0.09897801 -0.3954737 57         31.93233   129.7466   0.6535933633506378 0.6947073497998914 0.9442912793138203 2.399871   3714.2141 
3714.989   12.68503   98.77523485318912 223.253    131.5836   0.03491261 -0.1511812 -0.1072775 -0.4385935 57         33.12354   131.5836   0.6702873028030373 0.6941857452330755 0.9361958897924316 2.450428   3714.4141 
3715.189   12.81837   100.1538847875757 232.8204   132.3997   0.04298977 -0.129993  -0.08648947 -0.3910607 57         36.79095   132.3997   0.6727068122557345 0.6953618455443957 0.9492269636492454 2.455642   3714.614100000001
3715.389   12.70439   102.991068822507 239.8691   132.5437   0.05281369 -0.1195373 -0.09724965 -0.406576  57         37.34639   132.5437   0.6513806293773207 0.687653036825771 0.9254072124021325 2.416106   3714.814  
3715.589   12.65269   104.9386190579626 244.8833   131.5343   0.06020894 -0.1001682 -0.08304042 -0.3543617 57         35.92947   131.5343   0.6343047166705481 0.6766842367022535 0.8935226130216535 2.385892   3715.014  
3715.789   12.46584   104.5233083209319 246.5788   132.7509   0.0653374  -0.09609456 -0.0964463 -0.3255815 57         40.86359   132.7509   0.6427353358217418 0.6713347505568224 0.87779593116043 2.382364   3715.214  
3715.989   12.45592   102.2197789069553 241.6976   133.4155   0.07555613 -0.07395615 -0.08216503 -0.2390749 57         37.48536   133.4155   0.6473875706719185 0.6773599992384465 0.8787456530661137 2.385809   3715.4139 
3716.189   12.40455   99.27918429636939 229.0647   131.1202   0.07854629 -0.0707166 -0.09303644 -0.163446  57         46.27229   131.1202   0.6218058824896366 0.6774832830340393 0.8710725826703968 2.387035   3715.6139 
3716.389   12.39582   96.31701519983494 213.3797   128.014    0.07587731 -0.08619308 -0.1393922 -0.1526129 57         38.49277   128.014    0.5938407474471742 0.6607380828086366 0.8493407742122235 2.40053    3715.8139 
3716.589   12.39428   94.00087703995278 201.7438   125.177    0.08914118 -0.06114197 -0.1310506 -0.06744553 57         35.50165   125.177    0.5786306262043043 0.6245455638789109 0.82589595516874 2.401036   3716.0139 
3716.789   12.37016   93.37869196613977 199.1618   121.7884   0.08614283 -0.07255857 -0.1701715 -0.04091386 57         30.93683   121.7884   0.5301906066136188 0.56362741021347 0.7614127732948729 2.411093   3716.2138 
3716.989   12.398     94.08087052072536 201.6945   116.2405   0.09218508 -0.06644802 -0.1949519 -0.0195329 57         32.32688   116.2405   0.431747634818767 0.4700837749109895 0.6426693741668941 2.360353   3716.4138 
3717.189   12.38738   95.21240058158199 205.7355   108.5642   0.09742635 -0.05966903 -0.2213775 -0.02113897 57         29.42472   108.5642   0.3369422393485513 0.3558193764341359 0.5072847223061284 2.302608   3716.613800000001
3717.389   12.38795   96.30569722333341 211.2211   101.7699   0.09505349 -0.07750586 -0.2968437 -0.1549085 57         27.21435   101.7699   0.2803148851223429 0.2870355716494403 0.4110353096340627 2.287177   3716.8137 
3717.589   12.35994   97.7350943457738 218.0201   98.60839   0.1260028  -0.0138975 -0.2708816 -0.211701  57         28.15273   98.60839   0.2789776217583961 0.2714453081538903 0.3507208889077336 2.303012   3717.0137 
3717.789   12.40302   99.52624619851981 223.9782   95.79085   0.144328   0.04159522 -0.2268271 -0.187104  57         27.11749   95.79085   0.2379001388868577 0.2267749210444804 0.2937423909262374 2.271456   3717.2137 
3717.989   12.42571   100.6465728639619 225.5208   93.03793   0.1511034  0.05449442 -0.2632629 -0.3252707 49         29.25995   93.03793   0.1801600735013015 0.1782641091190295 0.2461545899283517 2.218636   3717.413699212599
3718.189   12.43291   100.0609965487077 223.083    93.01366   0.1844404  0.1444857  -0.182746  -0.3540885 49         26.97519   93.01366   0.1655257165691186 0.1650257191578207 0.2249356289384726 2.187357   3717.6136 
3718.389   12.40009   97.30798339843662 220.5328   93.92961   0.1981295  0.1917727  -0.1461613 -0.3996153 49         28.04016   93.92961   0.1628942530170535 0.1651999950408935 0.2282604948503858 2.184153   3717.8136 
3718.589   12.43437   91.97094792644259 221.3991   94.88919   0.2262939  0.2751051  -0.05888381 -0.4227293 49         27.62382   94.88919   0.1821418192633961 0.176716452895076 0.2543476810586442 2.185183   3718.0136 
3718.789   12.42726   85.0873853828509 223.7978   95.61358   0.2553741  0.3745281  0.07369092 -0.3634703 49         27.04122   95.61358   0.2083254199741891 0.2066335932392474 0.2868306555720329 2.222234   3718.2135 
3718.989   12.43439   78.98562940462335 224.582    95.8021    0.2620112  0.4319628  0.1752536  -0.291831  49         26.99438   95.8021    0.2537559035292181 0.245162522524032 0.3151906330975037 2.247016   3718.413474540682
3719.189   12.41923   75.63429104061373 223.9886   96.03734   0.2726905  0.5104793  0.3331201  -0.03929783 49         25.37589   96.03734   0.3358828942190555 0.2948073002099964 0.3356087732183229 2.245543   3718.612649606299
