~Version
 VERS              .         2.0                           : CWLS LOG ASCII STANDARD - VERSION 2.0
 WRAP              .         NO                            : ONE LINE PER DEPTH STEP
 DLM               .         SPACE                         : DELIMITING CHARACTER(SPACE TAB OR COMMA)
~Well Information
#_______________________________________________________________________________
#
#PARAMETER_NAME    .UNIT     VALUE                         : DESCRIPTION
#_______________________________________________________________________________
STRT               .m        2424.989                      : First reference value
STOP               .m        5587.189                      : Last reference value
STEP               .m        0.2                           : Step increment
NULL               .         -9999                         : Missing value
COMP               .         PETROLEO BRASILEIRO S/A       : Company
WELL               .         4ESS 0138  ES                 : Well name
FLD                .         CANAPU                        : Field
LOC                .                                       : Location
CNTY               .                                       : County
STAT               .         ESPIRITO SANTO                : State
CTRY               .                                       : Country
SRVC               .                                       : Service Company
DATE               .                                       : Date
API                .         342710293200                  : API number
EDF                .M        18.00                         : Elevation Derrick Floor
GDAT               .         SIRGAS2000                    : Geodetic Datum
HZCS               .         UTM                           : Horizontal Coordinate System
LAT                .         -20.018293                    : Latitude
LONG               .         -39.316753                    : Longitude
MC                 .         39 W                          : Meridiano Central
ORIG               .         SIGEO EXPORTACAO PERFIL       : Origem dos dados
WDMS               .M        1614.00                       : Water Depth to Mean Sea Level
XCOORD             .         466869.60                     : Surface X
YCOORD             .         7786462.90                    : Surface Y
~Parameter Information Block
#_______________________________________________________________________________
#
#PARAMETER_NAME    .UNIT     VALUE                         : DESCRIPTION
#_______________________________________________________________________________
SET                .         ESS138_resample               : 
TLFamily_CALI      .         Caliper                       : 
TLFamily_DEPT      .         Measured Depth                : 
TLFamily_DT        .         Compressional Slowness        : 
TLFamily_DTS       .         Compressional Slowness        : 
TLFamily_GR        .         Gamma Ray                     : 
TLFamily_INPEFA_1  .                                       : 
TLFamily_INPEFA_2  .                                       : 
TLFamily_INPEFA_3  .                                       : 
TLFamily_INPEFA_4  .                                       : 
TLFamily_LITO      .                                       : 
TLFamily_NPHI      .         Neutron Porosity              : 
TLFamily_OG        .                                       : 
TLFamily_RESD      .         Deep Resistivity              : 
TLFamily_RESM      .         Medium Resistivity            : 
TLFamily_RESS      .         Shallow Resistivity           : 
TLFamily_RHOB      .         Bulk Density                  : 
TLFamily_TVD       .         True Vertical Depth           : 
~Curve Information
#_______________________________________________________________________________
#
#LOGNAME           .UNIT     LOG_ID                        : DESCRIPTION
#_______________________________________________________________________________
DEPT               .m                                      :  
CALI               .in                                     :  
DT                 .us/ft                                  :  
DTS                .us/ft                                  :  
GR                 .gAPI                                   : GAMMA RAY 
INPEFA_1           .                                       :  
INPEFA_2           .                                       :  
INPEFA_3           .                                       :  
INPEFA_4           .                                       :  
LITO               .Sem                                    : Não definido 
NPHI               .%                                      : THERMAL NEUTRON POROSITY (ORIGINAL RATIO METHOD) IN SELECTED LITHOLOGY 
OG                 .                                       :  
RESD               .ohm.m                                  :  
RESM               .ohm.m                                  :  
RESS               .ohm.m                                  :  
RHOB               .g/cm3                                  :  
TVD                .                                       : Vertical Depth 
~Ascii
# ...
5342.589   8.770226   52.67598531127292 92.93999   81.52376   0.2945908  0.2729551  0.04875283 -0.2573767 42         2.187901   81.52376   135.7764333159654 118.5749889582254 94.26437453207289 2.626058   5340.578914435696
5342.789000000001 8.781262   52.39009986336657 93.4328    81.31153   0.3166249  0.3460083  0.1382094  -0.2263505 42         2.132753   81.31153   147.4684129696616 135.3399443419555 95.75422567942772 2.639273   5340.77786456693
5342.989   8.769315   51.74054930279028 94.04365   79.25617   0.3373589  0.4206622  0.2466181  -0.1432485 42         1.874819   79.25617   150.5635376760484 137.2449388895609 89.43165726988659 2.645771   5340.976814698162
5343.189   8.795887   51.41719303481529 94.73161   78.16956   0.3643382  0.5367754  0.4544967  0.2160999  42         1.858945   78.16956   139.7767712364261 117.3499680203245 78.18978467791355 2.653222   5341.175764829396
5343.389   8.780256   52.07721454890767 95.12096   84.05805   0.3114366  0.4441995  0.3690191  0.1862149  42         1.668406   84.05805   118.3262237161517 87.02973721544299 63.68214019511422 2.657387   5341.37481496063
5343.589   8.798347   53.59231736591426 95.23783   95.68855   0.3225549  0.4937218  0.4521084  0.3265764  42         1.77563    95.68855   101.7402777782615 68.44972090178263 49.61629682698315 2.646915   5341.573765091865
5343.789000000001 8.794175   55.12403099681065 94.95091   108.171    0.2915131  0.4465837  0.4095666  0.2987242  42         2.098903   108.171    83.24045771999586 58.30944651988492 41.2404699445726 2.590146   5341.772715223097
5343.989   8.792471   55.74508144348615 94.07103   114.2731   0.300851   0.4876667  0.4724973  0.3891469  42         2.362915   114.2731   68.0146360922778 52.48942694622963 40.77462283390213 2.5701     5341.971665354331
5344.189   8.77611    55.2971050332521 93.10936   107.8078   0.288958   0.4784667  0.4650332  0.3621208  42         2.823276   107.8078   66.59727752874315 55.5427866374316 46.76380735079067 2.575154   5342.170615485565
5344.389   8.763354   54.15242704256249 92.50378   93.61166   0.2868694  0.4970188  0.5017439  0.4153569  42         3.059285   93.61166   70.35232181216944 62.66879732059766 62.71470676185707 2.599585   5342.369565616797
5344.589   8.762124   52.99040023923715 92.22012   85.33875   0.2803456  0.4989752  0.5072424  0.4029284  42         3.303534   85.33875   81.56302190493712 81.2838794105534 87.5776294818658 2.652086   5342.568615748032
5344.789000000001 8.76926    52.12491478506802 91.96612   83.52715   0.277029   0.5102141  0.5250169  0.4036666  42         3.150477   83.52715   95.48777986145898 106.0816819291662 106.7844676288323 2.673626   5342.767565879265
5344.989   8.784456   51.57090941501765 92.22694   84.7939    0.2730362  0.5187373  0.5384231  0.4073934  42         2.904141   84.7939    96.10348138187678 109.8760307380679 111.2197191557841 2.669952   5342.966516010499
5345.189   8.75649    51.42552206084496 92.68972   87.01886   0.2653595  0.5146278  0.5323346  0.3986551  42         1.721841   87.01886   84.35834788220065 98.57388957008509 98.57331267722891 2.657765   5343.165466141732
5345.389   8.740689   51.77262425860728 93.34174   91.78282   0.2616406  0.517459   0.5342497  0.4063502  42         1.712848   91.78282   72.83716427552766 86.83265188007006 77.41425999316685 2.654741   5343.364416272966
5345.589   8.770406   52.5499022976937 93.75452   100.0121   0.249765   0.5015774  0.5140795  0.3957167  42         1.778584   100.0121   63.28175469962523 76.07492866820611 60.51478463363394 2.644078   5343.5633664042
5345.789000000001 8.764615   53.25491023626942 94.08614   105.7273   0.240233   0.4834601  0.479265   0.3287143  42         1.955398   105.7273   54.25510556473562 60.7837402645119 54.29423388142285 2.622713   5343.762416535434
5345.989   8.7652     53.41346613566094 94.79543   103.988    0.2585283  0.5412447  0.5632784  0.4655391  42         2.470767   103.988    46.37313921455921 47.59276785677724 53.96777544656649 2.599533   5343.961366666666
5346.189   8.771916   53.15573077064182 96.12977   99.21556   0.2383138  0.5115356  0.5416135  0.5165464  42         2.298517   99.21556   39.82095491633621 37.92352708995179 52.89705711088566 2.615279   5344.1603167979
5346.389   8.775639   53.32693778811497 97.84531   102.3904   0.2138967  0.4512937  0.4512269  0.446704   42         1.904129   102.3904   36.71533041390548 34.06107510437681 41.59073518888821 2.643529   5344.359266929134
5346.589   8.751029   54.44212553570135 99.04552   110.8203   0.207896   0.4337491  0.410298   0.3896864  42         2.07826    110.8203   33.83991784201896 30.31176582559906 27.70779933934142 2.652229   5344.558217060368
5346.789000000001 8.78804    56.10093886208068 99.59196   119.058    0.2073576  0.4338939  0.4006784  0.4139316  42         2.508435   119.058    28.76564185265455 23.81107395363486 20.05155257385863 2.622519   5344.757167191601
5346.989   8.797996   57.37460963932421 99.73735   123.2046   0.1906164  0.3900753  0.3261724  0.3443016  49         2.681589   123.2046   23.42593011794141 18.07314969878623 17.1041088880014 2.587885   5344.956217322834
5347.189   8.791572   57.99040213156994 99.89656   123.9241   0.1919761  0.3834609  0.2897705  0.2969682  49         3.184646   123.9241   21.29401706977736 16.17483434647421 15.48162397759015 2.579158   5345.155167454069
5347.389   8.773569   58.36555758298543 99.94656   124.3813   0.1865796  0.3678086  0.2553601  0.297114   49         3.52076    124.3813   20.26524450390283 15.45243143845941 14.63118033900454 2.579811   5345.354117585302
5347.589   8.776078   58.83139792014345 99.73801   125.1675   0.169686   0.3143268  0.1549868  0.1692993  49         3.262649   125.1675   19.54200917712199 15.41025022244865 14.21027558172302 2.559839   5345.553067716535
5347.789000000001 8.792257   59.28923040675453 99.56706   125.7678   0.1667311  0.2935889  0.09482328 0.05657219 49         3.494457   125.7678   19.03960744941887 15.59584048158289 14.17521295399639 2.565711   5345.75201784777
5347.989   8.777968   59.55888683088774 99.38824   126.0835   0.1671058  0.2888864  0.0654076  -0.01679974 49         3.991873   126.0835   18.51130378772042 15.92084843499448 14.47201079073428 2.56408    5345.950967979003
5348.189   8.768353   59.62806221068373 99.03805   126.4726   0.152273   0.23785    -0.04466442 -0.2809233 49         3.831843   126.4726   18.45824064161283 16.37528289993248 14.94200625233286 2.566436   5346.150018110237
5348.389   8.780182   59.60753411320564 98.8808    126.9153   0.1798468  0.2929504  -0.009488901 -0.3799942 49         3.875985   126.9153   18.76378108201336 16.7943768447519 15.41221258367673 2.566063   5346.348968241469
5348.589   8.801282   59.48095302631832 98.86786   128.4548   0.1926783  0.3311524  0.03523183 -0.3781524 49         3.780844   128.4548   19.31497505842863 17.29675113621503 15.7650708234274 2.563601   5346.547918372704
5348.789000000001 8.785028   59.01443114993919 98.43031   130.6369   0.1856778  0.3101195  -0.008442822 -0.5012531 49         3.560546   130.6369   19.69847499538637 17.71372791382612 16.26887933540495 2.569352   5346.746868503938
5348.989   8.776944   58.05912667622609 97.67497   130.2741   0.1949918  0.3333775  0.01314281 -0.5268351 49         3.440461   130.2741   19.91314157232423 18.06234819115804 17.38717560884339 2.567834   5346.94581863517
5349.189   8.781434   57.13031357292073 97.22289   129.7475   0.1854213  0.3128041  -0.0140571 -0.5733994 49         3.131819   129.7475   20.35780632328119 18.59210594142193 18.30985750224298 2.567137   5347.144768766404
5349.389   8.787422   56.80028897383084 97.29942   132.3594   0.1974962  0.338638   0.01880588 -0.5193939 49         3.408506   132.3594   20.87699483253473 18.89344692419833 18.16128989414144 2.559598   5347.343718897638
5349.589   8.794447   57.20476976529859 97.5947    135.5192   0.1823511  0.3078294  -0.00788679 -0.494579  49         3.31347    135.5192   21.3332600579391 18.81496497647679 17.30480004785893 2.559762   5347.542769028872
