~Version
 VERS              .         2.0                           : CWLS LOG ASCII STANDARD - VERSION 2.0
 WRAP              .         NO                            : ONE LINE PER DEPTH STEP
 DLM               .         SPACE                         : DELIMITING CHARACTER(SPACE TAB OR COMMA)
~Well Information
#_______________________________________________________________________________
#
#PARAMETER_NAME    .UNIT     VALUE                         : DESCRIPTION
#_______________________________________________________________________________
STRT               .m        2424.989                      : First reference value
STOP               .m        5587.189                      : Last reference value
STEP               .m        0.2                           : Step increment
NULL               .         -9999                         : Missing value
COMP               .         PETROLEO BRASILEIRO S/A       : Company
WELL               .         4ESS 0138  ES                 : Well name
FLD                .         CANAPU                        : Field
LOC                .                                       : Location
CNTY               .                                       : County
STAT               .         ESPIRITO SANTO                : State
CTRY               .                                       : Country
SRVC               .                                       : Service Company
DATE               .                                       : Date
API                .         342710293200                  : API number
EDF                .M        18.00                         : Elevation Derrick Floor
GDAT               .         SIRGAS2000                    : Geodetic Datum
HZCS               .         UTM                           : Horizontal Coordinate System
LAT                .         -20.018293                    : Latitude
LONG               .         -39.316753                    : Longitude
MC                 .         39 W                          : Meridiano Central
ORIG               .         SIGEO EXPORTACAO PERFIL       : Origem dos dados
WDMS               .M        1614.00                       : Water Depth to Mean Sea Level
XCOORD             .         466869.60                     : Surface X
YCOORD             .         7786462.90                    : Surface Y
~Parameter Information Block
#_______________________________________________________________________________
#
#PARAMETER_NAME    .UNIT     VALUE                         : DESCRIPTION
#_______________________________________________________________________________
SET                .         ESS138_resample               : 
TLFamily_CALI      .         Caliper                       : 
TLFamily_DEPT      .         Measured Depth                : 
TLFamily_DT        .         Compressional Slowness        : 
TLFamily_DTS       .         Compressional Slowness        : 
TLFamily_GR        .         Gamma Ray                     : 
TLFamily_INPEFA_1  .                                       : 
TLFamily_INPEFA_2  .                                       : 
TLFamily_INPEFA_3  .                                       : 
TLFamily_INPEFA_4  .                                       : 
TLFamily_LITO      .                                       : 
TLFamily_NPHI      .         Neutron Porosity              : 
TLFamily_OG        .                                       : 
TLFamily_RESD      .         Deep Resistivity              : 
TLFamily_RESM      .         Medium Resistivity            : 
TLFamily_RESS      .         Shallow Resistivity           : 
TLFamily_RHOB      .         Bulk Density                  : 
TLFamily_TVD       .         True Vertical Depth           : 
~Curve Information
#_______________________________________________________________________________
#
#LOGNAME           .UNIT     LOG_ID                        : DESCRIPTION
#_______________________________________________________________________________
DEPT               .m                                      :  
CALI               .in                                     :  
DT                 .us/ft                                  :  
DTS                .us/ft                                  :  
GR                 .gAPI                                   : GAMMA RAY 
INPEFA_1           .                                       :  
INPEFA_2           .                                       :  
INPEFA_3           .                                       :  
INPEFA_4           .                                       :  
LITO               .Sem                                    : Não definido 
NPHI               .%                                      : THERMAL NEUTRON POROSITY (ORIGINAL RATIO METHOD) IN SELECTED LITHOLOGY 
OG                 .                                       :  
RESD               .ohm.m                                  :  
RESM               .ohm.m                                  :  
RESS               .ohm.m                                  :  
RHOB               .g/cm3                                  :  
TVD                .                                       : Vertical Depth 
~Ascii
# ...
4327.189   12.02491   76.10247326147903 140.3185   87.76223   0.4043208  0.0404056  0.01065454 0.1624062  49         16.11243   87.76223   0.5775405078222589 0.6017463466552742 0.8277917676873489 2.382633   4326.558700000001
4327.389   12.02575   79.15323530783532 136.762    88.04478   0.4047416  0.03417007 0.004121407 0.2458542  49         15.41924   88.04478   0.5583822849553097 0.6410288561644143 0.8450965864476195 2.390431   4326.7586 
4327.589   12.0016    79.77399805024216 136.2497   90.78342   0.4035544  0.023225   -0.01113941 0.3186413  49         15.64217   90.78342   0.5387850141461218 0.6109612646092032 0.7778686894980093 2.400008   4326.9586 
4327.789000000001 12.00174   76.73568441234069 137.6496   94.01993   0.4132616  0.03983973 0.01418359 0.4760351  49         17.19494   94.01993   0.527681625085808 0.5881719095606309 0.7092298115388706 2.397177   4327.158500000001
4327.989   12.02108   72.08629097526502 139.122    94.53653   0.3850953  -0.03452053 -0.08628306 0.4584464  49         15.91393   94.53653   0.5434295221074078 0.5918672357072329 0.7019630079291941 2.433798   4327.358499999999
4328.189   12.03811   69.06345553660854 138.4652   91.92654   0.3767935  -0.08220203 -0.1872631 0.3229649  49         14.702     91.92654   0.5678490963794242 0.6076487946028735 0.7469573203238863 2.497961   4327.5584 
4328.389   12.05032   68.86891590829468 135.649    90.66207   0.4098388  -0.01666197 -0.124378  0.401235   49         14.37432   90.66207   0.553623019620306 0.6190313627406958 0.8215795832753863 2.478438   4327.758399475067
4328.589   12.04848   70.26527871359401 132.9464   91.98804   0.4012016  -0.03937614 -0.1620158 0.386701   49         13.09927   91.98804   0.596955779805079 0.6529992809694584 0.879330990546711 2.476844   4327.958299999999
4328.789000000001 11.9923    72.04847128560893 132.3937   92.72464   0.401166   -0.05955882 -0.2252304 0.2481582  49         13.53062   92.72464   0.5823254465529265 0.6601577728203594 0.8532684907592767 2.469618   4328.158200000001
4328.989   12.0098    73.79660230420765 134.3541   92.87829   0.4347301  0.0170681  -0.1391238 0.3363703  49         13.92637   92.87829   0.5258549385956045 0.6109847075909627 0.7442055794754106 2.425475   4328.358199999999
4329.189   12.02571   75.46962177346863 138.1131   93.75794   0.4314208  0.01175444 -0.1494445 0.3432006  49         16.82205   93.75794   0.4965923682373983 0.5519726973746439 0.6416556183611532 2.381884   4328.5581 
4329.389   12.02435   76.91328484242553 141.9525   94.39068   0.4317231  0.009313348 -0.1655937 0.3260311  49         18.9259    94.39068   0.476644710482019 0.5080831561748745 0.5849553770647503 2.360018   4328.7581 
4329.589   12.02085   77.8204522320594 142.6319   94.14083   0.4305293  -0.000359364 -0.200494  0.2556294  49         18.37564   94.14083   0.4667482283234424 0.482293728863724 0.5586479326500595 2.348851   4328.958  
4329.789000000001 12.0124    78.27121620478707 140.0306   93.32571   0.4197495  -0.03958867 -0.290775  0.05391177 49         19.8627    93.32571   0.4758241856093511 0.4848747797846862 0.5726226047099616 2.354399   4329.158  
4329.989   12.0042    78.45159912109375 136.5583   93.0227    0.4329662  -0.02072599 -0.3065232 -0.08221702 49         22.1081    93.0227    0.5575000047683716 0.531499981880188 0.6230000257492065 2.3221     4329.3579 
4330.189   12.00282   78.39560377065884 135.5233   93.52199   0.4427011  -0.01343209 -0.3459111 -0.3130862 49         20.07432   93.52199   0.6544373423236134 0.5983341537898388 0.6597230075333114 2.361447   4329.557800000001
4330.389   12.01935   78.02647764351021 137.5259   93.9701    0.4921223  0.1117254  -0.1933756 -0.2117835 49         18.76147   93.9701    0.6569497228298461 0.6139020840105235 0.6585022020482495 2.379039   4329.7578 
4330.589   12.03188   77.48190686083257 142.2628   94.43654   0.4839698  0.1004689  -0.2124681 -0.296502  49         18.35706   94.43654   0.5964234477337677 0.583355897758548 0.6435294535013836 2.419508   4329.9577 
4330.789000000001 11.99382   77.3703650727369 148.2466   94.16323   0.4940312  0.1284016  -0.1869908 -0.3382639 49         18.63735   94.16323   0.5387174617776602 0.548215414206499 0.6357067977146798 2.396983   4330.157700000001
4330.989   11.99741   77.61736441784929 152.74     96.40671   0.4855412  0.1075909  -0.232947  -0.5038769 49         19.37598   96.40671   0.5100598136448584 0.5175878417360998 0.6182363301673374 2.384017   4330.3576 
4331.189   12.00109   77.49007547934201 154.4994   100.5159   0.5155116  0.181457   -0.1484548 -0.489174  49         20.08731   100.5159   0.4955577125257951 0.4944611091272038 0.6010591034561221 2.365402   4330.557550393701
4331.389   12.00678   77.11805512836332 154.1786   99.39182   0.5174546  0.2044254  -0.1034749 -0.4469877 49         21.3557    99.39182   0.4857781134390939 0.4876272582398452 0.5959815434606858 2.387358   4330.757500000001
4331.589   12.00909   77.92154475334417 153.7041   95.57478   0.5153727  0.2027027  -0.1055373 -0.4901409 49         22.04114   95.57478   0.4855947399992944 0.4830073487268741 0.5826224872323871 2.406287   4330.957399999999
4331.789000000001 12.00418   80.06774938388966 153.5906   93.83171   0.5163072  0.2147147  -0.08296483 -0.4955647 49         21.19176   93.83171   0.4749450651773752 0.4636499146191326 0.5532309144334102 2.376868   4331.157400000001
4331.989   12.00091   81.7864875893579 153.1065   91.08498   0.5110245  0.2051266  -0.09636418 -0.5868541 49         20.50458   91.08498   0.423134283696385 0.4314240543998435 0.5270075422949311 2.3303     4331.3573 
4332.189   12.00488   81.34085175121147 150.9877   88.11932   0.5259652  0.2459954  -0.04030343 -0.6022796 49         24.47505   88.11932   0.4172590446908456 0.4321101871114344 0.5318835254410733 2.371218   4331.5573 
4332.389   12.00989   79.77040406474666 147.1249   88.10167   0.5340548  0.2826415  0.03384322 -0.5346181 49         18.98576   88.10167   0.5076393431402215 0.5050622547780772 0.5754149727860656 2.439071   4331.7572 
4332.589   12.02718   78.83086513409117 143.2735   90.11675   0.5215532  0.2606264  0.02039058 -0.6105057 49         15.011     90.11675   0.5660377339912365 0.5690508156311832 0.6277990294980104 2.415948   4331.957175853018
4332.789000000001 12.01975   79.06968644910739 142.7912   92.89323   0.522263   0.2645786  0.03075844 -0.7212296 49         17.07261   92.89323   0.5588119289374565 0.5739287309101974 0.6344241875270141 2.402563   4332.1571 
4332.989   12.03227   79.21049295260217 145.7712   93.87361   0.5465246  0.3369001  0.1545832  -0.6435527 49         18.04291   93.87361   0.5056887479137512 0.5368831211055525 0.6151402983945288 2.392596   4332.357  
4333.189   12.06797   78.49300905162536 150.0151   91.4017    0.5378738  0.3352961  0.1936869  -0.641697  49         19.14463   91.4017    0.4660656939833849 0.4863967170765128 0.5793782263749056 2.387237   4332.557  
4333.389   12.05799   77.56615023475251 152.9427   84.70071   0.5479462  0.370497   0.2761362  -0.6031852 49         20.52327   84.70071   0.4483245928963227 0.4524612340690635 0.5172326511453441 2.367304   4332.7569 
4333.589   12.06049   77.74042751282222 154.2469   79.60813   0.5565026  0.4201172  0.4093964  -0.4049196 49         19.88449   79.60813   0.4077720651389724 0.4084706478281807 0.4665219373906828 2.366568   4332.9569 
4333.789000000001 12.04441   79.23051210338916 154.6126   79.77995   0.5214438  0.3550103  0.3830443  -0.4048567 49         21.08196   79.77995   0.3723692000358048 0.3674829873646834 0.4455809509823904 2.358073   4333.156800000001
4333.989   12.05492   80.77212123920876 154.7796   83.25352   0.5331889  0.3894732  0.4734246  -0.2835935 49         20.73423   83.25352   0.3695166174613868 0.3627246130371977 0.4563180916154174 2.361123   4333.356701312337
4334.189   12.04514   80.78939416840289 154.9963   84.25299   0.5441204  0.4551543  0.6626473  0.1743404  49         18.41745   84.25299   0.3992052549323511 0.3932857601010869 0.4945880097894831 2.360187   4333.5567 
