~Version
 VERS              .         3.0                           : CWLS LOG ASCII STANDARD - VERSION 3.0
 WRAP              .         NO                            : ONE LINE PER DEPTH STEP
 DLM               .         SPACE                         : DELIMITING CHARACTER(SPACE TAB OR COMMA)
~Well Information
#_______________________________________________________________________________
#
#PARAMETER_NAME    .UNIT     VALUE                         : DESCRIPTION
#_______________________________________________________________________________
STRT               .m        2108.1003                     : First reference value
STOP               .m        4106.9003                     : Last reference value
STEP               .m        0.2                           : Step increment
NULL               .         -9999                         : Missing value
COMP               .         PETROLEO BRASILEIRO S/A       : Company
WELL               .         4-ESS-167_resample            : Well name
FLD                .         GOLFINHO                      : Field
LOC                .                                       : Location
SRVC               .                                       : Service Company
CTRY               .                                       : Country
DATE               .                                       : Service Date
LATI               .         -200010.479                   : Latitude
LONG               .         -394042.854                   : Longitude
GDAT               .         SIRGAS2000                    : Geodetic Datum
API                .         342710319700                  : API number
CNTY               .                                       : County
COUNTRY            .                                       : Country
EDF                .M        25.0                          : Elevation Derrick Floor
HZCS               .         UTM                           : Horizontal Coordinate System
LMF                .         MR                            : Log Measure From
MC                 .         39 W                          : Meridiano Central
ORIG               .         SIGEO EXPORTACAO PERFIL       : Origem dos dados
ORIGINALWELLNAME   .         4ESS 0167  ES                 : 
STAT               .         ESPIRITO SANTO                : State
WDMS               .M        966.0                         : Water Depth to Mean Sea Level
X                  .         429077.0                      : Surface X
Y                  .         7788071.0                     : Surface Y
~Parameter Information Block
#_______________________________________________________________________________
#
#PARAMETER_NAME    .UNIT     VALUE                         : DESCRIPTION
#_______________________________________________________________________________
SET                .         ESS167_resample               : 
TLFAMILY_CALI      .         Caliper                       : 
TLFAMILY_COTA      .         Measured Depth                : 
TLFAMILY_DT        .         Compressional Slowness        : 
TLFAMILY_GR        .         Gamma Ray                     : 
TLFAMILY_INPEFA_1  .         Photoelectric Factor          : 
TLFAMILY_INPEFA_2  .         Photoelectric Factor          : 
TLFAMILY_INPEFA_3  .         Photoelectric Factor          : 
TLFAMILY_INPEFA_4  .         Photoelectric Factor          : 
TLFAMILY_LITO      .                                       : 
TLFAMILY_LLD       .         Deep Resistivity              : 
TLFAMILY_RHOB      .         Bulk Density                  : 
TLFamily_CALI      .         Caliper                       : 
TLFamily_COTA      .                                       : 
TLFamily_DEPT      .         Measured Depth                : 
TLFamily_DT        .         Compressional Slowness        : 
TLFamily_GR        .         Gamma Ray                     : 
TLFamily_INPEFA_1  .         Photoelectric Factor          : 
TLFamily_INPEFA_2  .         Photoelectric Factor          : 
TLFamily_INPEFA_3  .         Photoelectric Factor          : 
TLFamily_INPEFA_4  .         Photoelectric Factor          : 
TLFamily_LITO      .                                       : 
TLFamily_LLD       .         Deep Resistivity              : 
TLFamily_NPHI      .         Neutron Porosity              : 
TLFamily_RHOB      .         Bulk Density                  : 
~Curve Information
#_______________________________________________________________________________
#
#LOGNAME           .UNIT     LOG_ID                        : DESCRIPTION
#_______________________________________________________________________________
DEPT               .m                                      :  {F}
CALI               .in                                     : CALIPER {F}
COTA               .                                       :  {F}
DT                 .us/ft                                  : DELTA-T (ALSO CALLED SLOWNESS OR INTERVAL TRANSIT TIME) {F}
GR                 .gAPI                                   : GAMMA RAY {F}
INPEFA_1           .                                       :  {F}
INPEFA_2           .                                       :  {F}
INPEFA_3           .                                       :  {F}
INPEFA_4           .                                       :  {F}
LITO               .                                       :  {F}
LLD                .ohm.m                                  : LATEROLOG DEEP RESISTIVITY {F}
NPHI               .                                       :  {F}
RHOB               .g/cm3                                  : BULK DENSITY {F}
~Ascii
# ...
2621.1003  12.7063    -2621.1003 116.2639   138.8395   0.01172    -0.08484   0.03602    0.26175    57         1.226099967956543 -9999      2.123     
2621.3003  12.4963    -2621.3003 111.5738   142.7786   0.01669    -0.06246   0.10811    0.3879     57         1.244799971580505 -9999      2.102     
2621.5003  12.6266    -2621.5003 107.8709   153.8896   -0.00126   -0.10316   0.06472    0.33493    57         1.282099962234497 -9999      2.1166    
2621.7003  12.6932    -2621.7003 106.3697   159.5653   0.01131    -0.06925   0.14363    0.45383    57         1.333500027656555 -9999      2.1005    
2621.9003  12.7885    -2621.9003 106.2359   156.5362   -0.01401   -0.12678   0.07356    0.38266    57         1.379699945449829 -9999      2.0813    
2622.1003  12.8485    -2622.1003 106.3359   150.2991   -0.00849   -0.11829   0.09431    0.39654    57         1.418300032615662 -9999      2.1379    
2622.3003  12.831     -2622.3003 106.7246   146.0442   -0.03509   -0.18386   -0.00325   0.24903    57         1.454900026321411 -9999      2.1999    
2622.5003  12.8662    -2622.5003 107.4602   145.4532   -0.03523   -0.19747   -0.03933   0.11615    57         1.520599961280823 -9999      2.1825    
2622.7003  12.804     -2622.7003 108.6969   148.1426   -0.02928   -0.18478   -0.01623   0.08383    57         1.582599997520447 -9999      2.166     
2622.9003  12.8165    -2622.9003 110.3206   151.355    -0.0515    -0.25193   -0.14542   -0.23148   57         1.579300045967102 -9999      2.2099    
2623.1003  12.8187    -2623.1003 111.9155   146.4331   -0.00985   -0.16424   -0.02947   -0.27641   57         1.551399946212769 -9999      2.2644    
2623.3003  12.794     -2623.3003 113.4817   146.2257   0.02037    -0.07846   0.13233    -0.14437   57         1.510400056838989 -9999      2.2903    
2623.5003  12.8451    -2623.5003 115.6158   150.006    0.02956    -0.0483    0.204      -0.11059   57         1.483500003814697 -9999      2.2886    
2623.7003  12.8848    -2623.7003 118.6076   150.9882   0.02361    -0.0262    0.31396    0.13718    57         1.458699941635132 -9999      2.2825    
2623.9003  12.9165    -2623.9003 121.2668   154.3766   -0.0399    -0.18492   0.0705     -0.18097   57         1.442100048065186 -9999      2.2876    
2624.1003  12.9115    -2624.1003 122.8388   152.8223   -0.04615   -0.20342   0.0364     -0.29662   57         1.436499953269959 -9999      2.2954    
2624.3003  12.9123    -2624.3003 123.3397   147.27     -0.02855   -0.18594   0.03126    -0.45011   57         1.432299971580505 -9999      2.2908    
2624.5003  12.9157    -2624.5003 123.6291   147.3968   -0.00953   -0.1234    0.15252    -0.32821   57         1.425999999046326 -9999      2.2777    
2624.7003  12.9166    -2624.7003 124.2691   148.4559   -0.02981   -0.17809   0.06765    -0.47199   57         1.415799975395203 -9999      2.2659    
2624.9003  12.9767    -2624.9003 125.5101   150.4496   -0.03046   -0.18367   0.046      -0.60112   57         1.403599977493286 -9999      2.2602    
2625.1003  12.9673    -2625.1003 126.9585   152.2045   -0.01161   -0.14108   0.11636    -0.55541   57         1.406499981880188 -9999      2.2541    
2625.3003  12.962     -2625.3003 127.8847   154.3884   -0.01079   -0.13275   0.1434     -0.52975   57         1.416599988937378 -9999      2.2453    
2625.5003  12.9228    -2625.5003 128.1013   156.3775   -0.01877   -0.14885   0.13418    -0.52559   57         1.430400013923645 -9999      2.2403    
2625.7003  12.8583    -2625.7003 127.8783   154.2542   -0.02666   -0.17201   0.0975     -0.60436   57         1.462800025939941 -9999      2.2204    
2625.9003  12.8605    -2625.9003 126.8596   153.5601   -0.01499   -0.14136   0.15773    -0.54119   57         1.504500031471252 -9999      2.1984    
2626.1003  12.8474    -2626.1003 124.1764   147.9001   -0.01832   -0.14817   0.15803    -0.54867   57         1.52620005607605 -9999      2.2479    
2626.3003  12.9585    -2626.3003 119.0702   136.0998   0.0053     -0.08169   0.29184    -0.33135   57         1.509400010108948 -9999      2.3403    
2626.5003  13.1808    -2626.5003 115.4455   129.5441   -0.0123    -0.11272   0.2791     -0.24176   57         1.501399993896484 -9999      2.3384    
2626.7003  13.0019    -2626.7003 115.1923   133.7582   -0.04524   -0.19409   0.15847    -0.35931   57         1.514500021934509 -9999      2.2685    
2626.9003  12.9842    -2626.9003 116.0255   148.1516   -0.02842   -0.16093   0.21119    -0.2853    57         1.501199960708618 -9999      2.2488    
2627.1003  12.9884    -2627.1003 117.011    160.7178   -0.03686   -0.18063   0.18872    -0.29216   57         1.455299973487854 -9999      2.2592    
2627.3003  12.9752    -2627.3003 117.9208   157.0481   -0.0357    -0.18457   0.17971    -0.32138   57         1.410599946975708 -9999      2.2516    
2627.5003  12.9883    -2627.5003 118.8371   147.9585   -0.00056   -0.09084   0.35679    -0.02752   57         1.404199957847595 -9999      2.2414    
2627.7003  12.9414    -2627.7003 119.3901   145.7284   -0.03105   -0.15609   0.28292    -0.02599   57         1.434499979019165 -9999      2.2215    
2627.9003  12.8461    -2627.9003 119.3151   147.1298   -0.00404   -0.08543   0.42554    0.26938    57         1.45990002155304 -9999      2.2014    
2628.1003  12.8038    -2628.1003 119.4163   144.123    -0.04474   -0.17254   0.32296    0.28574    57         1.445999979972839 -9999      2.2219    
2628.3003  12.9148    -2628.3003 120.2029   140.4886   -0.0441    -0.18343   0.30262    0.31365    57         1.422999978065491 -9999      2.2515    
2628.5003  12.9789    -2628.5003 121.5905   142.1351   -0.05167   -0.19796   0.29558    0.38835    57         1.400699973106384 -9999      2.2597    
2628.7003  12.9376    -2628.7003 122.8759   145.8116   -0.04673   -0.19444   0.3028     0.45785    57         1.380100011825562 -9999      2.2623    
2628.9003  12.959     -2628.9003 123.1675   146.4106   -0.04965   -0.19597   0.31816    0.56802    57         1.348999977111816 -9999      2.2552    
2629.1003  12.9338    -2629.1003 122.4158   145.1652   -0.05953   -0.22638   0.27294    0.58011    57         1.352100014686585 -9999      2.2475    
2629.3003  12.9334    -2629.3003 121.7163   142.1253   -0.06157   -0.23315   0.26565    0.62217    57         1.37090003490448 -9999      2.2591    
2629.5003  12.9173    -2629.5003 120.8663   141.8468   -0.05486   -0.21812   0.29887    0.74409    57         1.434399962425232 -9999      2.263     
2629.7003  12.9128    -2629.7003 119.866    149.0277   -0.0763    -0.27235   0.21404    0.69493    57         1.536800026893616 -9999      2.252     
2629.9003  12.9312    -2629.9003 119.7044   151.7712   -0.07165   -0.2718    0.20117    0.68669    57         1.597499966621399 -9999      2.2606    
2630.1003  12.9513    -2630.1003 120.3445   149.2969   -0.05826   -0.23576   0.26661    0.83952    57         1.633800029754639 -9999      2.2772    
2630.3003  12.9807    -2630.3003 121.0322   147.8488   -0.08664   -0.30976   0.1389     0.71634    57         1.605999946594238 -9999      2.2641    
2630.5003  12.9726    -2630.5003 120.7889   142.5374   -0.07366   -0.28993   0.14752    0.73856    57         1.593299984931946 -9999      2.217     
2630.7003  12.9815    -2630.7003 119.8928   141.4027   -0.08757   -0.32783   0.07461    0.68743    57         1.582100033760071 -9999      2.1871    
2630.9003  12.9017    -2630.9003 119.1782   142.3036   -0.08319   -0.33031   0.0451     0.6665     57         1.57860004901886 -9999      2.2109    
2631.1003  12.9582    -2631.1003 119.1222   146.0159   -0.0802    -0.32341   0.05002    0.73539    57         1.589200019836426 -9999      2.2585    
2631.3003  12.9765    -2631.3003 119.3646   151.4711   -0.08863   -0.35264   -0.01691   0.69495    57         1.577100038528442 -9999      2.2845    
2631.5003  12.9576    -2631.5003 120.2696   153.0724   -0.08633   -0.35128   -0.03053   0.73947    57         1.576200008392334 -9999      2.2762    
2631.7003  12.9551    -2631.7003 123.2554   151.6103   -0.11422   -0.43235   -0.19527   0.54507    57         1.590000033378601 -9999      2.265     
