~Version
 VERS              .         3.0                           : CWLS LOG ASCII STANDARD - VERSION 3.0
 WRAP              .         NO                            : ONE LINE PER DEPTH STEP
 DLM               .         SPACE                         : DELIMITING CHARACTER(SPACE TAB OR COMMA)
~Well Information
#_______________________________________________________________________________
#
#PARAMETER_NAME    .UNIT     VALUE                         : DESCRIPTION
#_______________________________________________________________________________
STRT               .m        2108.1003                     : First reference value
STOP               .m        4106.9003                     : Last reference value
STEP               .m        0.2                           : Step increment
NULL               .         -9999                         : Missing value
COMP               .         PETROLEO BRASILEIRO S/A       : Company
WELL               .         4-ESS-167_resample            : Well name
FLD                .         GOLFINHO                      : Field
LOC                .                                       : Location
SRVC               .                                       : Service Company
CTRY               .                                       : Country
DATE               .                                       : Service Date
LATI               .         -200010.479                   : Latitude
LONG               .         -394042.854                   : Longitude
GDAT               .         SIRGAS2000                    : Geodetic Datum
API                .         342710319700                  : API number
CNTY               .                                       : County
COUNTRY            .                                       : Country
EDF                .M        25.0                          : Elevation Derrick Floor
HZCS               .         UTM                           : Horizontal Coordinate System
LMF                .         MR                            : Log Measure From
MC                 .         39 W                          : Meridiano Central
ORIG               .         SIGEO EXPORTACAO PERFIL       : Origem dos dados
ORIGINALWELLNAME   .         4ESS 0167  ES                 : 
STAT               .         ESPIRITO SANTO                : State
WDMS               .M        966.0                         : Water Depth to Mean Sea Level
X                  .         429077.0                      : Surface X
Y                  .         7788071.0                     : Surface Y
~Parameter Information Block
#_______________________________________________________________________________
#
#PARAMETER_NAME    .UNIT     VALUE                         : DESCRIPTION
#_______________________________________________________________________________
SET                .         ESS167_resample               : 
TLFAMILY_CALI      .         Caliper                       : 
TLFAMILY_COTA      .         Measured Depth                : 
TLFAMILY_DT        .         Compressional Slowness        : 
TLFAMILY_GR        .         Gamma Ray                     : 
TLFAMILY_INPEFA_1  .         Photoelectric Factor          : 
TLFAMILY_INPEFA_2  .         Photoelectric Factor          : 
TLFAMILY_INPEFA_3  .         Photoelectric Factor          : 
TLFAMILY_INPEFA_4  .         Photoelectric Factor          : 
TLFAMILY_LITO      .                                       : 
TLFAMILY_LLD       .         Deep Resistivity              : 
TLFAMILY_RHOB      .         Bulk Density                  : 
TLFamily_CALI      .         Caliper                       : 
TLFamily_COTA      .                                       : 
TLFamily_DEPT      .         Measured Depth                : 
TLFamily_DT        .         Compressional Slowness        : 
TLFamily_GR        .         Gamma Ray                     : 
TLFamily_INPEFA_1  .         Photoelectric Factor          : 
TLFamily_INPEFA_2  .         Photoelectric Factor          : 
TLFamily_INPEFA_3  .         Photoelectric Factor          : 
TLFamily_INPEFA_4  .         Photoelectric Factor          : 
TLFamily_LITO      .                                       : 
TLFamily_LLD       .         Deep Resistivity              : 
TLFamily_NPHI      .         Neutron Porosity              : 
TLFamily_RHOB      .         Bulk Density                  : 
~Curve Information
#_______________________________________________________________________________
#
#LOGNAME           .UNIT     LOG_ID                        : DESCRIPTION
#_______________________________________________________________________________
DEPT               .m                                      :  {F}
CALI               .in                                     : CALIPER {F}
COTA               .                                       :  {F}
DT                 .us/ft                                  : DELTA-T (ALSO CALLED SLOWNESS OR INTERVAL TRANSIT TIME) {F}
GR                 .gAPI                                   : GAMMA RAY {F}
INPEFA_1           .                                       :  {F}
INPEFA_2           .                                       :  {F}
INPEFA_3           .                                       :  {F}
INPEFA_4           .                                       :  {F}
LITO               .                                       :  {F}
LLD                .ohm.m                                  : LATEROLOG DEEP RESISTIVITY {F}
NPHI               .                                       :  {F}
RHOB               .g/cm3                                  : BULK DENSITY {F}
~Ascii
# ...
3011.7003  12.60957   -3011.7003 106.638    158.5531   0.12163    0.37921    0.52387    0.51828    57         1.29315    -9999      2.46283   
3011.9003  12.80234   -3011.9003 108.0894   166.2949   0.08897    0.3184     0.45572    0.52679    57         1.2753     -9999      2.41932   
3012.1003  12.87097   -3012.1003 107.6555   167.8104   0.08451    0.31549    0.46389    0.61006    57         1.2938     -9999      2.42679   
3012.3003  12.90779   -3012.3003 106.6389   166.182    0.04411    0.23187    0.34627    0.52932    57         1.32979    -9999      2.44699   
3012.5003  12.9223    -3012.5003 106.0956   159.3487   0.01163    0.14433    0.17806    0.26725    57         1.36789    -9999      2.4473    
3012.7003  12.9236    -3012.7003 106.1292   160.4458   0.03673    0.19238    0.21464    0.20192    57         1.38429    -9999      2.4422    
3012.9003  12.92769   -3012.9003 106.2177   160.1997   0.03344    0.19817    0.22577    0.20098    57         1.3757     -9999      2.4364    
3013.1003  12.9356    -3013.1003 106.0805   155.6135   0.0396     0.21066    0.23008    0.16844    57         1.35161    -9999      2.4402    
3013.3003  12.941     -3013.3003 106.0508   155.218    0.01012    0.14862    0.12174    -0.01983   57         1.34661    -9999      2.4485    
3013.5003  12.97967   -3013.5003 106.4146   157.8983   0.0406     0.21502    0.2039     0.0199     57         1.34781    -9999      2.4432    
3013.7003  12.92906   -3013.7003 107.1556   157.723    0.03785    0.23421    0.26334    0.16677    57         1.34001    -9999      2.4349    
3013.9003  12.90432   -3013.9003 107.5576   158.5065   0.00093    0.14631    0.1212     0.01324    57         1.33619    -9999      2.4368    
3014.1003  12.9069    -3014.1003 107.3005   160.0554   -0.00083   0.14363    0.10436    -0.03274   57         1.33489    -9999      2.44899   
3014.3003  12.9026    -3014.3003 106.586    158.1131   -0.00782   0.12869    0.07179    -0.07836   57         1.35979    -9999      2.4544    
3014.5003  12.90979   -3014.5003 105.892    156.9556   -0.02027   0.09854    0.00886    -0.17514   57         1.38439    -9999      2.4494    
3014.7003  12.92769   -3014.7003 105.365    157.6943   -0.03491   0.05613    -0.0848    -0.35562   57         1.397      -9999      2.4491    
3014.9003  12.94379   -3014.9003 105.0667   161.5049   -0.01845   0.09119    -0.05228   -0.38941   57         1.4081     -9999      2.4554    
3015.1003  12.9423    -3015.1003 105.108    164.8413   -0.01303   0.11237    -0.01727   -0.35643   57         1.44728    -9999      2.4598    
3015.3003  12.95689   -3015.3003 105.7099   168.9305   -0.03051   0.06694    -0.10268   -0.50608   57         1.4519     -9999      2.463     
3015.5003  12.9648    -3015.5003 106.8897   174.3036   0.00751    0.16471    0.06433    -0.28726   57         1.40512    -9999      2.4631    
3015.7003  12.9636    -3015.7003 108.0773   169.5824   -0.00207   0.16135    0.09798    -0.1588    57         1.32633    -9999      2.457     
3015.9003  12.9689    -3015.9003 108.6801   161.9007   -0.01572   0.14677    0.11905    -0.01095   57         1.26493    -9999      2.4587    
3016.1003  12.98129   -3016.1003 108.4418   157.1023   -0.03108   0.12161    0.11736    0.10293    57         1.25111    -9999      2.45001   
3016.3003  12.98751   -3016.3003 107.5132   157.5875   -0.07717   0.01533    -0.03149   -0.03586   57         1.28259    -9999      2.42491   
3016.5003  13.00219   -3016.5003 106.356    155.546    -0.04477   0.08598    0.08584    0.11532    57         1.34106    -9999      2.43119   
3016.7003  13.0033    -3016.7003 105.6259   151.7524   -0.06527   0.06115    0.0994     0.23307    57         1.39557    -9999      2.45699   
3016.9003  13.0033    -3016.9003 105.6336   156.5522   -0.06679   0.05471    0.10714    0.28463    57         1.44168    -9999      2.4606    
3017.1003  12.997     -3017.1003 105.7612   161.8441   -0.09374   0.00509    0.06329    0.28313    57         1.4644     -9999      2.43841   
3017.3003  12.93064   -3017.3003 105.204    161.6261   -0.08272   0.02913    0.12106    0.39635    57         1.475      -9999      2.4242    
3017.5003  12.93528   -3017.5003 103.9758   161.5826   -0.11933   -0.04493   0.03535    0.33467    57         1.49809    -9999      2.4257    
3017.7003  12.99858   -3017.7003 102.645    162.5143   -0.14074   -0.11281   -0.08588   0.10731    57         1.53668    -9999      2.41091   
3017.9003  12.97866   -3017.9003 101.5793   158.834    -0.11198   -0.0427    0.03159    0.18276    57         1.57807    -9999      2.4038    
3018.1003  12.9859    -3018.1003 101.1955   152.8346   -0.10011   0.00065    0.1422     0.35603    57         1.56881    -9999      2.41719   
3018.3003  13.00979   -3018.3003 101.6973   151.9057   -0.15155   -0.11279   -0.01152   0.15701    57         1.50843    -9999      2.39812   
3018.5003  13.00461   -3018.5003 102.3271   148.6294   -0.14044   -0.09794   0.00711    0.0862     57         1.45123    -9999      2.36601   
3018.7003  12.97231   -3018.7003 101.9245   145.2103   -0.15976   -0.1343    -0.03184   -0.03567   57         1.4572     -9999      2.38948   
3018.9003  12.9884    -3018.9003 100.9092   149.6791   -0.13608   -0.08156   0.06145    -0.00761   57         1.49588    -9999      2.41999   
3019.1003  12.96831   -3019.1003 100.4778   156.1765   -0.15196   -0.10077   0.07036    -0.03048   57         1.52998    -9999      2.4186    
3019.3003  12.99088   -3019.3003 101.8341   164.9234   -0.18364   -0.18313   -0.05617   -0.32094   57         1.5326     -9999      2.43159   
3019.5003  12.93931   -3019.5003 105.2839   164.872    -0.11715   -0.0157    0.2382     -0.04559   57         1.51762    -9999      2.45179   
3019.7003  12.95129   -3019.7003 110.0037   160.5329   -0.13612   -0.02465   0.30862    0.11079    57         1.49092    -9999      2.4527    
3019.9003  12.9545    -3019.9003 113.0962   159.7535   -0.18017   -0.1188    0.20349    -0.01616   57         1.46261    -9999      2.4466    
3020.1003  12.98128   -3020.1003 114.2212   162.1414   -0.17449   -0.09914   0.27261    0.06201    57         1.40123    -9999      2.43601   
3020.3003  13.01198   -3020.3003 113.9986   162.002    -0.18284   -0.09996   0.33145    0.20632    57         1.34042    -9999      2.36464   
3020.5003  12.94586   -3020.5003 113.4651   163.3038   -0.20977   -0.1556    0.28919    0.22162    57         1.29911    -9999      2.24756   
3020.7003  12.86674   -3020.7003 112.8514   168.248    -0.2277    -0.19349   0.26636    0.25676    57         1.2922     -9999      2.2192    
3020.9003  13.31269   -3020.9003 112.7163   164.7615   -0.2437    -0.22592   0.25561    0.34118    57         1.32568    -9999      2.30654   
3021.1003  13.11553   -3021.1003 113.9536   155.7288   -0.28855   -0.33872   0.09172    0.2173     57         1.38228    -9999      2.39036   
3021.3003  12.53946   -3021.3003 115.8264   158.9517   -0.27663   -0.32356   0.11571    0.29179    57         1.41389    -9999      2.4025    
3021.5003  12.5417    -3021.5003 116.8845   163.7973   -0.28891   -0.344     0.11775    0.48494    57         1.37332    -9999      2.39191   
3021.7003  12.47842   -3021.7003 115.3749   163.239    -0.33904   -0.47625   -0.09468   0.36178    57         1.32421    -9999      2.38561   
3021.9003  12.63336   -3021.9003 110.6374   158.6795   -0.35402   -0.53444   -0.21968   0.30199    57         1.33479    -9999      2.33943   
3022.1003  12.63751   -3022.1003 103.4286   155.5801   -0.35909   -0.57397   -0.32992   0.23742    57         1.40558    -9999      2.28132   
3022.3003  12.51762   -3022.3003 100.129    159.9798   -0.37011   -0.63177   -0.4934    0.03629    57         1.45468    -9999      2.31078   
3022.5003  12.5622    -3022.5003 100.748    153.9086   -0.36387   -0.65735   -0.6327    -0.23636   57         1.4438     -9999      2.39766   
3022.7003  12.535     -3022.7003 102.4238   145.7304   -0.31263   -0.56573   -0.58061   -0.29855   57         1.4278     -9999      2.42989   
