~Version
 VERS              .         2.0                           : CWLS LOG ASCII STANDARD - VERSION 2.0
 WRAP              .         NO                            : ONE LINE PER DEPTH STEP
 DLM               .         SPACE                         : DELIMITING CHARACTER(SPACE TAB OR COMMA)
~Well Information
#_______________________________________________________________________________
#
#PARAMETER_NAME    .UNIT     VALUE                         : DESCRIPTION
#_______________________________________________________________________________
STRT               .m        1537                          : First reference value
STOP               .m        5197.8                        : Last reference value
STEP               .m        0.2                           : Step increment
NULL               .         -9999                         : Missing value
COMP               .         PETROLEO BRASILEIRO S/A       : Company
WELL               .         4-ESS-151_resample            : Well name
FLD                .         GOLFINHO                      : Field
LOC                .                                       : Location
CNTY               .                                       : County
STAT               .         ESPIRITO SANTO                : State
CTRY               .                                       : Country
SRVC               .                                       : Service Company
DATE               .                                       : Date
API                .         342710302200                  : API number
EDF                .M        18.00                         : Elevation Derrick Floor
GDAT               .         SIRGAS2000                    : Geodetic Datum
HZCS               .         UTM                           : Horizontal Coordinate System
LMF                .         MR                            : Log Measure From
LATI               .         -19_56_15.689                 : Latitude
LONG               .         -39_25_50.073                 : Longitude
MC                 .         39 W                          : Meridiano Central
ORIG               .         SIGEO EXPORTACAO PERFIL       : Origem dos dados
ORIGINALWELLNAME   .         4ESS 0151  ES                 : 
WDMS               .M        1332.00                       : Water Depth to Mean Sea Level
X                  .         454939.60                     : Surface X
Y                  .         7795340.90                    : Surface Y
~Parameter Information Block
#_______________________________________________________________________________
#
#PARAMETER_NAME    .UNIT     VALUE                         : DESCRIPTION
#_______________________________________________________________________________
SET                .         ESS151_resample               : 
TLFamily_CALI      .         Caliper                       : 
TLFamily_DEPT      .         Measured Depth                : 
TLFamily_DT        .         Compressional Slowness        : 
TLFamily_GR        .         Gamma Ray                     : 
TLFamily_INPEFA_1  .                                       : 
TLFamily_INPEFA_2  .                                       : 
TLFamily_INPEFA_3  .                                       : 
TLFamily_INPEFA_4  .                                       : 
TLFamily_LITO      .                                       : 
TLFamily_LLD       .         Deep Resistivity              : 
TLFamily_NPHI      .         Neutron Porosity              : 
TLFamily_OG        .                                       : 
TLFamily_RHOB      .         Bulk Density                  : 
~Curve Information
#_______________________________________________________________________________
#
#LOGNAME           .UNIT     LOG_ID                        : DESCRIPTION
#_______________________________________________________________________________
DEPT               .m                                      :  
CALI               .in                                     : CALIPER 
DT                 .us/ft                                  : DELTA-T (ALSO CALLED SLOWNESS OR INTERVAL TRANSIT TIME) 
GR                 .gAPI                                   : GAMMA RAY 
INPEFA_1           .                                       :  
INPEFA_2           .                                       :  
INPEFA_3           .                                       :  
INPEFA_4           .                                       :  
LITO               .                                       :  
LLD                .ohm.m                                  : LATEROLOG DEEP RESISTIVITY 
NPHI               .%                                      : THERMAL NEUTRON POROSITY (ORIGINAL RATIO METHOD) IN SELECTED LITHOLOGY 
OG                 .                                       :  
RHOB               .g/cm3                                  : BULK DENSITY 
~Ascii
# ...
3721       12.2846    62.4957    60.4533    0.03117279 0.2975467  -0.01288924 -0.1576805 49         6.569301   5.6128     60.4533    2.5811    
3721.2     12.3898    63.8835    70.071     0.02408201 0.2831909  -0.07067738 -0.2700965 49         4.6925     7.3439     70.071     2.5408    
3721.4     12.4191    70.4873    81.6992    0.02371386 0.2881922  -0.09308333 -0.3518402 49         3.5001     13.4415    81.6992    2.4153    
3721.6     12.4721    78.8908    89.8405    0.02151434 0.2871088  -0.1256217 -0.4903904 57         2.9339     20.4533    89.8405    2.2719    
3721.8     12.3759    81.6612    95.8361    0.03770526 0.3454275  -0.03742455 -0.430446  57         2.6857     26.728     95.8361    2.2546    
3722       12.8286    81.4999    101.3612   0.02871877 0.3400903  -0.0315123 -0.4430722 57         2.5823     28.9359    101.3612   2.3409    
3722.2     13.6396    80.3393    106.9052   0.02398902 0.3536757  0.02542473 -0.3373495 57         2.6166     29.5299    106.9052   2.3876    
3722.4     13.5765    79.4797    109.1603   0.01389134 0.3435077  0.04533857 -0.2541144 57         2.6525     29.8356    109.1603   2.3331    
3722.6     12.9894    79.3605    105.7016   -0.01083411 0.29205    -0.002793262 -0.2853637 57         2.5252     29.1       105.7016   2.2831    
3722.8     12.8008    79.9683    99.1185    -0.00382125 0.3231718  0.08857019 -0.1148794 57         2.327      28.5784    99.1185    2.308     
3723       12.8315    80.3844    93.3385    -0.04271591 0.2421618  0.01768561 -0.1635285 57         2.1948     26.8997    93.3385    2.2584    
3723.2     12.9732    80.3722    91.9856    -0.05001565 0.2271464  0.01509266 -0.2598467 57         2.1478     26.6355    91.9856    2.1827    
3723.4     13.5168    80.6638    93.4472    -0.0248611 0.3157442  0.2097336  -0.03731636 57         2.1        27.7413    93.4472    2.2714    
3723.6     13.4794    81.4232    92.9977    -0.05221785 0.2838748  0.2520965  0.08007313 57         2.0061     26.9381    92.9977    2.4215    
3723.8     13.1113    82.2223    92.2775    -0.06843494 0.2729048  0.3253074  0.2631757  57         1.864      23.0435    92.2775    2.4709    
3724       13.0668    82.6369    92.8279    -0.09761269 0.2210421  0.3233989  0.3874511  57         1.7609     20.51      92.8279    2.4656    
3724.2     13.0509    82.5669    93.7148    -0.1319011 0.1446081  0.2642977  0.4008071  57         1.7067     20.8648    93.7148    2.4576    
3724.4     13.1207    82.1953    93.51      -0.1500793 0.1064099  0.2535491  0.4692028  57         1.7208     22.1174    93.51      2.4089    
3724.6     12.9836    81.8231    92.1541    -0.1810234 0.01962495 0.1412858  0.3318224  57         1.7622     24.0175    92.1541    2.3492    
3724.8     12.9799    81.8438    88.697     -0.1865448 -0.009870131 0.09603946 0.1790786  57         1.8018     25.9272    88.697     2.3564    
3725       12.9334    82.3098    86.8786    -0.1716813 0.02640164 0.1841543  0.2471256  57         1.7775     23.9762    86.8786    2.402     
3725.2     12.8906    83.0379    89.1482    -0.1962986 -0.03885584 0.1274616  0.1738405  57         1.7319     21.1048    89.1482    2.4182    
3725.4     12.9168    83.9026    92.6721    -0.2083766 -0.08309024 0.08336175 0.01532049 57         1.6631     21.7597    92.6721    2.4079    
3725.6     12.8744    84.6954    97.2912    -0.1871422 -0.03118703 0.2111391  0.09677111 57         1.6634     24.6052    97.2912    2.4094    
3725.8     12.8096    85.1828    98.5496    -0.1908729 -0.02563069 0.3111592  0.2658782  57         1.7173     25.3345    98.5496    2.4252    
3726       12.6726    85.6752    101.0682   -0.2251099 -0.09700398 0.3073313  0.405172   57         1.7299     24.6169    101.0682   2.435     
3726.2     12.6532    87.3989    103.4786   -0.2508273 -0.166908  0.2753273  0.4850085  57         1.7521     24.3136    103.4786   2.4262    
3726.4     12.6705    90.6798    99.2841    -0.2896909 -0.2732066 0.1680923  0.4676608  57         1.785      24.4976    99.2841    2.4061    
3726.6     12.6929    94.6864    97.2599    -0.3201118 -0.369788  0.04160029 0.3586437  57         1.7298     24.4197    97.2599    2.4006    
3726.8     12.6939    99.1329    100.3337   -0.3019266 -0.3513891 0.06477573 0.4145848  57         1.5698     24.9963    100.3337   2.3865    
3727       12.505     103.1861   105.2556   -0.3035688 -0.3585039 0.08657666 0.6329797  57         1.4066     27.6444    105.2556   2.3306    
3727.2     12.4782    105.136    110.8431   -0.3564156 -0.5236242 -0.1864381 0.4175689  57         1.3233     32.8309    110.8431   2.2781    
3727.4     12.6656    103.9938   113.949    -0.3548299 -0.5668948 -0.3339    0.1653061  57         1.3274     38.3274    113.949    2.2393    
3727.6     12.6963    100.2487   114.4559   -0.3148285 -0.5001424 -0.3081065 0.08771154 57         1.404      38.9181    114.4559   2.1932    
3727.8     12.7363    95.6047    111.4649   -0.3077283 -0.4918687 -0.3351349 0.01098434 57         1.4957     35.7475    111.4649   2.2262    
3728       12.5629    92.0298    104.5217   -0.2908233 -0.4705187 -0.3625152 -0.12566   57         1.4961     30.308     104.5217   2.3425    
3728.2     12.0965    90.5676    100.9721   -0.2556335 -0.3865214 -0.2726789 -0.1042894 57         1.3979     26.3214    100.9721   2.4038    
3728.4     12.0561    90.7194    101.4198   -0.254265  -0.3717972 -0.2566731 -0.09494536 57         1.2783     27.1017    101.4198   2.3768    
3728.6     12.0796    90.356     97.987     -0.2507376 -0.3578598 -0.246764  -0.06170733 57         1.2157     28.2243    97.987     2.3423    
3728.8     12.0856    88.0525    93.6385    -0.2658121 -0.4020651 -0.3480245 -0.2269411 57         1.2908     25.4619    93.6385    2.3456    
3729       12.1002    84.555     97.0072    -0.2428596 -0.3502362 -0.3114443 -0.2473349 57         1.4904     22.5513    97.0072    2.3705    
3729.2     12.121     81.5049    103.123    -0.2250049 -0.2879449 -0.2099107 -0.09328685 57         1.7811     23.5114    103.123    2.4023    
3729.4     12.1987    79.9173    109.2387   -0.2459764 -0.3340119 -0.2821179 -0.1395603 57         1.9098     25.9407    109.2387   2.418     
3729.6     12.3586    80.3006    113.8947   -0.2279831 -0.2857086 -0.2210647 -0.06389166 57         1.7691     26.7335    113.8947   2.4034    
3729.8     12.4252    82.1506    108.5908   -0.2270144 -0.2644037 -0.1650369 0.1008598  57         1.5571     26.9671    108.5908   2.3883    
3730       12.245     84.1938    99.9109    -0.2329313 -0.2678564 -0.1563187 0.1983723  57         1.5174     26.0743    99.9109    2.3922    
3730.2     12.0984    85.0459    100.0055   -0.2449993 -0.2905453 -0.1871839 0.2096408  57         1.6155     23.682     100.0055   2.4081    
3730.4     12.0894    84.8274    100.7919   -0.2494718 -0.2992715 -0.2087976 0.1845186  57         1.7235     20.7217    100.7919   2.4217    
3730.6     12.1153    83.7309    91.4043    -0.2417742 -0.2803646 -0.1974402 0.1416069  57         1.6544     18.0886    91.4043    2.4105    
3730.8     12.128     81.2584    80.6428    -0.2283656 -0.231561  -0.1117503 0.245232   57         1.5096     16.5289    80.6428    2.381     
3731       12.1031    78.1655    72.8375    -0.2336351 -0.2303477 -0.09147445 0.2864637  49         1.5424     15.1564    72.8375    2.3702    
3731.2     12.0795    76.0234    65.1296    -0.2425953 -0.2428109 -0.1027528 0.2538838  49         1.6814     13.3554    65.1296    2.3784    
3731.4     12.0169    76.0064    62.8787    -0.2493982 -0.25621   -0.1325112 0.1004376  49         1.7004     11.9613    62.8787    2.3818    
3731.6     12.0305    77.8522    65.974     -0.2324011 -0.1975024 -0.04180239 0.0638184  49         1.3536     11.9598    65.974     2.3639    
3731.8     12.0469    80.5946    70.944     -0.2215104 -0.1439063 0.0641091  0.1111121  49         0.9582     13.3462    70.944     2.3258    
3732       12.0596    82.8645    71.3128    -0.2414486 -0.1761585 0.03062785 -0.01721926 49         0.6574     15.9469    71.3128    2.2951    
