~Version
 VERS              .         2.0                           : CWLS LOG ASCII STANDARD - VERSION 2.0
 WRAP              .         NO                            : ONE LINE PER DEPTH STEP
 DLM               .         SPACE                         : DELIMITING CHARACTER(SPACE TAB OR COMMA)
~Well Information
#_______________________________________________________________________________
#
#PARAMETER_NAME    .UNIT     VALUE                         : DESCRIPTION
#_______________________________________________________________________________
STRT               .m        1542                          : First reference value
STOP               .m        5640.8                        : Last reference value
STEP               .m        0.2                           : Step increment
NULL               .         -9999                         : Missing value
COMP               .         PETROLEO BRASILEIRO S/A       : Company
WELL               .         4-ESS-174A_resample           : Well name
FLD                .         GOLFINHO                      : Field
LOC                .                                       : Location
CNTY               .                                       : County
STAT               .         ESPIRITO SANTO                : State
CTRY               .                                       : Country
SRVC               .                                       : Service Company
DATE               .                                       : Date
API                .         342710322400                  : API number
EDF                .M        19.00                         : Elevation Derrick Floor
GDAT               .         SIRGAS2000                    : Geodetic Datum
HZCS               .         UTM                           : Horizontal Coordinate System
LMF                .         MR                            : Log Measure From
LATI               .         -19_56_54.869                 : Latitude
LONG               .         -39_29_58.132                 : Longitude
MC                 .         39 W                          : Meridiano Central
ORIG               .         SIGEO EXPORTACAO PERFIL       : Origem dos dados
ORIGINALWELLNAME   .         4ESS 0174A ES                 : 
WDMS               .M        1199.00                       : Water Depth to Mean Sea Level
X                  .         447729.60                     : Surface X
Y                  .         7794048.90                    : Surface Y
~Parameter Information Block
#_______________________________________________________________________________
#
#PARAMETER_NAME    .UNIT     VALUE                         : DESCRIPTION
#_______________________________________________________________________________
SET                .         ESS174A_resample              : 
TLFamily_CALI      .         Caliper                       : 
TLFamily_DEPT      .         Measured Depth                : 
TLFamily_DT        .         Compressional Slowness        : 
TLFamily_GR        .         Gamma Ray                     : 
TLFamily_INPEFA_1  .                                       : 
TLFamily_INPEFA_2  .                                       : 
TLFamily_INPEFA_3  .                                       : 
TLFamily_INPEFA_4  .                                       : 
TLFamily_LITO      .                                       : 
TLFamily_LLD       .         Deep Resistivity              : 
TLFamily_NPHI      .         Neutron Porosity              : 
TLFamily_OG        .                                       : 
TLFamily_RHOB      .         Bulk Density                  : 
~Curve Information
#_______________________________________________________________________________
#
#LOGNAME           .UNIT     LOG_ID                        : DESCRIPTION
#_______________________________________________________________________________
DEPT               .m                                      :  
CALI               .in                                     : CALIPER 
DT                 .us/ft                                  : DELTA-T (ALSO CALLED SLOWNESS OR INTERVAL TRANSIT TIME) 
GR                 .gAPI                                   : GAMMA RAY 
INPEFA_1           .                                       :  
INPEFA_2           .                                       :  
INPEFA_3           .                                       :  
INPEFA_4           .                                       :  
LITO               .                                       :  
LLD                .ohm.m                                  : LATEROLOG DEEP RESISTIVITY 
NPHI               .%                                      : THERMAL NEUTRON POROSITY (ORIGINAL RATIO METHOD) IN SELECTED LITHOLOGY 
OG                 .                                       :  
RHOB               .g/cm3                                  : BULK DENSITY 
~Ascii
# ...
3512.6     12.7117    101.3364   104.7166   0.1105662  -0.00324216 0.3118772  0.434461   57         1.22529995441459 28.2622    104.7166   2.3908    
3512.8     12.7084    98.8961    108.5536   0.1024246  -0.01982586 0.2661521  0.3364725  57         1.312000036239624 28.8229    108.5536   2.4112    
3513       12.7133    98.62      112.9814   0.1071444  -0.009677187 0.2688781  0.309853   57         1.287400007247925 27.9199    112.9814   2.4213    
3513.2     12.7163    99.6543    110.6296   0.1037459  -0.01413402 0.2479286  0.2554786  57         1.292999982833862 26.339     110.6296   2.4273    
3513.4     12.7163    100.4086   106.9196   0.1006054  -0.0216153 0.2150798  0.1656178  57         1.246099948883057 26.4984    106.9196   2.4332    
3513.6     12.7145    100.1546   108.8496   0.1012457  -0.01933515 0.2023721  0.1114328  57         1.269400000572351 27.3177    108.8496   2.4373    
3513.8     12.7158    99.1327    111.2691   0.09447563 -0.03468234 0.1539531  -0.009206819 57         1.304200053215027 26.711     111.2691   2.4426    
3514       12.7199    98.4495    112.2992   0.09512287 -0.03410118 0.1344362  -0.09557738 57         1.371600031852722 26.8081    112.2992   2.4458    
3514.2     12.7255    98.1806    115.7365   0.08873949 -0.04975372 0.08079097 -0.2586045 57         1.352100014686585 26.6217    115.7365   2.4435    
3514.4     12.7242    98.2693    117.7925   0.09089765 -0.0483513 0.05486961 -0.4017835 57         1.429000020027161 26.8585    117.7925   2.4435    
3514.6     12.7192    98.7665    115.1864   0.1060147  -0.01892499 0.08254298 -0.4639642 57         1.445600032806388 27.2265    115.1864   2.4565    
3514.8     12.7189    99.4375    111.6001   0.1141864  0.00242384 0.1072074  -0.4992061 57         1.447800040245056 26.9342    111.6001   2.4673    
3515       12.7179    100.0412   112.6347   0.1293076  0.0354127  0.1505618  -0.5071846 57         1.390499949455261 26.7424    112.6347   2.4612    
3515.2     12.7227    100.4111   114.0565   0.1374559  0.05773848 0.1816272  -0.5119387 57         1.350600004196167 26.2146    114.0565   2.4383    
3515.4     12.7369    100.3065   114.7188   0.1450338  0.07909312 0.2139654  -0.4980525 57         1.35290002822876 27.7839    114.7188   2.4185    
3515.6     12.7509    99.3772    116.4384   0.1496911  0.09444515 0.2367093  -0.4887574 57         1.417799949646124 30.142     116.4384   2.4256    
3515.8     12.7179    97.6846    118.5817   0.1622842  0.131102   0.3107843  -0.3515222 57         1.479400038719177 28.8145    118.5817   2.4335    
3516       12.7153    95.9975    117.6735   0.1599293  0.1350678  0.325059   -0.2911198 57         1.531800031661987 25.8906    117.6735   2.4374    
3516.2     12.7279    94.9915    115.6131   0.1594879  0.1446965  0.3538188  -0.184968  57         1.577200055122376 25.3341    115.6131   2.4554    
3516.4     12.727     94.4313    114.53     0.1454207  0.1198288  0.309238   -0.2120994 57         1.563899993896484 26.4331    114.53     2.4557    
3516.6     12.7337    93.5961    113.8772   0.1416659  0.1165297  0.3027648  -0.1837708 57         1.581900000572367 27.2576    113.8772   2.4489    
3516.8     12.7434    91.9533    114.033    0.1325956  0.1015251  0.2753915  -0.1819266 57         1.678300023078919 27.3094    114.033    2.4643    
3517       12.7389    89.6374    114.209    0.1293549  0.09629703 0.2606008  -0.1794702 57         1.81439995765686 24.4769    114.209    2.4664    
3517.2     12.7481    87.2363    114.175    0.1334543  0.1088614  0.2830287  -0.1044319 57         1.996000051498413 22.565     114.175    2.4476    
3517.4     12.7531    85.5524    113.2597   0.1269109  0.09951525 0.2669038  -0.07960068 57         2.106800079345703 22.6662    113.2597   2.4335    
3517.6     12.7521    84.8544    108.2824   0.1245667  0.09587019 0.2554009  -0.06488045 57         2.131799936294224 22.2177    108.2824   2.4261    
3517.8     12.7521    84.8808    102.3314   0.1373392  0.1300235  0.3264394  0.124695   57         2.095900058746338 21.0671    102.3314   2.422     
3518       12.7587    85.4485    97.1017    0.1227215  0.1043853  0.2848184  0.1428365  57         2.038500070571899 20.5858    97.1017    2.4228    
3518.2     12.7563    86.6546    93.5082    0.113475   0.08758219 0.2539731  0.1596121  57         1.928400039672852 21.4175    93.5082    2.4344    
3518.4     12.7573    88.2212    92.5163    0.1056935  0.07193284 0.2214566  0.1600926  57         1.888299942016602 22.0683    92.5163    2.4442    
3518.6     12.7553    89.8201    93.6404    0.1023433  0.06674523 0.2090043  0.191682   57         1.84179997444139 22.4744    93.6404    2.4448    
3518.8     12.7479    91.4948    94.2637    0.0948302  0.04985351 0.1694032  0.1618856  57         1.771600008010864 23.2923    94.2637    2.4457    
3519       12.7521    93.1381    95.7958    0.1003832  0.0641037  0.1936095  0.249079   57         1.642899990081787 24.5127    95.7958    2.445     
3519.2     12.7572    94.6173    99.6122    0.09103259 0.04517213 0.1537963  0.2303156  57         1.538699984550476 25.9824    99.6122    2.4454    
3519.4     12.7672    95.5299    105.6313   0.08308921 0.02704125 0.1094628  0.1797935  57         1.525099992752075 26.0725    105.6313   2.4418    
3519.6     12.7322    95.3214    111.1514   0.08076811 0.02055431 0.08603342 0.1531365  57         1.534899950027555 25.9072    111.1514   2.4347    
3519.8     12.7234    94.122     114.9807   0.08150978 0.02117033 0.07628036 0.1435655  57         1.523599982261658 24.9945    114.9807   2.4439    
3520       12.7169    93.4823    116.5648   0.08504711 0.03042669 0.08791703 0.1816103  57         1.555799961090088 24.6576    116.5648   2.4571    
3520.2     12.7104    93.7454    115.1693   0.08667011 0.03583424 0.09389673 0.2187633  57         1.526399970054627 24.6624    115.1693   2.4536    
3520.4     12.7008    94.7928    113.987    0.0727967  0.008557498 0.03806417 0.1525229  57         1.482699990272522 25.1703    113.987    2.4476    
3520.6     12.7036    96.1738    114.0907   0.06787569 -0.005968198 -0.006046136 0.06352583 57         1.426300048828156 25.5491    114.0907   2.456     
3520.8     12.7059    97.3397    112.0222   0.06660224 -0.008813502 -0.02350217 0.02106805 57         1.406700015068054 25.4827    112.0222   2.465     
3521       12.7077    98.0216    111.9382   0.05954665 -0.02590607 -0.07093985 -0.08305832 57         1.294999957084656 26.2011    111.9382   2.4544    
3521.2     12.707     98.9386    116.1049   0.05223486 -0.04474873 -0.1261605 -0.2259552 57         1.30649995803833 26.7817    116.1049   2.4449    
3521.4     12.7044    100.6475   120.2079   0.05437616 -0.04573328 -0.1532445 -0.3533213 57         1.314200043678284 27.4182    120.2079   2.4485    
3521.6     12.7014    102.768    121.6576   0.06460465 -0.02687078 -0.140019  -0.4197761 57         1.283699989318848 28.2624    121.6576   2.4396    
3521.8     12.7004    103.2425   121.7796   0.07844663 0.004599504 -0.09307864 -0.4037811 57         1.280400037765503 28.0507    121.7796   2.4222    
3522       12.6944    101.5513   120.0424   0.08461356 0.01839214 -0.08058957 -0.4435606 57         1.335500001907349 27.4564    120.0424   2.4168    
3522.2     12.6954    98.7299    118.7635   0.0932291  0.04035782 -0.04714796 -0.4315304 57         1.376399993896484 27.0614    118.7635   2.4234    
3522.4     12.698     97.2633    119.8093   0.09511206 0.04765755 -0.04000094 -0.4503546 57         1.446200013160706 26.1321    119.8093   2.433     
3522.6     12.6928    97.1681    120.6496   0.09620536 0.05215916 -0.04003271 -0.4836549 57         1.518100023269672 25.0008    120.6496   2.4452    
3522.8     12.6928    97.539     119.2235   0.1162654  0.1005835  0.05128355 -0.3301786 57         1.483399987220764 25.2032    119.2235   2.4557    
3523       12.6914    97.3595    116.411    0.1134012  0.1022019  0.06120506 -0.2713068 57         1.522899985313416 25.7378    116.411    2.4521    
3523.2     12.7       96.7093    113.7633   0.103615   0.08654664 0.03491506 -0.269993  57         1.520400047302246 26.6729    113.7633   2.4451    
