~Version
 VERS              .         3.0                           : CWLS LOG ASCII STANDARD - VERSION 3.0
 WRAP              .         NO                            : ONE LINE PER DEPTH STEP
 DLM               .         SPACE                         : DELIMITING CHARACTER(SPACE TAB OR COMMA)
~Well Information
#_______________________________________________________________________________
#
#PARAMETER_NAME    .UNIT     VALUE                         : DESCRIPTION
#_______________________________________________________________________________
STRT               .m        2108.1003                     : First reference value
STOP               .m        4106.9003                     : Last reference value
STEP               .m        0.2                           : Step increment
NULL               .         -9999                         : Missing value
COMP               .         PETROLEO BRASILEIRO S/A       : Company
WELL               .         4-ESS-167_resample            : Well name
FLD                .         GOLFINHO                      : Field
LOC                .                                       : Location
SRVC               .                                       : Service Company
CTRY               .                                       : Country
DATE               .                                       : Service Date
LATI               .         -200010.479                   : Latitude
LONG               .         -394042.854                   : Longitude
GDAT               .         SIRGAS2000                    : Geodetic Datum
API                .         342710319700                  : API number
CNTY               .                                       : County
COUNTRY            .                                       : Country
EDF                .M        25.0                          : Elevation Derrick Floor
HZCS               .         UTM                           : Horizontal Coordinate System
LMF                .         MR                            : Log Measure From
MC                 .         39 W                          : Meridiano Central
ORIG               .         SIGEO EXPORTACAO PERFIL       : Origem dos dados
ORIGINALWELLNAME   .         4ESS 0167  ES                 : 
STAT               .         ESPIRITO SANTO                : State
WDMS               .M        966.0                         : Water Depth to Mean Sea Level
X                  .         429077.0                      : Surface X
Y                  .         7788071.0                     : Surface Y
~Parameter Information Block
#_______________________________________________________________________________
#
#PARAMETER_NAME    .UNIT     VALUE                         : DESCRIPTION
#_______________________________________________________________________________
SET                .         ESS167_resample               : 
TLFAMILY_CALI      .         Caliper                       : 
TLFAMILY_COTA      .         Measured Depth                : 
TLFAMILY_DT        .         Compressional Slowness        : 
TLFAMILY_GR        .         Gamma Ray                     : 
TLFAMILY_INPEFA_1  .         Photoelectric Factor          : 
TLFAMILY_INPEFA_2  .         Photoelectric Factor          : 
TLFAMILY_INPEFA_3  .         Photoelectric Factor          : 
TLFAMILY_INPEFA_4  .         Photoelectric Factor          : 
TLFAMILY_LITO      .                                       : 
TLFAMILY_LLD       .         Deep Resistivity              : 
TLFAMILY_RHOB      .         Bulk Density                  : 
TLFamily_CALI      .         Caliper                       : 
TLFamily_COTA      .                                       : 
TLFamily_DEPT      .         Measured Depth                : 
TLFamily_DT        .         Compressional Slowness        : 
TLFamily_GR        .         Gamma Ray                     : 
TLFamily_INPEFA_1  .         Photoelectric Factor          : 
TLFamily_INPEFA_2  .         Photoelectric Factor          : 
TLFamily_INPEFA_3  .         Photoelectric Factor          : 
TLFamily_INPEFA_4  .         Photoelectric Factor          : 
TLFamily_LITO      .                                       : 
TLFamily_LLD       .         Deep Resistivity              : 
TLFamily_NPHI      .         Neutron Porosity              : 
TLFamily_RHOB      .         Bulk Density                  : 
~Curve Information
#_______________________________________________________________________________
#
#LOGNAME           .UNIT     LOG_ID                        : DESCRIPTION
#_______________________________________________________________________________
DEPT               .m                                      :  {F}
CALI               .in                                     : CALIPER {F}
COTA               .                                       :  {F}
DT                 .us/ft                                  : DELTA-T (ALSO CALLED SLOWNESS OR INTERVAL TRANSIT TIME) {F}
GR                 .gAPI                                   : GAMMA RAY {F}
INPEFA_1           .                                       :  {F}
INPEFA_2           .                                       :  {F}
INPEFA_3           .                                       :  {F}
INPEFA_4           .                                       :  {F}
LITO               .                                       :  {F}
LLD                .ohm.m                                  : LATEROLOG DEEP RESISTIVITY {F}
NPHI               .                                       :  {F}
RHOB               .g/cm3                                  : BULK DENSITY {F}
~Ascii
# ...
3674.5003  12.4996    -3674.5003 89.60435   81.4101    0.1037     0.315      0.26114    -0.17966   57         2.1947     0.235406   2.49691   
3674.7003  12.4984    -3674.7003 89.61053   85.89494000000001 0.15089    0.42719    0.42849    -0.03779   57         2.25325    0.237202   2.4891    
3674.9003  12.501     -3674.9003 89.27634000000001 91.98322   0.16285    0.46546    0.50907    0.08759    57         2.4209     0.242014   2.49779   
3675.1003  12.50949   -3675.1003 88.0834    96.03818   0.12811    0.40389    0.4479     0.09044    57         2.72694    0.250692   2.51279   
3675.3003  12.48931   -3675.3003 86.41219   92.86221000000001 0.09049    0.29549    0.25252    -0.22256   57         2.98489    0.243257   2.52789   
3675.5003  12.4653    -3675.5003 85.26653   81.38131   0.13343    0.39643    0.40819    -0.08654   57         3.07189    0.221885   2.54789   
3675.7003  12.4627    -3675.7003 85.19750999999999 77.28846   0.11421    0.36348    0.38821    -0.06797   57         2.96436    0.222631   2.5613    
3675.9003  12.46789   -3675.9003 85.95094   84.98981000000001 0.10861    0.34764    0.37088    -0.1022    57         2.88783    0.236203   2.55001   
3676.1003  12.47459   -3676.1003 87.24224   90.72477000000001 0.0953     0.31833    0.3413     -0.14337   57         2.89829    0.234303   2.53551   
3676.3003  12.48969   -3676.3003 87.98961   93.60329   0.09322    0.31141    0.3424     -0.16284   57         2.93788    0.233602   2.5391    
3676.5003  12.50101   -3676.5003 88.13155   91.42796   0.09515    0.32347    0.39266    -0.07568   57         2.9554     0.231594   2.5503    
3676.7003  12.4981    -3676.7003 88.13408   86.72624   0.06275    0.24429    0.28291    -0.22845   57         2.9535     0.228007   2.5548    
3676.9003  12.4957    -3676.9003 88.58969999999999 96.43606   0.08169    0.28573    0.36314    -0.15243   57         3.05722    0.237032   2.5465    
3677.1003  12.4944    -3677.1003 89.37403000000001 118.1224   0.08433    0.305      0.44111    0.02102    57         3.09283    0.256131   2.53611   
3677.3003  12.4931    -3677.3003 89.79298   125.2148   0.04857    0.22102    0.33901    -0.04231   57         3.03711    0.268392   2.52391   
3677.5003  12.501     -3677.5003 89.72539   117.694    0.03978    0.18967    0.30019    -0.0768    57         2.94235    0.259694   2.50681   
3677.7003  12.492     -3677.7003 89.77164000000001 105.6758   0.0229     0.14477    0.24475    -0.10384   57         3.12007    0.257801   2.48851   
3677.9003  12.48151   -3677.9003 90.01859   93.00352   -0.00063   0.07075    0.1209     -0.27683   57         3.32381    0.255395   2.4733    
3678.1003  12.50359   -3678.1003 89.95788   94.58165   0.02625    0.11585    0.18371    -0.22481   57         3.50741    0.254313   2.4692    
3678.3003  12.49981   -3678.3003 89.81932999999999 105.2424   0.05212    0.186      0.3411     0.09812    57         3.69881    0.263914   2.4758    
3678.5003  12.4997    -3678.5003 90.01685000000001 104.4177   0.03392    0.14277    0.31409    0.2352     57         3.83185    0.265171   2.49889   
3678.7003  12.4981    -3678.7003 90.13966000000001 99.54416000000001 -0.00518   0.05972    0.23991    0.3856     57         3.6848     0.248585   2.52769   
3678.9003  12.4918    -3678.9003 89.70798000000001 101.0949   -0.05298   -0.08602   0.0000900  0.19882    57         3.53068    0.242      2.5299    
3679.1003  12.4944    -3679.1003 88.86141000000001 104.0949   -0.04793   -0.08687   0.00628    0.33214    57         3.30539    0.244313   2.5187    
3679.3003  12.46722   -3679.3003 88.50979   104.9416   -0.05921   -0.14371   -0.09929   0.28807    57         3.22465    0.249497   2.52649   
3679.5003  12.49567   -3679.5003 88.8055    103.4032   -0.04295   -0.11084   -0.03334   0.53644    57         3.16701    0.248202   2.54109   
3679.7003  12.5102    -3679.7003 89.39221000000001 105.0384   -0.08232   -0.22244   -0.2052    0.51701    57         3.14891    0.248401   2.53561   
3679.9003  12.5139    -3679.9003 89.81432   104.2799   -0.09446   -0.28533   -0.34036   0.4354     57         3.1445     0.249604   2.51861   
3680.1003  12.50951   -3680.1003 89.72544000000001 100.1294   -0.12059   -0.37766   -0.523     0.26726    57         3.1471     0.248482   2.521     
3680.3003  12.49729   -3680.3003 88.93586999999999 103.6198   -0.09857   -0.36977   -0.57591   0.16019    57         3.27091    0.238392   2.53519   
3680.5003  12.5131    -3680.5003 88.00136000000001 109.2231   -0.09192   -0.38397   -0.65484   -0.0278    57         3.39497    0.238121   2.5299    
3680.7003  12.5118    -3680.7003 87.73988   111.8973   -0.0634    -0.35098   -0.66477   -0.18069   57         3.45887    0.248202   2.50421   
3680.9003  12.5081    -3680.9003 88.46686   114.2613   0.01717    -0.16684   -0.38409   0.11606    57         3.36935    0.244784   2.48531   
3681.1003  12.5084    -3681.1003 89.22843   109.2247   -0.00308   -0.21206   -0.44413   0.0151     57         3.41227    0.237001   2.49289   
3681.3003  12.5076    -3681.3003 89.67561000000001 98.65488000000001 0.02703    -0.13381   -0.29656   0.19412    57         3.48607    0.240807   2.51299   
3681.5003  12.49061   -3681.5003 90.0151    95.09348   0.03134    -0.11111   -0.21756   0.34317    57         3.60723    0.242498   2.51281   
3681.7003  12.51579   -3681.7003 90.80023   104.9158   0.02227    -0.11983   -0.18841   0.44129    57         3.84576    0.248235   2.49881   
3681.9003  12.53029   -3681.9003 91.86279   118.4678   0.00741    -0.15349   -0.21255   0.45592    57         4.49515    0.268107   2.4927    
3682.1003  12.5405    -3682.1003 92.50611000000001 122.6801   -0.00982   -0.19255   -0.24947   0.4377     57         5.48374    0.267384   2.48441   
3682.3003  12.5456    -3682.3003 91.73129   117.794    -0.0429    -0.28006   -0.38477   0.22865    57         5.58861    0.259585   2.4777    
3682.5003  12.543     -3682.5003 89.96751   111.3494   -0.02437   -0.2609    -0.38596   0.04241    57         4.57104    0.250886   2.4813    
3682.7003  12.5456    -3682.7003 88.29425999999999 110.9556   0.00269    -0.18763   -0.24924   0.13038    57         3.87326    0.249102   2.4865    
3682.9003  12.52751   -3682.9003 87.37426000000001 114.1572   -0.01659   -0.23917   -0.32747   -0.09959   57         3.61219    0.249978   2.50559   
3683.1003  12.5247    -3683.1003 86.66322   116.0574   0.00658    -0.18595   -0.23993   -0.16021   57         3.46827    0.236774   2.53888   
3683.3003  12.53109   -3683.3003 85.40585   110.6292   0.02614    -0.13055   -0.1241    -0.12771   57         3.37034    0.22711    2.55929   
3683.5003  12.5334    -3683.5003 83.29565   100.2032   0.0135     -0.1529    -0.1347    -0.27389   57         3.39796    0.234704   2.5604    
3683.7003  12.5308    -3683.7003 81.19265   89.61575000000001 0.04455    -0.0731    0.01922    -0.2159    57         3.66793    0.233587   2.56449   
3683.9003  12.5327    -3683.9003 79.83437000000001 72.37379   0.05151    -0.03387   0.13689    -0.13096   57         4.04362    0.228103   2.59298   
3684.1003  12.53111   -3684.1003 79.51173   64.17146   0.0648     0.01473    0.27166    0.0154     58         4.29249    0.230592   2.61719   
3684.3003  12.5247    -3684.3003 80.29228999999999 67.67941   0.05782    0.03564    0.4005     0.29165    58         4.31552    0.218758   2.60391   
3684.5003  12.5195    -3684.5003 82.00776999999999 70.08842   0.0062     -0.07636   0.28203    0.22252    58         4.10813    0.200818   2.58351   
3684.7003  12.5234    -3684.7003 83.94543   75.3284    -0.01185   -0.11433   0.26212    0.23401    58         3.66923    0.216935   2.5828    
3684.9003  12.51941   -3684.9003 85.53196   83.47758   -0.03212   -0.16159   0.21898    0.20498    58         3.35872    0.232507   2.57841   
3685.1003  12.53099   -3685.1003 86.49983   91.41746999999999 -0.02982   -0.15506   0.25568    0.27652    57         3.36576    0.233692   2.56431   
3685.3003  12.5446    -3685.3003 86.07481   99.2578    -0.0803    -0.28061   0.06348    0.01148    57         3.56379    0.230107   2.5626    
