~Version
 VERS              .         2.0                           : CWLS LOG ASCII STANDARD - VERSION 2.0
 WRAP              .         NO                            : ONE LINE PER DEPTH STEP
 DLM               .         SPACE                         : DELIMITING CHARACTER(SPACE TAB OR COMMA)
~Well Information
#_______________________________________________________________________________
#
#PARAMETER_NAME    .UNIT     VALUE                         : DESCRIPTION
#_______________________________________________________________________________
STRT               .m        2424.989                      : First reference value
STOP               .m        5587.189                      : Last reference value
STEP               .m        0.2                           : Step increment
NULL               .         -9999                         : Missing value
COMP               .         PETROLEO BRASILEIRO S/A       : Company
WELL               .         4ESS 0138  ES                 : Well name
FLD                .         CANAPU                        : Field
LOC                .                                       : Location
CNTY               .                                       : County
STAT               .         ESPIRITO SANTO                : State
CTRY               .                                       : Country
SRVC               .                                       : Service Company
DATE               .                                       : Date
API                .         342710293200                  : API number
EDF                .M        18.00                         : Elevation Derrick Floor
GDAT               .         SIRGAS2000                    : Geodetic Datum
HZCS               .         UTM                           : Horizontal Coordinate System
LAT                .         -20.018293                    : Latitude
LONG               .         -39.316753                    : Longitude
MC                 .         39 W                          : Meridiano Central
ORIG               .         SIGEO EXPORTACAO PERFIL       : Origem dos dados
WDMS               .M        1614.00                       : Water Depth to Mean Sea Level
XCOORD             .         466869.60                     : Surface X
YCOORD             .         7786462.90                    : Surface Y
~Parameter Information Block
#_______________________________________________________________________________
#
#PARAMETER_NAME    .UNIT     VALUE                         : DESCRIPTION
#_______________________________________________________________________________
SET                .         ESS138_resample               : 
TLFamily_CALI      .         Caliper                       : 
TLFamily_DEPT      .         Measured Depth                : 
TLFamily_DT        .         Compressional Slowness        : 
TLFamily_DTS       .         Compressional Slowness        : 
TLFamily_GR        .         Gamma Ray                     : 
TLFamily_INPEFA_1  .                                       : 
TLFamily_INPEFA_2  .                                       : 
TLFamily_INPEFA_3  .                                       : 
TLFamily_INPEFA_4  .                                       : 
TLFamily_LITO      .                                       : 
TLFamily_NPHI      .         Neutron Porosity              : 
TLFamily_OG        .                                       : 
TLFamily_RESD      .         Deep Resistivity              : 
TLFamily_RESM      .         Medium Resistivity            : 
TLFamily_RESS      .         Shallow Resistivity           : 
TLFamily_RHOB      .         Bulk Density                  : 
TLFamily_TVD       .         True Vertical Depth           : 
~Curve Information
#_______________________________________________________________________________
#
#LOGNAME           .UNIT     LOG_ID                        : DESCRIPTION
#_______________________________________________________________________________
DEPT               .m                                      :  
CALI               .in                                     :  
DT                 .us/ft                                  :  
DTS                .us/ft                                  :  
GR                 .gAPI                                   : GAMMA RAY 
INPEFA_1           .                                       :  
INPEFA_2           .                                       :  
INPEFA_3           .                                       :  
INPEFA_4           .                                       :  
LITO               .Sem                                    : Não definido 
NPHI               .%                                      : THERMAL NEUTRON POROSITY (ORIGINAL RATIO METHOD) IN SELECTED LITHOLOGY 
OG                 .                                       :  
RESD               .ohm.m                                  :  
RESM               .ohm.m                                  :  
RESS               .ohm.m                                  :  
RHOB               .g/cm3                                  :  
TVD                .                                       : Vertical Depth 
~Ascii
# ...
2890.389   12.65299   106.5484353213175 201.5384   116.4524   -0.04510511 0.5336227  -0.07299947 -0.1931897 58         33.96471   116.4524   0.8993661105127637 0.9219239723251951 0.8036073629098521 2.294899   2890.237277690289
2890.589   12.67046   102.0564298254327 193.2432   115.8359   -0.04659959 0.5596424  -0.02909636 -0.3075277 58         34.8936    115.8359   0.9042761019098925 0.9469787800125846 0.8322360926043941 2.2883     2890.4372 
2890.789   12.48031   92.99599292583154 185.4943   108.8065   -0.02241095 0.6715296  0.1661092  -0.2057694 58         32.55973   108.8065   0.9089831852603475 1.019351372099133 1.168034802696441 2.318437   2890.6371 
2890.989   12.39712   81.28302634732049 178.5252   95.89731   -0.02121515 0.7414339  0.3502366  0.05268808 58         30.8763    95.89731   0.9782079174675292 1.126702810073594 2.095879278158964 2.425917   2890.837002887139
2891.189   12.40865   70.19450871023778 171.0475   81.16041   -0.05856238 0.7092214  0.3974347  0.1899705  49         33.38377   81.16041   1.053648349292757 1.237588223467365 4.20177918898987 2.475181   2891.037  
2891.389   12.42598   64.97812632563181 164.014    75.92275   -0.120261  0.5995467  0.3160885  0.1169725  49         19.9577    75.92275   1.041600948696352 1.272130118598852 5.62136344205141 2.56209    2891.2369 
2891.589   12.43679   68.10604792316377 164.0111   81.81541   -0.160278  0.5259145  0.2576105  0.01465533 49         14.484     81.81541   1.0062886091986 1.220556217616566 3.935520725307499 2.466069   2891.4368 
2891.789   12.44884   78.53783945400721 176.2905   93.92314   -0.1560847 0.5626609  0.3556677  0.1745422  49         18.27922   93.92314   0.9586603384558832 1.125568785948076 1.695269847514136 2.336044   2891.6368 
2891.989   12.4031    90.7486209819331 196.8436   105.9514   -0.1921843 0.4941766  0.3033769  0.1353272  57         21.84338   105.9514   0.9062708331780487 0.9964998330830406 1.071309861013285 2.294636   2891.8367 
2892.189   12.41982   99.02524482547412 214.8527   112.0482   -0.216153  0.4500287  0.2693794  0.08465582 57         33.91621   112.0482   0.8869631090799826 0.8900318992351844 0.86566895258274 2.316157   2892.0366 
2892.389   12.44065   102.5463313305477 227.439    111.585    -0.2123131 0.4636035  0.3032099  0.1004594  57         35.78767   111.585    0.8532474870193981 0.8355132368362596 0.8405149662724968 2.324779   2892.236528346457
2892.589   12.53452   102.0642112071107 231.3688   108.7808   -0.2399832 0.4161755  0.268635   0.0452848  57         37.23604   108.7808   0.850115383446161 0.8436842843447081 0.8379238577084849 2.280938   2892.4365 
2892.789   12.68129   97.80047587396689 223.5073   105.0009   -0.2477706 0.3971663  0.250644   -0.04466969 57         33.6937    105.0009   1.075246599969151 1.019974259099105 0.8798452385391975 2.251479   2892.6364 
2892.989   12.67501   89.32127164104844 204.8135   99.00887   -0.2210213 0.484712   0.4100468  0.1857353  57         28.13487   99.00887   1.491691129126356 1.393716282242676 1.376149414612988 2.267246   2892.8363 
2893.189   12.6666    78.07148037806188 180.7516   87.5679    -0.2568584 0.4242428  0.3836488  0.2274153  49         26.26704   87.5679    1.992945646243237 2.146830601973877 3.472322455060001 2.339288   2893.036228608924
2893.389   12.65514   67.70874624177661 160.1272   74.61992   -0.2754707 0.3929861  0.3801327  0.2836437  49         18.71479   74.61992   2.402187488867636 2.874597656495463 7.378225119723683 2.598361   2893.2362 
2893.589   12.6421    60.7189833873848 149.3532   68.88322   -0.3007802 0.3304706  0.3134582  0.246428   49         7.852913   68.88322   2.49796752410081 3.175670221724285 12.47278973593227 2.629702   2893.4361 
2893.789   12.71422   59.91210182571101 150.1892   71.19564   -0.3096956 0.3195246  0.3241847  0.2923201  49         5.051433   71.19564   2.333219341867642 2.935828793463828 12.6598009048813 2.62789    2893.636  
2893.989   12.72696   67.54171756935163 158.2996   77.93826   -0.3340376 0.2599038  0.2565002  0.2362974  57         4.755215   77.93826   2.028784011092596 2.715816157671934 6.451344696925736 2.594724   2893.836  
2894.189   12.71089   80.73660050040355 170.4915   89.50519   -0.3429938 0.2333368  0.2178816  0.1508604  57         10.55845   89.50519   1.640889437524762 2.023399800267673 2.588552347647803 2.549048   2894.0359 
2894.389   13.07907   94.41243219251641 189.7104   107.1184   -0.344952  0.2270672  0.2074974  0.09399015 57         23.27      107.1184   1.389553108011777 1.511941667960857 1.459138632083777 2.354859   2894.2358 
2894.589   13.3434    104.4238585624811 218.5107   124.9774   -0.3520164 0.2155595  0.1999942  0.06159474 57         26.96527   124.9774   1.087990475510067 1.108012108407915 1.056731669944248 2.227399   2894.435754068241
2894.789   13.34438   111.8046946488099 248.9923   133.8342   -0.3583238 0.1988545  0.1702676  -0.04966774 57         48.12965   133.8342   0.9908688626968314 0.979787418128406 0.9879203582904051 2.210113   2894.6357 
2894.989   13.32596   117.2972960985228 272.4103   135.4434   -0.357049  0.2051868  0.1744726  -0.1108076 57         63.60371   135.4434   0.9498179650158759 0.9329884133060257 0.9896706131985517 2.203633   2894.8356 
2895.189   13.3178    119.5272076223787 282.4421   136.6441   -0.360073  0.2013541  0.1669666  -0.1667866 57         57.61918   136.6441   0.9318639799274551 0.9258026832291744 0.9875755501675313 2.212843   2895.0355 
2895.389   13.31781   119.3302009762738 284.8412   135.8004   -0.3742533 0.1649561  0.1049511  -0.317316  57         57.21383   135.8004   0.9014317788656602 0.9130369893844055 0.9841802455247916 2.172028   2895.2355 
2895.589   13.32917   118.8756133752858 284.5101   134.7111   -0.3667009 0.1780975  0.1075627  -0.3777954 57         50.53646   134.7111   0.8864688223056909 0.9266402620699045 0.9754168418996904 2.1845     2895.4354 
2895.789   13.34158   119.317416453925 283.4853   133.9976   -0.3673174 0.1816369  0.118041   -0.3665062 57         53.07555   133.9976   0.8595647284258832 0.9125225055527577 0.9610069668896261 2.163061   2895.6353 
2895.989   13.32464   118.9601390568296 282.3445   129.4481   -0.3964929 0.1047207  0.002889814 -0.5748052 57         63.85696   129.4481   0.8500637282790664 0.9022499357727387 0.9502517398322246 2.193297   2895.8352 
2896.189   13.34576   116.8452455014964 281.197    125.9287   -0.3809143 0.1318718  0.01986605 -0.6555425 57         56.64808   125.9287   0.8577168317289839 0.9065453948714445 0.9429094817883827 2.211637   2896.0352 
2896.389   13.34675   114.1351111304389 279.6682   127.9174   -0.3656878 0.1779397  0.09574208 -0.5817742 57         64.66685   127.9174   0.855359314124609 0.9121889802451839 0.9466308771483286 2.226898   2896.2351 
2896.589   13.33879   112.5350649976356 277.5483   131.6503   -0.3782221 0.1534967  0.07703231 -0.6171325 57         65.17285   131.6503   0.8609485688940118 0.912571626421252 0.9700204667986424 2.17589    2896.435  
2896.789   13.32872   112.0754666265852 275.6977   133.6088   -0.3873514 0.1322801  0.05608741 -0.6866329 57         53.97788   133.6088   0.8712423824900103 0.9129393517171546 1.00128961365928 2.19797    2896.634979790027
2896.989   13.33378   112.2894163557243 275.1815   134.218    -0.3708485 0.1809486  0.1440905  -0.5720884 57         61.8703    134.218    0.8763925022694864 0.9294376064838765 1.020870774893856 2.220823   2896.8349 
2897.189   13.32441   113.2571023655702 276.169    133.6469   -0.3916121 0.1419232  0.1198843  -0.5748646 57         63.70918   133.6469   0.8858006670449897 0.9362392919856172 1.017966828884609 2.223998   2897.0348 
2897.389   13.33326   114.6485273906895 277.9498   131.1879   -0.4044575 0.1036203  0.07097736 -0.6725394 57         50.74953   131.1879   0.8879049822874285 0.9328249241461135 0.9983189507924167 2.187288   2897.2347 
2897.589   13.31788   115.7164486261802 280.1498   128.3315   -0.3995902 0.1161136  0.1019466  -0.641186  57         61.10278   128.3315   0.8840791167325469 0.9298985975106923 0.981860083734607 2.074748   2897.434680052493
