~Version
 VERS              .         2.0                           : CWLS LOG ASCII STANDARD - VERSION 2.0
 WRAP              .         NO                            : ONE LINE PER DEPTH STEP
 DLM               .         SPACE                         : DELIMITING CHARACTER(SPACE TAB OR COMMA)
~Well Information
#_______________________________________________________________________________
#
#PARAMETER_NAME    .UNIT     VALUE                         : DESCRIPTION
#_______________________________________________________________________________
STRT               .m        860.9839                      : First reference value
STOP               .m        4658.9839                     : Last reference value
STEP               .m        0.2                           : Step increment
NULL               .         -9999                         : Missing value
COMP               .         PETROLEO BRASILEIRO S/A       : Company
WELL               .         6-ESS-168_resample            : Well name
FLD                .         CAMARUPIM NORTE               : Field
LOC                .                                       : Location
CNTY               .                                       : County
STAT               .         ESPIRITO SANTO                : State
CTRY               .                                       : Country
SRVC               .                                       : Service Company
DATE               .                                       : Date
API                .         342710135600                  : API number
EDF                .M        25.00                         : Elevation Derrick Floor
GDAT               .         SIRGAS2000                    : Geodetic Datum
HZCS               .         UTM                           : Horizontal Coordinate System
LMF                .         MR                            : Log Measure From
LATI               .         -19_54_33.884                 : Latitude
LONG               .         -39_37_03.497                 : Longitude
MC                 .         39 W                          : Meridiano Central
ORIG               .         SIGEO EXPORTACAO PERFIL       : Origem dos dados
ORIGINALWELLNAME   .         6ESS 0168  ES                 : 
WDMS               .M        789.00                        : Water Depth to Mean Sea Level
X                  .         435367.50                     : Surface X
Y                  .         7798516.90                    : Surface Y
~Parameter Information Block
#_______________________________________________________________________________
#
#PARAMETER_NAME    .UNIT     VALUE                         : DESCRIPTION
#_______________________________________________________________________________
SET                .         ESS168_resample               : 
TLFamily_CALI      .         Caliper                       : 
TLFamily_DEPT      .         Measured Depth                : 
TLFamily_DT_merge  .         Compressional Slowness        : 
TLFamily_GR        .         Gamma Ray                     : 
TLFamily_INPEFA_1  .                                       : 
TLFamily_INPEFA_2  .                                       : 
TLFamily_INPEFA_3  .                                       : 
TLFamily_INPEFA_4  .                                       : 
TLFamily_LITO      .                                       : 
TLFamily_LLD       .         Deep Resistivity              : 
TLFamily_OG        .                                       : 
TLFamily_RESD      .         Deep Resistivity              : 
TLFamily_ZDEN      .         Bulk Density                  : 
~Curve Information
#_______________________________________________________________________________
#
#LOGNAME           .UNIT     LOG_ID                        : DESCRIPTION
#_______________________________________________________________________________
DEPT               .m                                      :  
CALI               .in                                     : CALIPER 
DT_merge           .us/ft                                  : DELTA-T COMPRESSIONAL 
GR                 .gAPI                                   : GAMMA RAY 
INPEFA_1           .                                       :  
INPEFA_2           .                                       :  
INPEFA_3           .                                       :  
INPEFA_4           .                                       :  
LITO               .                                       :  
LLD                .ohm.m                                  : LATEROLOG DEEP RESISTIVITY 
OG                 .                                       :  
RESD               .ohm.m                                  : DEEP RESISTIVITY 
ZDEN               .g/cm3                                  : FORMATION BULK DENSITY 
~Ascii
# ...
1628.7839  -9999      -9999      69.95179   -0.1202089 0.1629841  -0.06534482 -0.081241  57         -9999      69.95179   -9999      -9999     
1628.9839  -9999      -9999      70.915     -0.1159442 0.173368   -0.0520782 -0.08261726 57         -9999      70.915     -9999      -9999     
1629.1839  -9999      -9999      68.79394   -0.1155738 0.1758827  -0.04744108 -0.0910735 57         -9999      68.79394   -9999      -9999     
1629.3839  -9999      -9999      67.63229   -0.1105518 0.1884434  -0.02971992 -0.07963091 57         -9999      67.63229   -9999      -9999     
1629.5839  -9999      -9999      67.89729   -0.0949865 0.2329828  0.04162179 0.04626407 57         -9999      67.89729   -9999      -9999     
1629.7839  -9999      -9999      68.06873   -0.09449027 0.2401436  0.06181568 0.09994663 57         -9999      68.06873   -9999      -9999     
1629.9839  -9999      -9999      67.42918   -0.09910937 0.2361213  0.06829879 0.1407632  57         -9999      67.42918   -9999      -9999     
1630.1839  -9999      -9999      67.54153   -0.103885  0.2255764  0.058707   0.1393805  57         -9999      67.54153   -9999      -9999     
1630.3839  -9999      -9999      68.48395   -0.1017112 0.2369342  0.08502787 0.2102885  57         -9999      68.48395   -9999      -9999     
1630.5839  -9999      -9999      68.73235   -0.1149943 0.2066084  0.04934085 0.1742156  57         -9999      68.73235   -9999      -9999     
1630.7839  -9999      -9999      70.23004   -0.1216199 0.1900243  0.02779276 0.1424758  57         -9999      70.23004   -9999      -9999     
1630.9839  -9999      -9999      70.98624   -0.1250969 0.1836047  0.02386286 0.1473448  57         -9999      70.98624   -9999      -9999     
1631.1839  -9999      -9999      69.173     -0.1332175 0.1619139  -0.007068593 0.09037793 57         -9999      69.173     -9999      -9999     
1631.3839  -9999      -9999      68.0996    -0.1311038 0.168071   0.003612826 0.1034326  57         -9999      68.0996    -9999      -9999     
1631.5839  -9999      -9999      69.00633   -0.1331149 0.1654259  0.004424339 0.109445   57         -9999      69.00633   -9999      -9999     
1631.7839  -9999      -9999      69.20419   -0.1375572 0.1545964  -0.009532435 0.08138748 57         -9999      69.20419   -9999      -9999     
1631.9839  -9999      -9999      66.98158   -0.1420023 0.1433601  -0.02511432 0.04480132 57         -9999      66.98158   -9999      -9999     
1632.1839  -9999      -9999      64.4868    -0.1384476 0.1528398  -0.01020391 0.06203538 57         -9999      64.4868    -9999      -9999     
1632.3839  -9999      -9999      62.20477   -0.1412284 0.148001   -0.01352981 0.05605489 57         -9999      62.20477   -9999      -9999     
1632.5839  -9999      -9999      57.98947   -0.1463763 0.1347066  -0.03201858 0.01633135 57         -9999      57.98947   -9999      -9999     
1632.7839  -9999      -9999      54.37008   -0.1465596 0.1342862  -0.03199509 0.005354015 57         -9999      54.37008   -9999      -9999     
1632.9839  -9999      -9999      55.79135   -0.1441236 0.1418491  -0.01835084 0.02367628 57         -9999      55.79135   -9999      -9999     
1633.1839  -9999      -9999      60.02739   -0.1383597 0.1601613  0.01447294 0.08785155 57         -9999      60.02739   -9999      -9999     
1633.3839  -9999      -9999      62.90648   -0.1518258 0.1288614  -0.02528509 0.02701173 57         -9999      62.90648   -9999      -9999     
1633.5839  -9999      -9999      65.92576   -0.1529512 0.1234853  -0.0349655 -0.005935214 57         -9999      65.92576   -9999      -9999     
1633.7839  -9999      -9999      69.85579   -0.1481919 0.1392801  -0.006535803 0.04508347 57         -9999      69.85579   -9999      -9999     
1633.9839  -9999      -9999      72.18377   -0.1606009 0.1084168  -0.04866182 -0.03063554 57         -9999      72.18377   -9999      -9999     
1634.1839  -9999      -9999      72.948     -0.1609933 0.1058644  -0.05400355 -0.06043871 57         -9999      72.948     -9999      -9999     
1634.3839  -9999      -9999      72.30922   -0.1553961 0.1221286  -0.02692084 -0.02012804 57         -9999      72.30922   -9999      -9999     
1634.5839  -9999      -9999      70.72447   -0.1596836 0.1136357  -0.03486157 -0.03549691 57         -9999      70.72447   -9999      -9999     
1634.7839  -9999      -9999      69.96208   -0.1628674 0.1062925  -0.04323312 -0.05870363 57         -9999      69.96208   -9999      -9999     
1634.9839  -9999      -9999      70.44825   -0.1714041 0.08411703 -0.0753762 -0.1328354 57         -9999      70.44825   -9999      -9999     
1635.1839  -9999      -9999      70.11743   -0.1585125 0.1168036  -0.02745463 -0.06935088 57         -9999      70.11743   -9999      -9999     
1635.3839  -9999      -9999      68.98348   -0.1575201 0.1260553  -0.00398861 -0.01842886 57         -9999      68.98348   -9999      -9999     
1635.5839  -9999      -9999      68.97397   -0.1667742 0.1032856  -0.03367935 -0.07460357 57         -9999      68.97397   -9999      -9999     
1635.7839  -9999      -9999      69.46403   -0.1637919 0.111697   -0.0194259 -0.0639708 57         -9999      69.46403   -9999      -9999     
1635.9839  -9999      -9999      68.65047   -0.1615689 0.1212366  0.001180674 -0.02760307 57         -9999      68.65047   -9999      -9999     
1636.1839  -9999      -9999      66.19212   -0.154794  0.1418609  0.0378608  0.0394232  57         -9999      66.19212   -9999      -9999     
1636.3839  -9999      -9999      66.38675   -0.1552692 0.1470175  0.05624531 0.08846606 57         -9999      66.38675   -9999      -9999     
1636.5839  -9999      -9999      68.8118    -0.1633722 0.1305781  0.04090572 0.0763655  57         -9999      68.8118    -9999      -9999     
1636.7839  -9999      -9999      68.97044   -0.1757404 0.097577   -0.007024182 -0.01972544 57         -9999      68.97044   -9999      -9999     
1636.9839  -9999      -9999      69.25131   -0.1644422 0.1279562  0.0403717  0.05470355 57         -9999      69.25131   -9999      -9999     
1637.1839  -9999      -9999      70.54568   -0.157496  0.1498837  0.08049887 0.1363555  57         -9999      70.54568   -9999      -9999     
1637.3839  -9999      -9999      69.47462   -0.1583093 0.1541933  0.09803694 0.1915973  57         -9999      69.47462   -9999      -9999     
1637.5839  -9999      -9999      67.76811   -0.1664472 0.137826   0.08407229 0.1930079  57         -9999      67.76811   -9999      -9999     
1637.7839  -9999      -9999      67.81564   -0.1725151 0.1233652  0.06779747 0.1751898  57         -9999      67.81564   -9999      -9999     
1637.9839  -9999      -9999      69.47977   -0.1784325 0.1103027  0.05432653 0.1615519  57         -9999      69.47977   -9999      -9999     
1638.1839  -9999      -9999      68.48443   -0.1805815 0.1053516  0.05080457 0.1593997  57         -9999      68.48443   -9999      -9999     
1638.3839  -9999      -9999      65.23845   -0.1806325 0.1076733  0.05985969 0.1823786  57         -9999      65.23845   -9999      -9999     
1638.5839  -9999      -9999      64.93821   -0.1887458 0.08803312 0.03537971 0.1425107  57         -9999      64.93821   -9999      -9999     
1638.7839  -9999      -9999      65.95657   -0.1851383 0.09781919 0.05258372 0.1690443  57         -9999      65.95657   -9999      -9999     
1638.9839  -9999      -9999      65.36818   -0.1937976 0.0763249  0.02410917 0.112941   57         -9999      65.36818   -9999      -9999     
1639.1839  -9999      -9999      63.12871   -0.1750102 0.1236431  0.09422662 0.2215831  57         -9999      63.12871   -9999      -9999     
1639.3839  -9999      -9999      61.35861   -0.16217   0.1666368  0.1731745  0.3921174  57         -9999      61.35861   -9999      -9999     
1639.5839  -9999      -9999      62.80875   -0.1639714 0.1664233  0.1841382  0.440084   57         -9999      62.80875   -9999      -9999     
1639.7839  -9999      -9999      67.21973   -0.1585445 0.1905522  0.2372391  0.5794271  57         -9999      67.21973   -9999      -9999     
