~Version
 VERS              .         2.0                           : CWLS LOG ASCII STANDARD - VERSION 2.0
 WRAP              .         NO                            : ONE LINE PER DEPTH STEP
 DLM               .         SPACE                         : DELIMITING CHARACTER(SPACE TAB OR COMMA)
~Well Information
#_______________________________________________________________________________
#
#PARAMETER_NAME    .UNIT     VALUE                         : DESCRIPTION
#_______________________________________________________________________________
STRT               .m        860.9839                      : First reference value
STOP               .m        4658.9839                     : Last reference value
STEP               .m        0.2                           : Step increment
NULL               .         -9999                         : Missing value
COMP               .         PETROLEO BRASILEIRO S/A       : Company
WELL               .         6-ESS-168_resample            : Well name
FLD                .         CAMARUPIM NORTE               : Field
LOC                .                                       : Location
CNTY               .                                       : County
STAT               .         ESPIRITO SANTO                : State
CTRY               .                                       : Country
SRVC               .                                       : Service Company
DATE               .                                       : Date
API                .         342710135600                  : API number
EDF                .M        25.00                         : Elevation Derrick Floor
GDAT               .         SIRGAS2000                    : Geodetic Datum
HZCS               .         UTM                           : Horizontal Coordinate System
LMF                .         MR                            : Log Measure From
LATI               .         -19_54_33.884                 : Latitude
LONG               .         -39_37_03.497                 : Longitude
MC                 .         39 W                          : Meridiano Central
ORIG               .         SIGEO EXPORTACAO PERFIL       : Origem dos dados
ORIGINALWELLNAME   .         6ESS 0168  ES                 : 
WDMS               .M        789.00                        : Water Depth to Mean Sea Level
X                  .         435367.50                     : Surface X
Y                  .         7798516.90                    : Surface Y
~Parameter Information Block
#_______________________________________________________________________________
#
#PARAMETER_NAME    .UNIT     VALUE                         : DESCRIPTION
#_______________________________________________________________________________
SET                .         ESS168_resample               : 
TLFamily_CALI      .         Caliper                       : 
TLFamily_DEPT      .         Measured Depth                : 
TLFamily_DT_merge  .         Compressional Slowness        : 
TLFamily_GR        .         Gamma Ray                     : 
TLFamily_INPEFA_1  .                                       : 
TLFamily_INPEFA_2  .                                       : 
TLFamily_INPEFA_3  .                                       : 
TLFamily_INPEFA_4  .                                       : 
TLFamily_LITO      .                                       : 
TLFamily_LLD       .         Deep Resistivity              : 
TLFamily_OG        .                                       : 
TLFamily_RESD      .         Deep Resistivity              : 
TLFamily_ZDEN      .         Bulk Density                  : 
~Curve Information
#_______________________________________________________________________________
#
#LOGNAME           .UNIT     LOG_ID                        : DESCRIPTION
#_______________________________________________________________________________
DEPT               .m                                      :  
CALI               .in                                     : CALIPER 
DT_merge           .us/ft                                  : DELTA-T COMPRESSIONAL 
GR                 .gAPI                                   : GAMMA RAY 
INPEFA_1           .                                       :  
INPEFA_2           .                                       :  
INPEFA_3           .                                       :  
INPEFA_4           .                                       :  
LITO               .                                       :  
LLD                .ohm.m                                  : LATEROLOG DEEP RESISTIVITY 
OG                 .                                       :  
RESD               .ohm.m                                  : DEEP RESISTIVITY 
ZDEN               .g/cm3                                  : FORMATION BULK DENSITY 
~Ascii
# ...
4144.3839  9.329309   84.11806   147.4332   0.1535136  0.06744928 0.05316279 0.3210102  57         -9999      147.4332   13.29603565231681 2.617058  
4144.583900000001 9.326576   83.65668   144.8112   0.1393072  0.03538033 0.009238098 0.241193   57         -9999      144.8112   13.03898123857352 2.618482  
4144.7839  9.340468   82.94264   144.637    0.1397055  0.03717    0.01063765 0.2278516  57         -9999      144.637    12.79115588650094 2.623325  
4144.9839  9.350483   82.40366   144.0904   0.1398357  0.04333502 0.02393695 0.249927   57         -9999      144.0904   12.67717641421191 2.63096   
4145.1839  9.377992   81.90881   140.8589   0.1284644  0.01721412 -0.01291519 0.1785035  57         -9999      140.8589   12.91904513824716 2.634901  
4145.3839  9.401138   80.56551   138.2263   0.1312888  0.02673314 0.000333904 0.1863752  57         -9999      138.2263   13.65512273593957 2.622885  
4145.583900000001 9.334776   78.18063   134.5668   0.1305265  0.03082281 0.01083631 0.2061954  57         -9999      134.5668   15.38758663251444 2.621937  
4145.7839  9.312983   76.56618   131.6471   0.1198037  0.006799627 -0.0229125 0.1416517  57         -9999      131.6471   18.40731589102379 2.67622   
4145.9839  9.314915   77.53096   124.235    0.1299142  0.0368042  0.02283437 0.2168975  57         -9999      124.235    20.89667852018024 2.656877  
4146.1839  9.348675   80.56698   120.3394   0.1236344  0.02894997 0.01921546 0.2265642  57         -9999      120.3394   21.11033020566457 2.68307   
4146.3839  9.379804   83.19064   134.2628   0.1242988  0.03456913 0.030099   0.2501123  57         -9999      134.2628   18.24854287767915 2.658046  
4146.583900000001 9.422631   83.89909   146.1682   0.1256748  0.04795478 0.05966697 0.3284788  57         -9999      146.1682   14.43420152549576 2.616584  
4146.7839  9.391033   83.40863   146.131    0.105046   0.002948257 0.002396234 0.2573666  57         -9999      146.131    12.93244603481409 2.601928  
4146.9839  9.35287    83.04247   144.6554   0.0954165  -0.02196505 -0.03758156 0.1781079  57         -9999      144.6554   12.91191677180079 2.60531   
4147.1839  9.345837   83.28344   144.5072   0.08509315 -0.04262468 -0.06540239 0.1305823  57         -9999      144.5072   12.778956265064 2.611498  
4147.3839  9.349284   83.70928   143.5258   0.08176661 -0.05184209 -0.08406569 0.08047172 57         -9999      143.5258   12.12795049108406 2.614566  
4147.583900000001 9.386226   83.80408   143.9144   0.0704545  -0.07767636 -0.1248322 -0.01074814 57         -9999      143.9144   11.35158710910739 2.615776  
4147.7839  9.416575   83.40217   144.7248   0.07189472 -0.07461663 -0.1271146 -0.04420498 57         -9999      144.7248   11.04751032959166 2.615932  
4147.9839  9.411574   82.94679   143.6319   0.08122017 -0.04394822 -0.08051009 0.03024289 57         -9999      143.6319   11.03977643130895 2.62288   
4148.1839  9.373832   83.05824   143.3985   0.06328435 -0.08477072 -0.138998  -0.07658269 57         -9999      143.3985   11.08626602349473 2.630641  
4148.3839  9.345646   84.06996   143.4451   0.06160037 -0.08793332 -0.1492628 -0.121956  57         -9999      143.4451   11.35246098140067 2.628667  
4148.583900000001 9.344235   85.25517   142.0995   0.05827426 -0.09208592 -0.1569242 -0.1539981 57         -9999      142.0995   11.75383615834537 2.619428  
4148.7839  9.357562   85.79195   142.017    0.05227881 -0.1044049 -0.1786183 -0.2164413 57         -9999      142.017    11.92033960409434 2.629893  
4148.9839  9.407451   85.32693   141.0534   0.04649223 -0.1158041 -0.1991235 -0.2804351 57         -9999      141.0534   11.8547164371075 2.617772  
4149.1839  9.425998   84.5876    139.7733   0.04569151 -0.1149945 -0.2027538 -0.3188967 57         -9999      139.7733   11.81186167610587 2.620961  
4149.3839  9.380504   83.97364   139.3054   0.02275614 -0.1753573 -0.3033452 -0.555036  57         -9999      139.3054   11.82621592170878 2.619997  
4149.583900000001 9.351759   83.53558   138.2077   0.0321687  -0.1536817 -0.2870929 -0.6066888 57         -9999      138.2077   11.83177465082945 2.609845  
4149.7839  9.348379   83.381     141.1652   0.050562   -0.1143243 -0.2507703 -0.6497936 57         -9999      141.1652   11.80622009097806 2.596384  
4149.9839  9.347535   83.76896   147.055    0.08287611 -0.0223098 -0.1184127 -0.4767141 57         -9999      147.055    11.67667189331905 2.606994  
4150.1839  9.36117    84.54642   151.231    0.1042545  0.03740216 -0.03205748 -0.3658321 57         -9999      151.231    11.27044726970432 2.627484  
4150.3839  9.405207   84.95068   151.9267   0.1341746  0.1262878  0.1048587  -0.1454706 57         -9999      151.9267   10.7991988021393 2.632208  
4150.583900000001 9.400134   84.64507   151.7102   0.1066036  0.09077559 0.09373058 -0.07103903 57         -9999      151.7102   10.66978553553417 2.621946  
4150.7839  9.375545   83.98034   150.4101   0.05419167 -0.05308638 -0.1301419 -0.5093518 57         -9999      150.4101   10.82684698961457 2.618306  
4150.9839  9.35809    83.64205   145.6686   0.09700972 0.06598612 0.04548677 -0.2382566 57         -9999      145.6686   11.1543146009696 2.600602  
4151.1839  9.35157    83.80209   143.5897   0.1432378  0.1838446  0.2173706  0.04583906 57         -9999      143.5897   11.49187775547777 2.585124  
4151.3839  9.353684   84.19564   145.3084   0.1606464  0.2681871  0.3858526  0.4485678  57         -9999      145.3084   11.61602047228274 2.600581  
4151.583900000001 9.357027   84.50291   146.2499   0.08305467 0.09409478 0.1703608  0.2045042  57         -9999      146.2499   11.64199477702681 2.612435  
4151.7839  9.381063   84.68237   146.3974   0.08159611 0.08215734 0.142028   0.1345192  57         -9999      146.3974   11.85185797051724 2.623076  
4151.9839  9.402314   84.36101   146.5479   0.08049168 0.1027636  0.2004256  0.3144318  57         -9999      146.5479   12.15345675082502 2.625358  
4152.1839  9.364648   82.31166   145.7897   0.04336356 0.00988418 0.07046314 0.1236117  49         -9999      145.7897   12.39920035340601 2.622195  
4152.3839  9.355906   78.48756   147.1512   0.04095205 0.009045175 0.0721065  0.1324583  49         -9999      147.1512   13.330115677158 2.614726  
4152.583900000001 9.350214   73.73219   147.5079   0.02756905 -0.02507115 0.0218265  0.04542903 49         -9999      147.5079   16.52480849099415 2.616379  
4152.7839  9.35336    69.02573   138.7282   0.04780358 0.03226727 0.1082046  0.1966713  49         -9999      138.7282   34.39275209137912 2.622138  
4152.9839  9.356709   65.33627   123.3145   0.0374705  0.01739426 0.1005232  0.2228044  49         -9999      123.3145   94.09695992592209 2.689398  
4153.1839  9.385365   64.41153   108.1175   0.02652461 -0.00674465 0.06843769 0.1770793  49         -9999      108.1175   118.5844610900236 2.779248  
4153.3839  9.372427   68.00815   96.31233   0.02787622 0.004658626 0.09315071 0.2400908  49         -9999      96.31233   68.25508959245747 2.683989  
4153.583900000001 9.355237   73.62952   100.9522   0.01516833 -0.02299406 0.05764482 0.1927783  49         -9999      100.9522   31.06962363286093 2.632692  
4153.7839  9.35788    76.66566   123.0446   -0.002293576 -0.06537641 -0.004676897 0.07582515 49         -9999      123.0446   22.36566093779193 2.638557  
4153.9839  9.356945   74.93076   135.71     0.009173493 -0.03344445 0.04247155 0.1500597  49         -9999      135.71     26.32534581987191 2.637588  
4154.1839  9.363832   71.59883   120.3789   0.003319192 -0.03979094 0.0415325  0.1626572  49         -9999      120.3789   33.82048204391352 2.627787  
4154.3839  9.400671   71.23121   100.952    -0.01293643 -0.08048116 -0.01892654 0.04385124 49         -9999      100.952    33.77784754885641 2.598054  
4154.583900000001 9.380744   74.89169   111.8292   -0.01014424 -0.07322119 -0.0124858 0.02158232 49         -9999      111.8292   27.66737876221358 2.58565   
4154.7839  9.358707   79.8753    136.0754   0.04079444 0.06701999 0.2032352  0.4121917  49         -9999      136.0754   19.45431820310641 2.591707  
