~Version
 VERS              .         2.0                           : CWLS LOG ASCII STANDARD - VERSION 2.0
 WRAP              .         NO                            : ONE LINE PER DEPTH STEP
 DLM               .         SPACE                         : DELIMITING CHARACTER(SPACE TAB OR COMMA)
~Well Information
#_______________________________________________________________________________
#
#PARAMETER_NAME    .UNIT     VALUE                         : DESCRIPTION
#_______________________________________________________________________________
STRT               .m        860.9839                      : First reference value
STOP               .m        4658.9839                     : Last reference value
STEP               .m        0.2                           : Step increment
NULL               .         -9999                         : Missing value
COMP               .         PETROLEO BRASILEIRO S/A       : Company
WELL               .         6-ESS-168_resample            : Well name
FLD                .         CAMARUPIM NORTE               : Field
LOC                .                                       : Location
CNTY               .                                       : County
STAT               .         ESPIRITO SANTO                : State
CTRY               .                                       : Country
SRVC               .                                       : Service Company
DATE               .                                       : Date
API                .         342710135600                  : API number
EDF                .M        25.00                         : Elevation Derrick Floor
GDAT               .         SIRGAS2000                    : Geodetic Datum
HZCS               .         UTM                           : Horizontal Coordinate System
LMF                .         MR                            : Log Measure From
LATI               .         -19_54_33.884                 : Latitude
LONG               .         -39_37_03.497                 : Longitude
MC                 .         39 W                          : Meridiano Central
ORIG               .         SIGEO EXPORTACAO PERFIL       : Origem dos dados
ORIGINALWELLNAME   .         6ESS 0168  ES                 : 
WDMS               .M        789.00                        : Water Depth to Mean Sea Level
X                  .         435367.50                     : Surface X
Y                  .         7798516.90                    : Surface Y
~Parameter Information Block
#_______________________________________________________________________________
#
#PARAMETER_NAME    .UNIT     VALUE                         : DESCRIPTION
#_______________________________________________________________________________
SET                .         ESS168_resample               : 
TLFamily_CALI      .         Caliper                       : 
TLFamily_DEPT      .         Measured Depth                : 
TLFamily_DT_merge  .         Compressional Slowness        : 
TLFamily_GR        .         Gamma Ray                     : 
TLFamily_INPEFA_1  .                                       : 
TLFamily_INPEFA_2  .                                       : 
TLFamily_INPEFA_3  .                                       : 
TLFamily_INPEFA_4  .                                       : 
TLFamily_LITO      .                                       : 
TLFamily_LLD       .         Deep Resistivity              : 
TLFamily_OG        .                                       : 
TLFamily_RESD      .         Deep Resistivity              : 
TLFamily_ZDEN      .         Bulk Density                  : 
~Curve Information
#_______________________________________________________________________________
#
#LOGNAME           .UNIT     LOG_ID                        : DESCRIPTION
#_______________________________________________________________________________
DEPT               .m                                      :  
CALI               .in                                     : CALIPER 
DT_merge           .us/ft                                  : DELTA-T COMPRESSIONAL 
GR                 .gAPI                                   : GAMMA RAY 
INPEFA_1           .                                       :  
INPEFA_2           .                                       :  
INPEFA_3           .                                       :  
INPEFA_4           .                                       :  
LITO               .                                       :  
LLD                .ohm.m                                  : LATEROLOG DEEP RESISTIVITY 
OG                 .                                       :  
RESD               .ohm.m                                  : DEEP RESISTIVITY 
ZDEN               .g/cm3                                  : FORMATION BULK DENSITY 
~Ascii
# ...
4632.9839  -9999      64.23837   82.88789   0.09448843 0.2622426  0.0889928  -0.1713296 57         19.75466   82.88789   -9999      -9999     
4633.1839  -9999      65.19156   83.96662   0.08635031 0.2468898  0.07351442 -0.1839646 57         22.11832   83.96662   -9999      -9999     
4633.3839  -9999      65.43211   85.64217   0.09840759 0.2795148  0.1257768  -0.07965166 57         20.11204   85.64217   -9999      -9999     
4633.583900000001 -9999      65.28219   89.93607   0.08968657 0.2648446  0.1156598  -0.06632669 57         19.07451   89.93607   -9999      -9999     
4633.7839  -9999      65.04066   95.95687   0.09177803 0.2703634  0.1271467  -0.03401504 57         21.76667   95.95687   -9999      -9999     
4633.9839  -9999      64.65527   97.80325   0.08354748 0.2544501  0.1118069  -0.04140804 57         19.30926   97.80325   -9999      -9999     
4634.1839  -9999      64.80956   92.39596   0.08837591 0.2669512  0.1333189  0.006174795 57         19.39304   92.39596   -9999      -9999     
4634.3839  -9999      64.31364   83.95681   0.07602243 0.239284   0.09944569 -0.03845266 57         19.97614   83.95681   -9999      -9999     
4634.583900000001 -9999      62.59487   78.65906   0.08569679 0.2623203  0.1337148  0.02158898 57         20.0372    78.65906   -9999      -9999     
4634.7839  -9999      61.57344   77.28538   0.07728363 0.2416072  0.1059797  -0.02630908 57         20.09661   77.28538   -9999      -9999     
4634.9839  -9999      61.91672   78.84718   0.1134463  0.3330478  0.2415599  0.2121327  57         20.54534   78.84718   -9999      -9999     
4635.1839  -9999      61.47551   77.56511   0.1203578  0.3659895  0.3140558  0.4096138  57         21.12349   77.56511   -9999      -9999     
4635.3839  -9999      58.48668   74.00066   0.131896   0.4012567  0.3824563  0.5958315  57         19.19968   74.00066   -9999      -9999     
4635.583900000001 -9999      58.25228   72.41086   0.1004493  0.3506345  0.3551823  0.7041316  57         15.84729   72.41086   -9999      -9999     
4635.7839  -9999      61.62304   72.76791   0.037513   0.180502   0.1088029  0.3216157  57         14.6219    72.76791   -9999      -9999     
4635.9839  -9999      65.04967   73.1679    0.04387006 0.1991165  0.1423683  0.4102404  57         13.87264   73.1679    -9999      -9999     
4636.1839  -9999      66.4521    75.38996   0.003552059 0.09593465 0.00129884 0.2135026  57         11.76431   75.38996   -9999      -9999     
4636.3839  -9999      66.97573   77.10788   -0.003684234 0.05855193 -0.07498127 0.02113394 57         10.66877   77.10788   -9999      -9999     
4636.583900000001 -9999      67.01542   78.71275   0.02110276 0.1169736  0.005068961 0.1283537  57         10.45025   78.71275   -9999      -9999     
4636.7839  -9999      66.4362    80.72279   0.03861068 0.1655178  0.08437321 0.2825721  57         10.45677   80.72279   -9999      -9999     
4636.9839  -9999      66.34538   83.2581    0.02361449 0.1265619  0.0312207  0.1915562  57         10.44685   83.2581    -9999      -9999     
4637.1839  -9999      67.15705   84.93655   -0.004634393 0.05101338 -0.08149701 -0.03134693 57         10.53719   84.93655   -9999      -9999     
4637.3839  -9999      68.1431    87.06429   0.03702841 0.1438553  0.03925619 0.1128143  57         11.12957   87.06429   -9999      -9999     
4637.583900000001 -9999      68.78769   87.77876   0.07184884 0.2469894  0.2102775  0.4418655  57         11.44954   87.77876   -9999      -9999     
4637.7839  -9999      67.24621   87.16664   0.05236005 0.2064558  0.172324   0.4305355  57         11.61874   87.16664   -9999      -9999     
4637.9839  -9999      64.41727   80.87896   0.008599582 0.09996855 0.02903165 0.2009837  57         11.41876   80.87896   -9999      -9999     
4638.1839  -9999      62.57767   72.19694   0.03698482 0.1614289  0.1119333  0.3112133  57         16.11761   72.19694   -9999      -9999     
4638.3839  -9999      62.20573   67.73426   0.01906942 0.1269534  0.07895262 0.2745419  57         17.86817   67.73426   -9999      -9999     
4638.583900000001 -9999      64.99741   77.05666   0.03688008 0.1674699  0.1400618  0.3726382  57         14.94352   77.05666   -9999      -9999     
4638.7839  -9999      67.65767   101.5397   0.005040376 0.09598159 0.05205583 0.2391706  57         13.81902   101.5397   -9999      -9999     
4638.9839  -9999      67.7888    121.202    0.01068411 0.1002567  0.05276083 0.205212   57         13.36951   121.202    -9999      -9999     
4639.1839  -9999      66.29415   129.907    -0.002937446 0.07093653 0.01880226 0.134855   57         12.76085   129.907    -9999      -9999     
4639.3839  -9999      65.03063   130.9853   -0.002466583 0.06362567 0.003279813 0.06513424 57         12.00495   130.9853   -9999      -9999     
4639.583900000001 -9999      63.9609    119.9598   0.001100906 0.07382452 0.02113614 0.06288296 57         10.84563   119.9598   -9999      -9999     
4639.7839  -9999      63.07098   102.7597   0.02010882 0.1239379  0.1022963  0.1953701  57         9.772871   102.7597   -9999      -9999     
4639.9839  -9999      62.15394   93.76699   0.002724533 0.08399893 0.05484575 0.113146   57         13.09389   93.76699   -9999      -9999     
4640.1839  -9999      61.41653   99.20752   0.006501306 0.09155082 0.06959539 0.1214866  57         19.82255   99.20752   -9999      -9999     
4640.3839  -9999      61.57617   98.93096   0.0119227  0.1109509  0.1111438  0.205122   57         18.26893   98.93096   -9999      -9999     
4640.583900000001 -9999      62.96687   84.03302   -0.00458461 0.07047558 0.06237004 0.1301985  57         12.71867   84.03302   -9999      -9999     
4640.7839  -9999      65.7532    75.50195   -0.01556039 0.03820374 0.01613326 0.02819828 57         11.50993   75.50195   -9999      -9999     
4640.9839  -9999      67.64317   88.21021   -0.005895088 0.06243937 0.05726196 0.09033222 57         11.58936   88.21021   -9999      -9999     
4641.1839  -9999      68.09264   98.76134   -0.02193101 0.02327275 0.009406904 0.01006075 57         11.57018   98.76134   -9999      -9999     
4641.3839  -9999      68.45444   99.8616    -0.0157836 0.0351414  0.02908652 0.02898934 57         11.24955   99.8616    -9999      -9999     
4641.583900000001 -9999      67.84848   97.02184   -0.03587135 -0.01459432 -0.0349239 -0.08438553 57         10.87877   97.02184   -9999      -9999     
4641.7839  -9999      66.35804   98.19497   -0.03396048 -0.01769374 -0.04274657 -0.1333323 57         11.74465   98.19497   -9999      -9999     
4641.9839  -9999      64.94653   101.7765   -0.03631643 -0.02486907 -0.0496398 -0.1700428 57         12.91023   101.7765   -9999      -9999     
4642.1839  -9999      64.37389   104.3686   -0.01748183 0.0216643  0.02347109 -0.05628154 57         13.5277    104.3686   -9999      -9999     
4642.3839  -9999      64.89153   104.7291   -0.03356058 -0.01798888 -0.02558276 -0.1429889 57         12.17178   104.7291   -9999      -9999     
4642.583900000001 -9999      66.25862   101.4922   -0.01832379 0.01667365 0.02821066 -0.06135488 57         12.24971   101.4922   -9999      -9999     
4642.7839  -9999      66.99037   94.88223   -0.02452975 0.004675477 0.0245087  -0.04958987 57         12.18639   94.88223   -9999      -9999     
4642.9839  -9999      66.71062   92.73818   -0.00594656 -0.007080403 -0.05356232 -0.1709905 57         12.16169   92.73818   -9999      -9999     
4643.1839  -9999      66.56581   95.09692   -0.02265781 0.01729107 0.05233349 -0.008000798 57         11.92934   95.09692   -9999      -9999     
4643.3839  -9999      65.34213   95.13703   -0.004296273 -0.005200879 -0.03585965 -0.1112104 57         11.97082   95.13703   -9999      -9999     
4643.583900000001 -9999      65.60848   97.04873   -0.01531911 0.01311484 0.02902468 -0.02352131 57         12.18546   97.04873   -9999      -9999     
4643.7839  -9999      65.91368   103.0212   -0.006533966 -0.002732401 -0.01531902 -0.06599553 57         12.29009   103.0212   -9999      -9999     
