~Version
 VERS              .         2.0                           : CWLS LOG ASCII STANDARD - VERSION 2.0
 WRAP              .         NO                            : ONE LINE PER DEPTH STEP
 DLM               .         SPACE                         : DELIMITING CHARACTER(SPACE TAB OR COMMA)
~Well Information
#_______________________________________________________________________________
#
#PARAMETER_NAME    .UNIT     VALUE                         : DESCRIPTION
#_______________________________________________________________________________
STRT               .m        860.9839                      : First reference value
STOP               .m        4658.9839                     : Last reference value
STEP               .m        0.2                           : Step increment
NULL               .         -9999                         : Missing value
COMP               .         PETROLEO BRASILEIRO S/A       : Company
WELL               .         6-ESS-168_resample            : Well name
FLD                .         CAMARUPIM NORTE               : Field
LOC                .                                       : Location
CNTY               .                                       : County
STAT               .         ESPIRITO SANTO                : State
CTRY               .                                       : Country
SRVC               .                                       : Service Company
DATE               .                                       : Date
API                .         342710135600                  : API number
EDF                .M        25.00                         : Elevation Derrick Floor
GDAT               .         SIRGAS2000                    : Geodetic Datum
HZCS               .         UTM                           : Horizontal Coordinate System
LMF                .         MR                            : Log Measure From
LATI               .         -19_54_33.884                 : Latitude
LONG               .         -39_37_03.497                 : Longitude
MC                 .         39 W                          : Meridiano Central
ORIG               .         SIGEO EXPORTACAO PERFIL       : Origem dos dados
ORIGINALWELLNAME   .         6ESS 0168  ES                 : 
WDMS               .M        789.00                        : Water Depth to Mean Sea Level
X                  .         435367.50                     : Surface X
Y                  .         7798516.90                    : Surface Y
~Parameter Information Block
#_______________________________________________________________________________
#
#PARAMETER_NAME    .UNIT     VALUE                         : DESCRIPTION
#_______________________________________________________________________________
SET                .         ESS168_resample               : 
TLFamily_CALI      .         Caliper                       : 
TLFamily_DEPT      .         Measured Depth                : 
TLFamily_DT_merge  .         Compressional Slowness        : 
TLFamily_GR        .         Gamma Ray                     : 
TLFamily_INPEFA_1  .                                       : 
TLFamily_INPEFA_2  .                                       : 
TLFamily_INPEFA_3  .                                       : 
TLFamily_INPEFA_4  .                                       : 
TLFamily_LITO      .                                       : 
TLFamily_LLD       .         Deep Resistivity              : 
TLFamily_OG        .                                       : 
TLFamily_RESD      .         Deep Resistivity              : 
TLFamily_ZDEN      .         Bulk Density                  : 
~Curve Information
#_______________________________________________________________________________
#
#LOGNAME           .UNIT     LOG_ID                        : DESCRIPTION
#_______________________________________________________________________________
DEPT               .m                                      :  
CALI               .in                                     : CALIPER 
DT_merge           .us/ft                                  : DELTA-T COMPRESSIONAL 
GR                 .gAPI                                   : GAMMA RAY 
INPEFA_1           .                                       :  
INPEFA_2           .                                       :  
INPEFA_3           .                                       :  
INPEFA_4           .                                       :  
LITO               .                                       :  
LLD                .ohm.m                                  : LATEROLOG DEEP RESISTIVITY 
OG                 .                                       :  
RESD               .ohm.m                                  : DEEP RESISTIVITY 
ZDEN               .g/cm3                                  : FORMATION BULK DENSITY 
~Ascii
# ...
2132.7839  -9999      -9999      44.84746   0.1449883  0.08042704 0.09732379 0.006719399 49         -9999      44.84746   -9999      -9999     
2132.9839  -9999      -9999      40.53495   0.1538606  0.09950849 0.1212693  0.02328554 49         -9999      40.53495   -9999      -9999     
2133.1839  -9999      -9999      36.86019   0.1725299  0.1478489  0.1942165  0.1467729  58         -9999      36.86019   -9999      -9999     
2133.3839  -9999      -9999      36.4405    0.1586429  0.1160536  0.1555142  0.09658138 58         -9999      36.4405    -9999      -9999     
2133.5839  -9999      -9999      38.69655   0.1482099  0.08464652 0.1062458  -0.003183625 58         -9999      38.69655   -9999      -9999     
2133.7839  -9999      -9999      44.14011   0.1481335  0.07928774 0.09293648 -0.05236511 58         -9999      44.14011   -9999      -9999     
2133.9839  -9999      -9999      47.97368   0.1494104  0.0796811  0.09088033 -0.07479464 58         -9999      47.97368   -9999      -9999     
2134.1839  -9999      -9999      48.85814   0.1525653  0.08130208 0.08621714 -0.1154502 58         -9999      48.85814   -9999      -9999     
2134.3839  -9999      -9999      51.33383   0.1584091  0.0966908  0.109589   -0.08776443 58         -9999      51.33383   -9999      -9999     
2134.5839  -9999      -9999      55.42684   0.1636096  0.1064619  0.1219245  -0.08073494 58         -9999      55.42684   -9999      -9999     
2134.7839  -9999      -9999      58.71996   0.1713426  0.1268732  0.153991   -0.02911809 58         -9999      58.71996   -9999      -9999     
2134.9839  -9999      -9999      62.2437    0.1673163  0.1169296  0.1432599  -0.04213582 58         -9999      62.2437    -9999      -9999     
2135.1839  -9999      -9999      65.39307   0.1703184  0.1237196  0.1548559  -0.02066647 58         -9999      65.39307   -9999      -9999     
2135.3839  -9999      -9999      65.98239   0.1659449  0.1115138  0.1391009  -0.04488444 58         -9999      65.98239   -9999      -9999     
2135.5839  -9999      -9999      64.07179   0.1664873  0.1109558  0.1387149  -0.04695271 58         -9999      64.07179   -9999      -9999     
2135.7839  -9999      -9999      59.82594   0.1660252  0.1084577  0.1364252  -0.04948265 58         -9999      59.82594   -9999      -9999     
2135.9839  -9999      -9999      53.75203   0.1625272  0.0975085  0.1208684  -0.07708431 58         -9999      53.75203   -9999      -9999     
2136.1839  -9999      -9999      46.39282   0.164481   0.09985394 0.1238222  -0.07579496 58         -9999      46.39282   -9999      -9999     
2136.3839  -9999      -9999      44.46099   0.167767   0.1073339  0.136582   -0.0500757 58         -9999      44.46099   -9999      -9999     
2136.5839  -9999      -9999      50.1795    0.1609447  0.08805443 0.1093101  -0.09674749 58         -9999      50.1795    -9999      -9999     
2136.7839  -9999      -9999      55.50242   0.1621616  0.0870606  0.1050122  -0.116437  58         -9999      55.50242   -9999      -9999     
2136.9839  -9999      -9999      56.32602   0.1656991  0.0940529  0.1148529  -0.1056969 58         -9999      56.32602   -9999      -9999     
2137.1839  -9999      -9999      53.90628   0.1861163  0.1466815  0.1956917  0.04662135 58         -9999      53.90628   -9999      -9999     
2137.3839  -9999      -9999      50.77347   0.171875   0.1130739  0.1543384  0.001375385 58         -9999      50.77347   -9999      -9999     
2137.5839  -9999      -9999      47.74014   0.1771559  0.1235519  0.170246   0.0396844  58         -9999      47.74014   -9999      -9999     
2137.7839  -9999      -9999      44.97305   0.1755189  0.1196782  0.1693126  0.06019791 58         -9999      44.97305   -9999      -9999     
2137.9839  -9999      -9999      44.66388   0.1711487  0.1060726  0.1508923  0.04353237 58         -9999      44.66388   -9999      -9999     
2138.1839  -9999      -9999      46.25871   0.175552   0.114717   0.1644278  0.08054493 58         -9999      46.25871   -9999      -9999     
2138.3839  -9999      -9999      48.16733   0.1735681  0.1094284  0.1610324  0.09928661 58         -9999      48.16733   -9999      -9999     
2138.5839  -9999      -9999      49.95433   0.1763166  0.1138762  0.1694231  0.1345764  58         -9999      49.95433   -9999      -9999     
2138.7839  -9999      -9999      50.97206   0.176624   0.1144392  0.1750862  0.1733659  58         -9999      50.97206   -9999      -9999     
2138.9839  -9999      -9999      51.77864   0.1785174  0.1185854  0.186295   0.2262354  58         -9999      51.77864   -9999      -9999     
2139.1839  -9999      -9999      52.12004   0.1629837  0.07625993 0.1265582  0.1437772  58         -9999      52.12004   -9999      -9999     
2139.3839  -9999      -9999      51.31977   0.1868395  0.1336994  0.2113771  0.3094023  58         -9999      51.31977   -9999      -9999     
2139.5839  -9999      -9999      51.40377   0.1764338  0.1135106  0.1963378  0.341278   58         -9999      51.40377   -9999      -9999     
2139.7839  -9999      -9999      52.16442   0.1803912  0.1195312  0.2075305  0.3903199  58         -9999      52.16442   -9999      -9999     
2139.9839  -9999      -9999      51.62223   0.1843281  0.1342272  0.2410382  0.5013724  58         -9999      51.62223   -9999      -9999     
2140.1839  -9999      -9999      47.222     0.1805546  0.1268422  0.2416953  0.5639764  58         -9999      47.222     -9999      -9999     
2140.3839  -9999      -9999      45.08089   0.1643032  0.08419828 0.1851873  0.5091628  58         -9999      45.08089   -9999      -9999     
2140.5839  -9999      -9999      47.14064   0.1715723  0.1007444  0.2139507  0.5997344  58         -9999      47.14064   -9999      -9999     
2140.7839  -9999      -9999      49.20045   0.1596964  0.07285301 0.1836182  0.6052218  58         -9999      49.20045   -9999      -9999     
2140.9839  -9999      -9999      51.26023   0.1510745  0.04649319 0.1469881  0.5768515  58         -9999      51.26023   -9999      -9999     
2141.1839  -9999      -9999      52.01138   0.1397249  0.01528241 0.1042107  0.5346561  58         -9999      52.01138   -9999      -9999     
2141.3839  -9999      -9999      51.81935   0.1364455  0.002086647 0.08465362 0.5244662  58         -9999      51.81935   -9999      -9999     
2141.5839  -9999      -9999      51.62732   0.1213609  -0.03955951 0.02429776 0.4410599  58         -9999      51.62732   -9999      -9999     
2141.7839  -9999      -9999      51.4353    0.1140979  -0.0659186 -0.01990559 0.3670573  58         -9999      51.4353    -9999      -9999     
2141.9839  -9999      -9999      51.28877   0.1094969  -0.08676462 -0.05941507 0.2850554  58         -9999      51.28877   -9999      -9999     
2142.1839  -9999      -9999      53.58769   0.1052348  -0.105555  -0.09537362 0.2051965  58         -9999      53.58769   -9999      -9999     
2142.3839  -9999      -9999      52.67856   0.09650061 -0.1390189 -0.1576815 0.05969203 58         -9999      52.67856   -9999      -9999     
2142.5839  -9999      -9999      50.3514    0.1128448  -0.1078857 -0.1262403 0.0688154  58         -9999      50.3514    -9999      -9999     
2142.7839  -9999      -9999      50.29847   0.1165415  -0.1005078 -0.1177687 0.07060878 58         -9999      50.29847   -9999      -9999     
2142.9839  -9999      -9999      50.16085   0.1175486  -0.1071795 -0.1378767 0.002186377 58         -9999      50.16085   -9999      -9999     
2143.1839  -9999      -9999      51.05903   0.1315166  -0.07477099 -0.094649  0.05603196 57         -9999      51.05903   -9999      -9999     
2143.3839  -9999      -9999      55.77542   0.1238788  -0.09690913 -0.1283062 -0.01179372 57         -9999      55.77542   -9999      -9999     
2143.5839  -9999      -9999      59.275     0.1362614  -0.07201771 -0.09907684 0.01302953 57         -9999      59.275     -9999      -9999     
2143.7839  -9999      -9999      60.94094   0.1353995  -0.07403041 -0.09992296 0.009789991 57         -9999      60.94094   -9999      -9999     
