~Version
 VERS              .         2.0                           : CWLS LOG ASCII STANDARD - VERSION 2.0
 WRAP              .         NO                            : ONE LINE PER DEPTH STEP
 DLM               .         SPACE                         : DELIMITING CHARACTER(SPACE TAB OR COMMA)
~Well Information
#_______________________________________________________________________________
#
#PARAMETER_NAME    .UNIT     VALUE                         : DESCRIPTION
#_______________________________________________________________________________
STRT               .m        860.9839                      : First reference value
STOP               .m        4658.9839                     : Last reference value
STEP               .m        0.2                           : Step increment
NULL               .         -9999                         : Missing value
COMP               .         PETROLEO BRASILEIRO S/A       : Company
WELL               .         6-ESS-168_resample            : Well name
FLD                .         CAMARUPIM NORTE               : Field
LOC                .                                       : Location
CNTY               .                                       : County
STAT               .         ESPIRITO SANTO                : State
CTRY               .                                       : Country
SRVC               .                                       : Service Company
DATE               .                                       : Date
API                .         342710135600                  : API number
EDF                .M        25.00                         : Elevation Derrick Floor
GDAT               .         SIRGAS2000                    : Geodetic Datum
HZCS               .         UTM                           : Horizontal Coordinate System
LMF                .         MR                            : Log Measure From
LATI               .         -19_54_33.884                 : Latitude
LONG               .         -39_37_03.497                 : Longitude
MC                 .         39 W                          : Meridiano Central
ORIG               .         SIGEO EXPORTACAO PERFIL       : Origem dos dados
ORIGINALWELLNAME   .         6ESS 0168  ES                 : 
WDMS               .M        789.00                        : Water Depth to Mean Sea Level
X                  .         435367.50                     : Surface X
Y                  .         7798516.90                    : Surface Y
~Parameter Information Block
#_______________________________________________________________________________
#
#PARAMETER_NAME    .UNIT     VALUE                         : DESCRIPTION
#_______________________________________________________________________________
SET                .         ESS168_resample               : 
TLFamily_CALI      .         Caliper                       : 
TLFamily_DEPT      .         Measured Depth                : 
TLFamily_DT_merge  .         Compressional Slowness        : 
TLFamily_GR        .         Gamma Ray                     : 
TLFamily_INPEFA_1  .                                       : 
TLFamily_INPEFA_2  .                                       : 
TLFamily_INPEFA_3  .                                       : 
TLFamily_INPEFA_4  .                                       : 
TLFamily_LITO      .                                       : 
TLFamily_LLD       .         Deep Resistivity              : 
TLFamily_OG        .                                       : 
TLFamily_RESD      .         Deep Resistivity              : 
TLFamily_ZDEN      .         Bulk Density                  : 
~Curve Information
#_______________________________________________________________________________
#
#LOGNAME           .UNIT     LOG_ID                        : DESCRIPTION
#_______________________________________________________________________________
DEPT               .m                                      :  
CALI               .in                                     : CALIPER 
DT_merge           .us/ft                                  : DELTA-T COMPRESSIONAL 
GR                 .gAPI                                   : GAMMA RAY 
INPEFA_1           .                                       :  
INPEFA_2           .                                       :  
INPEFA_3           .                                       :  
INPEFA_4           .                                       :  
LITO               .                                       :  
LLD                .ohm.m                                  : LATEROLOG DEEP RESISTIVITY 
OG                 .                                       :  
RESD               .ohm.m                                  : DEEP RESISTIVITY 
ZDEN               .g/cm3                                  : FORMATION BULK DENSITY 
~Ascii
# ...
3122.9839  12.41168   -9999      125.5057   0.05308444 0.1049803  0.1068459  0.1539964  57         -9999      125.5057   1.872719830405711 2.503436  
3123.1839  12.41896   -9999      138.5087   0.04001101 0.07457168 0.06693131 0.1018544  57         -9999      138.5087   1.778219579795076 2.491341  
3123.3839  12.42044   -9999      148.3673   0.03070414 0.04737879 0.02164997 0.006216056 57         -9999      148.3673   1.635209452295518 2.4876    
3123.5839  12.41913   -9999      151.9323   0.03985783 0.06832336 0.0468497  0.02780189 57         -9999      151.9323   1.555950541980782 2.486021  
3123.7839  12.41801   -9999      146.3594   0.03303484 0.05204922 0.02217059 -0.02639766 57         -9999      146.3594   1.527669663375945 2.481177  
3123.9839  12.39954   -9999      140.6726   0.04758984 0.08716399 0.06898843 0.03437122 57         -9999      140.6726   1.542460153563716 2.484342  
3124.1839  12.39389   -9999      144.9985   0.05024264 0.09974553 0.09288287 0.0832226  57         -9999      144.9985   1.588198978174916 2.492826  
3124.3839  12.40481   -9999      153.8623   0.03578309 0.06149573 0.03457535 -0.03069173 57         -9999      153.8623   1.617799627997411 2.49194   
3124.5839  12.40496   -9999      155.9596   0.05047214 0.09685921 0.08063368 0.02254488 57         -9999      155.9596   1.622097027232718 2.482664  
3124.7839  12.40741   -9999      154.2431   0.07009155 0.1540541  0.1725987  0.2012884  57         -9999      154.2431   1.610131619080159 2.473548  
3124.9839  12.41737   -9999      153.8421   0.05080034 0.1106625  0.1175856  0.1302386  57         -9999      153.8421   1.594026555547434 2.472329  
3125.1839  12.4163    -9999      149.3402   0.04221564 0.08564831 0.07655434 0.04142836 57         -9999      149.3402   1.59413205379971 2.479105  
3125.3839  12.40918   -9999      145.1298   0.04997274 0.1053243  0.1029847  0.07028545 57         -9999      145.1298   1.613639839646834 2.485421  
3125.5839  12.40747   -9999      147.15     0.0631967  0.140393   0.154757   0.1528797  57         -9999      147.15     1.639282535490015 2.483764  
3125.7839  12.41486   -9999      152.3869   0.06886842 0.1638169  0.1996745  0.2560722  57         -9999      152.3869   1.650484725723692 2.476881  
3125.9839  12.42388   -9999      154.7291   0.06254867 0.149869   0.1838388  0.244274   57         -9999      154.7291   1.642904777904595 2.467162  
3126.1839  12.42423   -9999      155.3599   0.0605294  0.1496798  0.1894289  0.2679954  57         -9999      155.3599   1.622423437771299 2.460514  
3126.3839  12.41753   -9999      157.926    0.06021333 0.150001   0.1923827  0.2804783  57         -9999      157.926    1.594501128578341 2.463976  
3126.5839  12.40869   -9999      157.6492   0.06875015 0.1769247  0.2373939  0.3743899  57         -9999      157.6492   1.583083400427736 2.473252  
3126.7839  12.40558   -9999      155.1783   0.05440568 0.1435022  0.1934512  0.3161186  57         -9999      155.1783   1.590804501338198 2.477762  
3126.9839  12.41055   -9999      151.6887   0.06366584 0.1670367  0.2272018  0.3785378  57         -9999      151.6887   1.602649275143259 2.482506  
3127.1839  12.41063   -9999      148.1327   0.03953236 0.1075464  0.1423985  0.2395944  57         -9999      148.1327   1.613540622798423 2.482648  
3127.3839  12.40607   -9999      149.0119   0.05762058 0.1493142  0.1968212  0.3195204  57         -9999      149.0119   1.618069272381109 2.478974  
3127.5839  12.40378   -9999      149.6287   0.04719634 0.128847   0.1734012  0.2967239  57         -9999      149.6287   1.617959316839548 2.482095  
3127.7839  12.40373   -9999      144.5103   0.05225269 0.1383974  0.1828441  0.3063421  57         -9999      144.5103   1.619666100237921 2.488482  
3127.9839  12.40643   -9999      142.722    0.05888093 0.16026    0.219554   0.387413   57         -9999      142.722    1.627489122955103 2.498753  
3128.1839  12.40201   -9999      148.0283   0.0434414  0.1229834  0.1686756  0.3199224  57         -9999      148.0283   1.6392663026499 2.499852  
3128.3839  12.391     -9999      151.8548   0.02993874 0.08322401 0.1023566  0.1853408  57         -9999      151.8548   1.645405485802755 2.490598  
3128.5839  12.38216   -9999      148.802    0.04047115 0.1083013  0.1341649  0.2257905  57         -9999      148.802    1.640943427283874 2.492854  
3128.7839  12.37959   -9999      143.5073   0.04563091 0.1221509  0.1539322  0.2604184  57         -9999      143.5073   1.629764416132451 2.496562  
3128.9839  12.39501   -9999      142.1462   0.03757445 0.1030663  0.1263065  0.2130874  57         -9999      142.1462   1.622286524681016 2.496232  
3129.1839  12.40528   -9999      145.0938   0.0379523  0.1015781  0.119451   0.1876003  57         -9999      145.0938   1.624546529437192 2.494881  
3129.3839  12.40351   -9999      147.9569   0.04301577 0.1150916  0.1375884  0.212702   57         -9999      147.9569   1.625556673497972 2.497766  
3129.5839  12.40845   -9999      147.8023   0.04016705 0.108731   0.1282114  0.1965598  57         -9999      147.8023   1.621384902538454 2.502984  
3129.7839  12.41766   -9999      148.9367   0.03265256 0.08725355 0.09196851 0.1177818  57         -9999      148.9367   1.61945469687735 2.49947   
3129.9839  12.41358   -9999      150.3643   0.04036396 0.1056238  0.1146233  0.1409215  57         -9999      150.3643   1.609091376695517 2.48945   
3130.1839  12.40155   -9999      153.8176   0.04282211 0.1129161  0.1248987  0.1544286  57         -9999      153.8176   1.589214694949429 2.484942  
3130.3839  12.39349   -9999      155.2693   0.05205585 0.1388894  0.1647273  0.2286893  57         -9999      155.2693   1.581428254688403 2.485952  
3130.5839  12.38925   -9999      153.9082   0.04221725 0.1167293  0.1358094  0.1896429  57         -9999      153.9082   1.587164252245748 2.488421  
3130.7839  12.39394   -9999      152.9739   0.04544341 0.1241172  0.1447999  0.2012914  57         -9999      152.9739   1.586073977930505 2.483254  
3130.9839  12.40107   -9999      151.3677   0.04431663 0.1235291  0.14568    0.2069529  57         -9999      151.3677   1.57366856298432 2.476416  
3131.1839  12.40708   -9999      152.5879   0.04023091 0.1123411  0.1275186  0.1709325  57         -9999      152.5879   1.563893228416991 2.480497  
3131.3839  12.39917   -9999      157.7061   0.05261747 0.1454631  0.1766362  0.2580181  57         -9999      157.7061   1.567318813759281 2.481931  
3131.5839  12.3839    -9999      159.5959   0.04077546 0.1192739  0.143006   0.2140995  57         -9999      159.5959   1.577710590237911 2.473659  
3131.7839  12.38999   -9999      156.033    0.04934248 0.1382535  0.1663788  0.2459351  57         -9999      156.033    1.582452492650371 2.456001  
3131.9839  12.40294   -9999      153.6672   0.05461537 0.1585222  0.2036702  0.3363057  57         -9999      153.6672   1.578345904339449 2.4376    
3132.1839  12.40279   -9999      153.976    0.03768045 0.1156207  0.1425341  0.2450256  57         -9999      153.976    1.567824523275105 2.450694  
3132.3839  12.40286   -9999      153.5724   0.04013503 0.1190429  0.1424202  0.2343249  57         -9999      153.5724   1.561720206902871 2.474672  
3132.5839  12.40815   -9999      152.9807   0.03698132 0.1133052  0.1357321  0.2299281  57         -9999      152.9807   1.564018892920394 2.48047   
3132.7839  12.40973   -9999      154.1939   0.04019117 0.1186031  0.1386666  0.2268074  57         -9999      154.1939   1.565064828667884 2.466472  
3132.9839  12.39636   -9999      154.3768   0.04132453 0.1253202  0.1515599  0.2610737  57         -9999      154.3768   1.568790852280162 2.468219  
3133.1839  12.37489   -9999      152.298    0.03253865 0.1007338  0.1125835  0.1928436  57         -9999      152.298    1.587194061338467 2.470513  
3133.3839  12.36584   -9999      149.3474   0.04706311 0.1384985  0.1667303  0.2899933  57         -9999      149.3474   1.626980630173953 2.466443  
3133.5839  12.37178   -9999      149.0667   0.03826595 0.1198576  0.1444323  0.2761943  57         -9999      149.0667   1.675369264522001 2.461056  
