~Version
 VERS              .         2.0                           : CWLS LOG ASCII STANDARD - VERSION 2.0
 WRAP              .         NO                            : ONE LINE PER DEPTH STEP
 DLM               .         SPACE                         : DELIMITING CHARACTER(SPACE TAB OR COMMA)
~Well Information
#_______________________________________________________________________________
#
#PARAMETER_NAME    .UNIT     VALUE                         : DESCRIPTION
#_______________________________________________________________________________
STRT               .m        860.9839                      : First reference value
STOP               .m        4658.9839                     : Last reference value
STEP               .m        0.2                           : Step increment
NULL               .         -9999                         : Missing value
COMP               .         PETROLEO BRASILEIRO S/A       : Company
WELL               .         6-ESS-168_resample            : Well name
FLD                .         CAMARUPIM NORTE               : Field
LOC                .                                       : Location
CNTY               .                                       : County
STAT               .         ESPIRITO SANTO                : State
CTRY               .                                       : Country
SRVC               .                                       : Service Company
DATE               .                                       : Date
API                .         342710135600                  : API number
EDF                .M        25.00                         : Elevation Derrick Floor
GDAT               .         SIRGAS2000                    : Geodetic Datum
HZCS               .         UTM                           : Horizontal Coordinate System
LMF                .         MR                            : Log Measure From
LATI               .         -19_54_33.884                 : Latitude
LONG               .         -39_37_03.497                 : Longitude
MC                 .         39 W                          : Meridiano Central
ORIG               .         SIGEO EXPORTACAO PERFIL       : Origem dos dados
ORIGINALWELLNAME   .         6ESS 0168  ES                 : 
WDMS               .M        789.00                        : Water Depth to Mean Sea Level
X                  .         435367.50                     : Surface X
Y                  .         7798516.90                    : Surface Y
~Parameter Information Block
#_______________________________________________________________________________
#
#PARAMETER_NAME    .UNIT     VALUE                         : DESCRIPTION
#_______________________________________________________________________________
SET                .         ESS168_resample               : 
TLFamily_CALI      .         Caliper                       : 
TLFamily_DEPT      .         Measured Depth                : 
TLFamily_DT_merge  .         Compressional Slowness        : 
TLFamily_GR        .         Gamma Ray                     : 
TLFamily_INPEFA_1  .                                       : 
TLFamily_INPEFA_2  .                                       : 
TLFamily_INPEFA_3  .                                       : 
TLFamily_INPEFA_4  .                                       : 
TLFamily_LITO      .                                       : 
TLFamily_LLD       .         Deep Resistivity              : 
TLFamily_OG        .                                       : 
TLFamily_RESD      .         Deep Resistivity              : 
TLFamily_ZDEN      .         Bulk Density                  : 
~Curve Information
#_______________________________________________________________________________
#
#LOGNAME           .UNIT     LOG_ID                        : DESCRIPTION
#_______________________________________________________________________________
DEPT               .m                                      :  
CALI               .in                                     : CALIPER 
DT_merge           .us/ft                                  : DELTA-T COMPRESSIONAL 
GR                 .gAPI                                   : GAMMA RAY 
INPEFA_1           .                                       :  
INPEFA_2           .                                       :  
INPEFA_3           .                                       :  
INPEFA_4           .                                       :  
LITO               .                                       :  
LLD                .ohm.m                                  : LATEROLOG DEEP RESISTIVITY 
OG                 .                                       :  
RESD               .ohm.m                                  : DEEP RESISTIVITY 
ZDEN               .g/cm3                                  : FORMATION BULK DENSITY 
~Ascii
# ...
2628.5839  12.83808   -9999      87.16133   -0.11581   -0.02995995 -0.2161664 -0.1273246 57         -9999      87.16133   0.9985626782770161 2.351034  
2628.7839  12.74786   -9999      85.48014   -0.120303  -0.0405971 -0.2254084 -0.1316797 57         -9999      85.48014   0.9619723359508611 2.364702  
2628.9839  12.71003   -9999      81.51425   -0.1201278 -0.04363223 -0.2305555 -0.1502286 57         -9999      81.51425   0.9626703566557427 2.36147   
2629.1839  12.71702   -9999      81.38931   -0.1225525 -0.0539093 -0.2467789 -0.1948959 57         -9999      81.38931   0.9497706224103563 2.353191  
2629.3839  12.71847   -9999      83.19476   -0.1157886 -0.03975364 -0.22675   -0.178239  57         -9999      83.19476   0.9219185224219945 2.334329  
2629.5839  12.72283   -9999      79.2819    -0.109598  -0.02492549 -0.2020209 -0.1450282 57         -9999      79.2819    0.9302191704692521 2.338621  
2629.7839  12.73032   -9999      67.48303   -0.1109246 -0.02889017 -0.2042556 -0.1594333 57         -9999      67.48303   1.044971603651455 2.382168  
2629.9839  12.72946   -9999      56.77655   -0.1223688 -0.0618591 -0.25334   -0.2744707 57         -9999      56.77655   1.213303533555031 2.42833   
2630.1839  12.72153   -9999      54.64668   -0.1111629 -0.038881  -0.224467  -0.2725661 58         -9999      54.64668   1.318720247548457 2.42824   
2630.3839  12.71047   -9999      61.29756   -0.09575989 -0.00252763 -0.1726937 -0.2257774 58         -9999      61.29756   1.249697988614784 2.387169  
2630.5839  12.70098   -9999      71.43452   -0.07531187 0.05553097 -0.0767643 -0.06386477 58         -9999      71.43452   1.08989703414921 2.353653  
2630.7839  12.69651   -9999      76.37633   -0.08107978 0.04329907 -0.08515043 -0.08325204 58         -9999      76.37633   1.020515010173435 2.352715  
2630.9839  12.69496   -9999      74.16914   -0.08396789 0.03846322 -0.08483041 -0.1000893 58         -9999      74.16914   1.036797839845451 2.366459  
2631.1839  12.69184   -9999      71.43729   -0.07152721 0.06802623 -0.03899677 -0.04797893 58         -9999      71.43729   1.062933260787749 2.375519  
2631.3839  12.68864   -9999      71.13282   -0.06492721 0.09171997 0.008738595 0.03451104 58         -9999      71.13282   1.089799754797611 2.385717  
2631.5839  12.69006   -9999      69.29959   -0.06769253 0.08574164 0.008557248 0.02778196 57         -9999      69.29959   1.116815015928302 2.400461  
2631.7839  12.69828   -9999      67.64368   -0.05777823 0.1142843  0.05969217 0.1099493  57         -9999      67.64368   1.128445086344049 2.396598  
2631.9839  12.70597   -9999      69.53123   -0.06297516 0.1055416  0.05981127 0.1172507  57         -9999      69.53123   1.109500559681802 2.370908  
2632.1839  12.70418   -9999      72.60705   -0.061347  0.1099536  0.07317755 0.1320402  57         -9999      72.60705   1.068660623685789 2.351792  
2632.3839  12.70121   -9999      73.74411   -0.06969833 0.09146088 0.05599484 0.09861574 57         -9999      73.74411   1.062970519664952 2.352801  
2632.5839  12.69591   -9999      72.43279   -0.07680906 0.07008628 0.02664769 0.01965468 57         -9999      72.43279   1.089609821502822 2.364207  
2632.7839  12.69143   -9999      71.83515   -0.05987461 0.1110742  0.0881257  0.09162322 57         -9999      71.83515   1.096350358119422 2.3686    
2632.9839  12.69142   -9999      74.93277   -0.04872501 0.145529   0.1517524  0.2032861  57         -9999      74.93277   1.073667767911105 2.366081  
2633.1839  12.68956   -9999      76.62067   -0.04085493 0.1698457  0.2003731  0.296863   57         -9999      76.62067   1.044963978110259 2.374586  
2633.3839  12.69306   -9999      72.15222   -0.04669629 0.162022   0.2057163  0.3258634  57         -9999      72.15222   1.070113357176268 2.401036  
2633.5839  12.70343   -9999      64.56837   -0.07549012 0.09442917 0.1222515  0.1978237  57         -9999      64.56837   1.146357992492293 2.419307  
2633.7839  12.7087    -9999      60.94752   -0.09573632 0.03052681 0.01906076 -0.04318229 57         -9999      60.94752   1.191836739808115 2.407024  
2633.9839  12.70245   -9999      64.30562   -0.07146157 0.09271429 0.1116882  0.07689503 57         -9999      64.30562   1.166814571436418 2.359691  
2634.1839  12.69446   -9999      66.99521   -0.07727494 0.06609549 0.06260531 -0.07906549 57         -9999      66.99521   1.078563314505608 2.31064   
2634.3839  12.69496   -9999      66.39915   -0.05158251 0.1367205  0.1716734  0.07298577 57         -9999      66.39915   0.9937561356867417 2.292219  
2634.5839  12.69595   -9999      66.78648   -0.04863161 0.1406175  0.1797043  0.0548108  57         -9999      66.78648   0.9776243808111766 2.290641  
2634.7839  12.69253   -9999      67.64494   -0.0346561 0.1775041  0.2365978  0.1125083  57         -9999      67.64494   0.9922234319754199 2.291415  
2634.9839  12.68824   -9999      69.16484   -0.003890824 0.2581677  0.3638984  0.321253   57         -9999      69.16484   0.9897350484985502 2.294708  
2635.1839  12.68796   -9999      71.43818   0.01691432 0.3220487  0.4773389  0.5423599  57         -9999      71.43818   0.9709484754354399 2.295993  
2635.3839  12.69345   -9999      74.7936    0.005132889 0.3113018  0.4968409  0.6573957  57         -9999      74.7936    0.9547258348308927 2.297689  
2635.5839  12.7       -9999      79.16213   -0.02557015 0.2374765  0.4068993  0.5465591  57         -9999      79.16213   0.9408847338158344 2.299271  
2635.7839  12.70257   -9999      78.56923   -0.05718894 0.1534115  0.2876412  0.3318306  57         -9999      78.56923   0.9361585911524702 2.300848  
2635.9839  12.70259   -9999      72.75701   -0.03727147 0.2007824  0.3595738  0.4469523  57         -9999      72.75701   0.9773188076926024 2.314743  
2636.1839  12.70997   -9999      67.30693   -0.03870365 0.1953785  0.356688   0.4370532  57         -9999      67.30693   1.053824542242598 2.330611  
2636.3839  12.71778   -9999      67.11156   -0.02634493 0.2350883  0.4321176  0.6018789  57         -9999      67.11156   1.083687679069656 2.335042  
2636.5839  12.71538   -9999      76.88589   -0.04207005 0.1929605  0.3785353  0.5262968  57         -9999      76.88589   1.02417787857553 2.337893  
2636.7839  12.72087   -9999      90.32188   -0.05570465 0.1624362  0.3453782  0.4873807  57         -9999      90.32188   0.9496104467289239 2.365854  
2636.9839  12.73234   -9999      93.21661   -0.06982726 0.1157837  0.2726894  0.3388674  57         -9999      93.21661   1.054890641381045 2.439509  
2637.1839  12.73042   -9999      85.81194   -0.06020534 0.1397353  0.3101325  0.3873461  57         -9999      85.81194   1.555606176864694 2.531088  
2637.3839  12.72043   -9999      76.71048   -0.06610813 0.1173362  0.2751344  0.3008419  57         -9999      76.71048   2.634985597100928 2.603062  
2637.5839  12.71954   -9999      68.88908   -0.05121565 0.1536038  0.3286295  0.3683563  57         -9999      68.88908   4.985035737523808 2.657399  
2637.7839  12.72767   -9999      63.73779   -0.03149284 0.2062333  0.4157102  0.5327187  57         -9999      63.73779   11.96985545996935 2.681258  
2637.9839  12.72934   -9999      56.66372   -0.05175876 0.1571391  0.3539374  0.4401252  57         -9999      56.66372   46.97694948804867 2.686659  
2638.1839  12.726     -9999      48.25986   -0.05776973 0.1389918  0.3305241  0.3953252  49         -9999      48.25986   112.3061407981274 2.663245  
2638.3839  12.72759   -9999      50.13261   -0.05722453 0.1354342  0.3249618  0.370792   49         -9999      50.13261   101.7290727317446 2.569256  
2638.5839  12.74261   -9999      65.60986   -0.0690691 0.103796   0.2815413  0.2852176  49         -9999      65.60986   30.65976194460863 2.438624  
2638.7839  12.74694   -9999      86.11621   -0.07469316 0.08102548 0.2426989  0.1845037  49         -9999      86.11621   2.27457673787907 2.367458  
2638.9839  12.7223    -9999      95.11284   -0.07523134 0.07393748 0.2277179  0.1205285  49         -9999      95.11284   1.024641135298768 2.372667  
