~Version
 VERS              .         2.0                           : CWLS LOG ASCII STANDARD - VERSION 2.0
 WRAP              .         NO                            : ONE LINE PER DEPTH STEP
 DLM               .         SPACE                         : DELIMITING CHARACTER(SPACE TAB OR COMMA)
~Well Information
#_______________________________________________________________________________
#
#PARAMETER_NAME    .UNIT     VALUE                         : DESCRIPTION
#_______________________________________________________________________________
STRT               .m        860.9839                      : First reference value
STOP               .m        4658.9839                     : Last reference value
STEP               .m        0.2                           : Step increment
NULL               .         -9999                         : Missing value
COMP               .         PETROLEO BRASILEIRO S/A       : Company
WELL               .         6-ESS-168_resample            : Well name
FLD                .         CAMARUPIM NORTE               : Field
LOC                .                                       : Location
CNTY               .                                       : County
STAT               .         ESPIRITO SANTO                : State
CTRY               .                                       : Country
SRVC               .                                       : Service Company
DATE               .                                       : Date
API                .         342710135600                  : API number
EDF                .M        25.00                         : Elevation Derrick Floor
GDAT               .         SIRGAS2000                    : Geodetic Datum
HZCS               .         UTM                           : Horizontal Coordinate System
LMF                .         MR                            : Log Measure From
LATI               .         -19_54_33.884                 : Latitude
LONG               .         -39_37_03.497                 : Longitude
MC                 .         39 W                          : Meridiano Central
ORIG               .         SIGEO EXPORTACAO PERFIL       : Origem dos dados
ORIGINALWELLNAME   .         6ESS 0168  ES                 : 
WDMS               .M        789.00                        : Water Depth to Mean Sea Level
X                  .         435367.50                     : Surface X
Y                  .         7798516.90                    : Surface Y
~Parameter Information Block
#_______________________________________________________________________________
#
#PARAMETER_NAME    .UNIT     VALUE                         : DESCRIPTION
#_______________________________________________________________________________
SET                .         ESS168_resample               : 
TLFamily_CALI      .         Caliper                       : 
TLFamily_DEPT      .         Measured Depth                : 
TLFamily_DT_merge  .         Compressional Slowness        : 
TLFamily_GR        .         Gamma Ray                     : 
TLFamily_INPEFA_1  .                                       : 
TLFamily_INPEFA_2  .                                       : 
TLFamily_INPEFA_3  .                                       : 
TLFamily_INPEFA_4  .                                       : 
TLFamily_LITO      .                                       : 
TLFamily_LLD       .         Deep Resistivity              : 
TLFamily_OG        .                                       : 
TLFamily_RESD      .         Deep Resistivity              : 
TLFamily_ZDEN      .         Bulk Density                  : 
~Curve Information
#_______________________________________________________________________________
#
#LOGNAME           .UNIT     LOG_ID                        : DESCRIPTION
#_______________________________________________________________________________
DEPT               .m                                      :  
CALI               .in                                     : CALIPER 
DT_merge           .us/ft                                  : DELTA-T COMPRESSIONAL 
GR                 .gAPI                                   : GAMMA RAY 
INPEFA_1           .                                       :  
INPEFA_2           .                                       :  
INPEFA_3           .                                       :  
INPEFA_4           .                                       :  
LITO               .                                       :  
LLD                .ohm.m                                  : LATEROLOG DEEP RESISTIVITY 
OG                 .                                       :  
RESD               .ohm.m                                  : DEEP RESISTIVITY 
ZDEN               .g/cm3                                  : FORMATION BULK DENSITY 
~Ascii
# ...
4388.1839  9.035423   73.30492   93.24214   0.1372583  0.06715149 0.2699064  0.3621136  57         -9999      93.24214   4.317314431911024 2.621945  
4388.3839  9.049058   73.13616   94.12388   0.1422252  0.08420736 0.2948814  0.4242884  57         -9999      94.12388   4.317367715498031 2.633489  
4388.583900000001 9.051464   73.12024   96.56976   0.1332113  0.06490768 0.2667357  0.3989851  57         -9999      96.56976   4.317503674499692 2.651772  
4388.7839  9.064592   73.34235   100.0707   0.1273027  0.05092559 0.2424642  0.3688304  57         -9999      100.0707   4.313471201249613 2.645012  
4388.9839  9.044001   73.68845   101.108    0.1265167  0.05070893 0.23892    0.3767586  57         -9999      101.108    4.306502324105876 2.62435   
4389.1839  8.993692   73.80264   102.8694   0.1242585  0.04776254 0.2327883  0.3858051  57         -9999      102.8694   4.304916272807633 2.592955  
4389.3839  8.985853   73.79713   105.2493   0.1180735  0.03392537 0.20956    0.3633131  57         -9999      105.2493   4.300975275874608 2.592818  
4389.583900000001 9.01678    74.21072   103.9313   0.1118058  0.01830267 0.1812108  0.3250885  57         -9999      103.9313   4.28955802770848 2.609412  
4389.7839  9.056575   75.42281   101.2156   0.1198138  0.04029115 0.2091433  0.3910429  57         -9999      101.2156   4.276656425181542 2.620804  
4389.9839  9.070547   76.60899   104.3185   0.1108766  0.02168229 0.1817413  0.3766826  57         -9999      104.3185   4.261477022087123 2.638039  
4390.1839  9.074698   76.784     109.4092   0.1060455  0.008297695 0.1554404  0.3499321  57         -9999      109.4092   4.233495355141806 2.6394    
4390.3839  9.068095   75.75625   111.3426   0.1051601  0.008019661 0.1513054  0.3707305  57         -9999      111.3426   4.200768326951173 2.635213  
4390.583900000001 9.022767   74.85973   112.7663   0.1026595  0.002186956 0.1381865  0.3801107  57         -9999      112.7663   4.184548002950492 2.604357  
4390.7839  9.021317   74.98846   113.3036   0.09534658 -0.01570418 0.1071437  0.3586786  57         -9999      113.3036   4.213690455712612 2.605244  
4390.9839  9.057577   76.11314   112.8439   0.08109175 -0.05489029 0.04008153 0.261865   57         -9999      112.8439   4.408700755697641 2.629224  
4391.1839  9.074202   77.31636   112.3644   0.08081439 -0.05951117 0.02081219 0.238526   57         -9999      112.3644   4.529497930692354 2.634685  
4391.3839  9.076771   78.12196   110.7624   0.07049996 -0.08792692 -0.03123972 0.1632859  57         -9999      110.7624   4.326508784003979 2.643177  
4391.583900000001 9.074767   78.39442   110.252    0.06187342 -0.1164797 -0.08987316 0.05834979 57         -9999      110.252    4.17232563015073 2.670633  
4391.7839  9.016097   77.94849   111.9881   0.05782842 -0.1329259 -0.1314984 -0.02267811 57         -9999      111.9881   4.154762981234827 2.643739  
4391.9839  8.986375   77.25217   113.277    0.05911767 -0.1392305 -0.1629762 -0.1015423 57         -9999      113.277    4.152825194215485 2.624647  
4392.1839  9.027135   77.88329   113.4328   0.06399077 -0.1290409 -0.1622538 -0.1050883 57         -9999      113.4328   4.152617057201034 2.642122  
4392.3839  9.065009   80.58531   113.7755   0.05122796 -0.1695919 -0.2413688 -0.2609957 57         -9999      113.7755   4.150751167466714 2.641071  
4392.583900000001 9.072137   83.18089   114.7989   0.04936197 -0.1855259 -0.2916228 -0.397728  57         -9999      114.7989   4.151776291596618 2.624203  
4392.7839  9.066057   83.34901   114.1171   0.07249032 -0.1330277 -0.2355511 -0.3340713 57         -9999      114.1171   4.157430160719438 2.621207  
4392.9839  9.051956   81.40483   113.4504   0.0938433  -0.0776072 -0.1639628 -0.2050113 57         -9999      113.4504   4.159217581309866 2.637984  
4393.1839  8.99815    79.98326   114.5755   0.06409464 -0.1536755 -0.2845343 -0.4091249 57         -9999      114.5755   4.157700785005905 2.642038  
4393.3839  8.993426   79.85678   115.647    0.08116505 -0.1225273 -0.265201  -0.420777  57         -9999      115.647    4.156144614294954 2.640095  
4393.583900000001 8.987066   80.24737   115.8539   0.1002809  -0.06978583 -0.1943083 -0.2906951 57         -9999      115.8539   4.151255810456195 2.639092  
4393.7839  9.001515   80.39044   116.5564   0.08565347 -0.109574  -0.2633642 -0.4083666 57         -9999      116.5564   4.151307042498484 2.628536  
4393.9839  9.054448   80.47927   119.4737   0.1036171  -0.06811439 -0.2183464 -0.3462756 57         -9999      119.4737   4.149431000268607 2.633734  
4394.1839  9.078035   80.822     121.8221   0.1022085  -0.0689304 -0.2242399 -0.3404629 57         -9999      121.8221   4.119754712541312 2.63703   
4394.3839  9.060394   81.64492   122.8643   0.09388838 -0.09529797 -0.2775492 -0.4458631 57         -9999      122.8643   4.088160627703116 2.61762   
4394.583900000001 9.026363   82.73421   124.2512   0.09885222 -0.08706424 -0.2810917 -0.4766413 57         -9999      124.2512   4.114635270526441 2.606464  
4394.7839  8.994612   83.2602    124.8389   0.1111124  -0.05861498 -0.2523671 -0.4446054 57         -9999      124.8389   4.209344546041721 2.601205  
4394.9839  9.0081     82.52186   122.4754   0.1158897  -0.0459815 -0.242454  -0.4362796 57         -9999      122.4754   4.292696356937371 2.599838  
4395.1839  9.029734   80.54481   118.4063   0.1363365  0.006759485 -0.172381  -0.316146  57         -9999      118.4063   4.306656253401712 2.60686   
4395.3839  9.049922   77.62018   116.922    0.1254873  -0.01635115 -0.2076995 -0.3654737 57         -9999      116.922    4.301685931650041 2.608569  
4395.583900000001 9.070929   74.77942   117.3645   0.1311775  -0.005093487 -0.2023347 -0.3712105 57         -9999      117.3645   4.324467331162512 2.594631  
4395.7839  9.023994   73.44135   112.5243   0.1390537  0.01881207 -0.1703443 -0.3130724 57         -9999      112.5243   4.387182989430307 2.58403   
4395.9839  8.985915   74.33495   102.0627   0.1380129  0.01676702 -0.1786393 -0.3292792 57         -9999      102.0627   4.466009947244515 2.5773    
4396.1839  8.989944   76.52804   100.2959   0.1447392  0.03559596 -0.1561559 -0.2958234 57         -9999      100.2959   4.559302318220417 2.588098  
4396.3839  9.045517   78.11729   103.4693   0.1391218  0.02369319 -0.1766716 -0.3335327 57         -9999      103.4693   4.763601442462479 2.605428  
4396.583900000001 9.118228   78.618     100.378    0.1681902  0.1003597  -0.06735669 -0.1418827 57         -9999      100.378    4.972318041597881 2.59862   
4396.7839  9.159432   78.59087   98.49829   0.1445249  0.04998716 -0.1329995 -0.225501  57         -9999      98.49829   5.069955006836755 2.620217  
4396.9839  9.155992   78.519     98.28223   0.1511715  0.0613917  -0.1280207 -0.2404459 57         -9999      98.28223   5.111898284659525 2.633423  
4397.1839  9.098176   78.45432   97.25626   0.1574069  0.08565683 -0.08863468 -0.1613839 57         -9999      97.25626   5.111169228826245 2.63774   
4397.3839  9.075952   78.62037   99.28298   0.1543385  0.07837182 -0.102106  -0.1860322 57         -9999      99.28298   5.106426717151906 2.637557  
4397.583900000001 9.071592   78.47256   101.6367   0.1687088  0.1210941  -0.03772971 -0.06727013 57         -9999      101.6367   5.102711801414745 2.625984  
4397.7839  9.10941    76.93131   99.42872   0.1602153  0.1055032  -0.05543597 -0.07694139 57         -9999      99.42872   5.099462174972778 2.635568  
4397.9839  9.150855   74.03303   95.33337   0.1700578  0.1343073  -0.01246147 0.006653738 57         -9999      95.33337   5.09353751711035 2.657049  
4398.1839  9.171074   72.20278   90.37609   0.1532772  0.0988761  -0.05777339 -0.04981086 57         -9999      90.37609   5.08195710042058 2.646062  
4398.3839  9.162236   73.02115   89.33085   0.1536415  0.09722917 -0.0670006 -0.08262801 57         -9999      89.33085   5.072741090574408 2.656007  
4398.583900000001 9.125909   75.33621   91.96931   0.1614969  0.1233926  -0.02597629 -0.009291073 57         -9999      91.96931   5.068563757066925 2.656571  
