~Version
 VERS              .         2.0                           : CWLS LOG ASCII STANDARD - VERSION 2.0
 WRAP              .         NO                            : ONE LINE PER DEPTH STEP
 DLM               .         SPACE                         : DELIMITING CHARACTER(SPACE TAB OR COMMA)
~Well Information
#_______________________________________________________________________________
#
#PARAMETER_NAME    .UNIT     VALUE                         : DESCRIPTION
#_______________________________________________________________________________
STRT               .m        860.9839                      : First reference value
STOP               .m        4658.9839                     : Last reference value
STEP               .m        0.2                           : Step increment
NULL               .         -9999                         : Missing value
COMP               .         PETROLEO BRASILEIRO S/A       : Company
WELL               .         6-ESS-168_resample            : Well name
FLD                .         CAMARUPIM NORTE               : Field
LOC                .                                       : Location
CNTY               .                                       : County
STAT               .         ESPIRITO SANTO                : State
CTRY               .                                       : Country
SRVC               .                                       : Service Company
DATE               .                                       : Date
API                .         342710135600                  : API number
EDF                .M        25.00                         : Elevation Derrick Floor
GDAT               .         SIRGAS2000                    : Geodetic Datum
HZCS               .         UTM                           : Horizontal Coordinate System
LMF                .         MR                            : Log Measure From
LATI               .         -19_54_33.884                 : Latitude
LONG               .         -39_37_03.497                 : Longitude
MC                 .         39 W                          : Meridiano Central
ORIG               .         SIGEO EXPORTACAO PERFIL       : Origem dos dados
ORIGINALWELLNAME   .         6ESS 0168  ES                 : 
WDMS               .M        789.00                        : Water Depth to Mean Sea Level
X                  .         435367.50                     : Surface X
Y                  .         7798516.90                    : Surface Y
~Parameter Information Block
#_______________________________________________________________________________
#
#PARAMETER_NAME    .UNIT     VALUE                         : DESCRIPTION
#_______________________________________________________________________________
SET                .         ESS168_resample               : 
TLFamily_CALI      .         Caliper                       : 
TLFamily_DEPT      .         Measured Depth                : 
TLFamily_DT_merge  .         Compressional Slowness        : 
TLFamily_GR        .         Gamma Ray                     : 
TLFamily_INPEFA_1  .                                       : 
TLFamily_INPEFA_2  .                                       : 
TLFamily_INPEFA_3  .                                       : 
TLFamily_INPEFA_4  .                                       : 
TLFamily_LITO      .                                       : 
TLFamily_LLD       .         Deep Resistivity              : 
TLFamily_OG        .                                       : 
TLFamily_RESD      .         Deep Resistivity              : 
TLFamily_ZDEN      .         Bulk Density                  : 
~Curve Information
#_______________________________________________________________________________
#
#LOGNAME           .UNIT     LOG_ID                        : DESCRIPTION
#_______________________________________________________________________________
DEPT               .m                                      :  
CALI               .in                                     : CALIPER 
DT_merge           .us/ft                                  : DELTA-T COMPRESSIONAL 
GR                 .gAPI                                   : GAMMA RAY 
INPEFA_1           .                                       :  
INPEFA_2           .                                       :  
INPEFA_3           .                                       :  
INPEFA_4           .                                       :  
LITO               .                                       :  
LLD                .ohm.m                                  : LATEROLOG DEEP RESISTIVITY 
OG                 .                                       :  
RESD               .ohm.m                                  : DEEP RESISTIVITY 
ZDEN               .g/cm3                                  : FORMATION BULK DENSITY 
~Ascii
# ...
1371.1839  -9999      -9999      67.81535   -0.007970963 0.04428145 0.1187169  0.3245625  57         -9999      67.81535   -9999      -9999     
1371.3839  -9999      -9999      65.58136   -0.01681116 0.02519499 0.0940164  0.2954015  57         -9999      65.58136   -9999      -9999     
1371.5839  -9999      -9999      64.00707   -0.0208637 0.01757829 0.08463991 0.2854464  57         -9999      64.00707   -9999      -9999     
1371.7839  -9999      -9999      66.81518   -0.0160552 0.03442661 0.1132821  0.3487166  57         -9999      66.81518   -9999      -9999     
1371.9839  -9999      -9999      70.70904   -0.01946196 0.03182803 0.1162347  0.3769655  57         -9999      70.70904   -9999      -9999     
1372.1839  -9999      -9999      71.75694   -0.0247438 0.02216312 0.1061027  0.3756179  57         -9999      71.75694   -9999      -9999     
1372.3839  -9999      -9999      68.87315   -0.02679464 0.02157483 0.1099754  0.4001249  57         -9999      68.87315   -9999      -9999     
1372.5839  -9999      -9999      65.13995   -0.04109243 -0.01285732 0.06110509 0.3216128  57         -9999      65.13995   -9999      -9999     
1372.7839  -9999      -9999      65.70053   -0.03566778 0.002237147 0.08239744 0.3551921  57         -9999      65.70053   -9999      -9999     
1372.9839  -9999      -9999      66.4864    -0.05009934 -0.03082505 0.03661004 0.2788853  57         -9999      66.4864    -9999      -9999     
1373.1839  -9999      -9999      62.52709   -0.03607285 0.004129114 0.08433679 0.3493808  57         -9999      62.52709   -9999      -9999     
1373.3839  -9999      -9999      58.61396   -0.0494482 -0.02208722 0.05347842 0.3099287  57         -9999      58.61396   -9999      -9999     
1373.5839  -9999      -9999      60.93687   -0.04738156 -0.01946688 0.05248514 0.2918232  57         -9999      60.93687   -9999      -9999     
1373.7839  -9999      -9999      65.79219   -0.05390805 -0.0310377 0.03831984 0.2634655  57         -9999      65.79219   -9999      -9999     
1373.9839  -9999      -9999      65.59129   -0.04592449 -0.01100446 0.06572147 0.2999623  57         -9999      65.59129   -9999      -9999     
1374.1839  -9999      -9999      63.15332   -0.03787152 0.01831992 0.1172826  0.4067681  57         -9999      63.15332   -9999      -9999     
1374.3839  -9999      -9999      64.1403    -0.05581304 -0.02376941 0.06064428 0.3208336  57         -9999      64.1403    -9999      -9999     
1374.5839  -9999      -9999      66.90731   -0.04761475 -0.001466836 0.09311905 0.3728394  57         -9999      66.90731   -9999      -9999     
1374.7839  -9999      -9999      67.41714   -0.06362192 -0.03743173 0.04570263 0.2991035  57         -9999      67.41714   -9999      -9999     
1374.9839  -9999      -9999      66.44274   -0.06098406 -0.03238388 0.04925854 0.2883376  57         -9999      66.44274   -9999      -9999     
1375.1839  -9999      -9999      66.67834   -0.05519424 -0.01220288 0.08359024 0.3520212  57         -9999      66.67834   -9999      -9999     
1375.3839  -9999      -9999      67.72054   -0.06410423 -0.03112531 0.06010561 0.3179364  57         -9999      67.72054   -9999      -9999     
1375.5839  -9999      -9999      70.23839   -0.06566019 -0.0338628 0.05625938 0.3046278  57         -9999      70.23839   -9999      -9999     
1375.7839  -9999      -9999      71.53657   -0.07067735 -0.04326323 0.04546447 0.2860104  57         -9999      71.53657   -9999      -9999     
1375.9839  -9999      -9999      72.17728   -0.08392114 -0.07826206 -0.008772947 0.172156   57         -9999      72.17728   -9999      -9999     
1376.1839  -9999      -9999      70.426     -0.06404603 -0.02713955 0.06387866 0.2779533  57         -9999      70.426     -9999      -9999     
1376.3839  -9999      -9999      68.93671   -0.06952561 -0.03159508 0.06846245 0.3060131  57         -9999      68.93671   -9999      -9999     
1376.5839  -9999      -9999      68.99204   -0.07418174 -0.0444744 0.04847462 0.2615297  57         -9999      68.99204   -9999      -9999     
1376.7839  -9999      -9999      69.26622   -0.07150442 -0.03157709 0.07337405 0.3096165  57         -9999      69.26622   -9999      -9999     
1376.9839  -9999      -9999      67.85404   -0.08192037 -0.05629797 0.04006694 0.2521796  57         -9999      67.85404   -9999      -9999     
1377.1839  -9999      -9999      64.36667   -0.07233135 -0.02931792 0.08116574 0.3175694  57         -9999      64.36667   -9999      -9999     
1377.3839  -9999      -9999      64.5047    -0.0857666 -0.05842146 0.04517071 0.2649149  57         -9999      64.5047    -9999      -9999     
1377.5839  -9999      -9999      66.21105   -0.08715692 -0.06384253 0.0341322  0.228262   57         -9999      66.21105   -9999      -9999     
1377.7839  -9999      -9999      68.37627   -0.07869318 -0.03634365 0.08072764 0.3164929  57         -9999      68.37627   -9999      -9999     
1377.9839  -9999      -9999      70.29481   -0.09727197 -0.08116917 0.01903214 0.2136707  57         -9999      70.29481   -9999      -9999     
1378.1839  -9999      -9999      68.64088   -0.1030538 -0.09920967 -0.01327871 0.1278782  57         -9999      68.64088   -9999      -9999     
1378.3839  -9999      -9999      67.14405   -0.09165443 -0.06830823 0.0325103  0.194538   57         -9999      67.14405   -9999      -9999     
1378.5839  -9999      -9999      67.84671   -0.09306784 -0.06682084 0.04072954 0.215885   57         -9999      67.84671   -9999      -9999     
1378.7839  -9999      -9999      69.21587   -0.1085252 -0.105675  -0.01553316 0.1089348  57         -9999      69.21587   -9999      -9999     
1378.9839  -9999      -9999      71.7101    -0.1058843 -0.1010465 -0.01292468 0.0871907  57         -9999      71.7101    -9999      -9999     
1379.1839  -9999      -9999      69.77133   -0.1062386 -0.09860713 -0.006563835 0.09060671 57         -9999      69.77133   -9999      -9999     
1379.3839  -9999      -9999      65.59158   -0.1130267 -0.1176954 -0.03739677 0.01555748 57         -9999      65.59158   -9999      -9999     
1379.5839  -9999      -9999      64.84989   -0.09531494 -0.06928118 0.03599123 0.1356499  57         -9999      64.84989   -9999      -9999     
1379.7839  -9999      -9999      65.51073   -0.106882  -0.09309195 0.009467462 0.104839   57         -9999      65.51073   -9999      -9999     
1379.9839  -9999      -9999      66.9532    -0.1076469 -0.09525459 0.006340368 0.09162682 57         -9999      66.9532    -9999      -9999     
1380.1839  -9999      -9999      66.9794    -0.1119569 -0.1030359 -0.000880779 0.08059231 57         -9999      66.9794    -9999      -9999     
1380.3839  -9999      -9999      67.31094   -0.1113874 -0.100999  0.003298879 0.08410381 57         -9999      67.31094   -9999      -9999     
1380.5839  -9999      -9999      68.88557   -0.1096174 -0.09259017 0.02091466 0.122276   57         -9999      68.88557   -9999      -9999     
1380.7839  -9999      -9999      68.03159   -0.1142177 -0.101325  0.0133258  0.1197971  57         -9999      68.03159   -9999      -9999     
1380.9839  -9999      -9999      68.56824   -0.1235116 -0.124501  -0.01932619 0.06081175 57         -9999      68.56824   -9999      -9999     
1381.1839  -9999      -9999      71.73567   -0.1200627 -0.1150891 -0.004611263 0.08249536 57         -9999      71.73567   -9999      -9999     
1381.3839  -9999      -9999      71.04936   -0.1278732 -0.1324914 -0.02655581 0.04812736 57         -9999      71.04936   -9999      -9999     
1381.5839  -9999      -9999      67.62894   -0.1345025 -0.1512879 -0.05635594 -0.01682474 57         -9999      67.62894   -9999      -9999     
1381.7839  -9999      -9999      68.34771   -0.1299629 -0.1391122 -0.03846342 0.005315746 57         -9999      68.34771   -9999      -9999     
1381.9839  -9999      -9999      70.40512   -0.135719  -0.1521745 -0.05542175 -0.0257141 57         -9999      70.40512   -9999      -9999     
1382.1839  -9999      -9999      70.06132   -0.1322975 -0.143279  -0.04229833 -0.009320882 57         -9999      70.06132   -9999      -9999     
