~Version
 VERS              .         2.0                           : CWLS LOG ASCII STANDARD - VERSION 2.0
 WRAP              .         NO                            : ONE LINE PER DEPTH STEP
 DLM               .         SPACE                         : DELIMITING CHARACTER(SPACE TAB OR COMMA)
~Well Information
#_______________________________________________________________________________
#
#PARAMETER_NAME    .UNIT     VALUE                         : DESCRIPTION
#_______________________________________________________________________________
STRT               .m        860.9839                      : First reference value
STOP               .m        4658.9839                     : Last reference value
STEP               .m        0.2                           : Step increment
NULL               .         -9999                         : Missing value
COMP               .         PETROLEO BRASILEIRO S/A       : Company
WELL               .         6-ESS-168_resample            : Well name
FLD                .         CAMARUPIM NORTE               : Field
LOC                .                                       : Location
CNTY               .                                       : County
STAT               .         ESPIRITO SANTO                : State
CTRY               .                                       : Country
SRVC               .                                       : Service Company
DATE               .                                       : Date
API                .         342710135600                  : API number
EDF                .M        25.00                         : Elevation Derrick Floor
GDAT               .         SIRGAS2000                    : Geodetic Datum
HZCS               .         UTM                           : Horizontal Coordinate System
LMF                .         MR                            : Log Measure From
LATI               .         -19_54_33.884                 : Latitude
LONG               .         -39_37_03.497                 : Longitude
MC                 .         39 W                          : Meridiano Central
ORIG               .         SIGEO EXPORTACAO PERFIL       : Origem dos dados
ORIGINALWELLNAME   .         6ESS 0168  ES                 : 
WDMS               .M        789.00                        : Water Depth to Mean Sea Level
X                  .         435367.50                     : Surface X
Y                  .         7798516.90                    : Surface Y
~Parameter Information Block
#_______________________________________________________________________________
#
#PARAMETER_NAME    .UNIT     VALUE                         : DESCRIPTION
#_______________________________________________________________________________
SET                .         ESS168_resample               : 
TLFamily_CALI      .         Caliper                       : 
TLFamily_DEPT      .         Measured Depth                : 
TLFamily_DT_merge  .         Compressional Slowness        : 
TLFamily_GR        .         Gamma Ray                     : 
TLFamily_INPEFA_1  .                                       : 
TLFamily_INPEFA_2  .                                       : 
TLFamily_INPEFA_3  .                                       : 
TLFamily_INPEFA_4  .                                       : 
TLFamily_LITO      .                                       : 
TLFamily_LLD       .         Deep Resistivity              : 
TLFamily_OG        .                                       : 
TLFamily_RESD      .         Deep Resistivity              : 
TLFamily_ZDEN      .         Bulk Density                  : 
~Curve Information
#_______________________________________________________________________________
#
#LOGNAME           .UNIT     LOG_ID                        : DESCRIPTION
#_______________________________________________________________________________
DEPT               .m                                      :  
CALI               .in                                     : CALIPER 
DT_merge           .us/ft                                  : DELTA-T COMPRESSIONAL 
GR                 .gAPI                                   : GAMMA RAY 
INPEFA_1           .                                       :  
INPEFA_2           .                                       :  
INPEFA_3           .                                       :  
INPEFA_4           .                                       :  
LITO               .                                       :  
LLD                .ohm.m                                  : LATEROLOG DEEP RESISTIVITY 
OG                 .                                       :  
RESD               .ohm.m                                  : DEEP RESISTIVITY 
ZDEN               .g/cm3                                  : FORMATION BULK DENSITY 
~Ascii
# ...
3667.3839  8.968427   61.06309   49.7958    0.2881664  0.000277396 -0.4248539 -0.2596325 49         -9999      49.7958    10.758094486717 2.533691  
3667.583900000001 8.975835   60.46053   48.61898   0.3101723  0.06203467 -0.3408158 -0.1363912 49         -9999      48.61898   21.51748521673308 2.606812  
3667.7839  8.963389   59.73624   51.03315   0.313152   0.0576486  -0.362532  -0.1997653 49         -9999      51.03315   33.74030731072403 2.67907   
3667.9839  8.915659   59.38255   55.93549   0.3346626  0.1156014  -0.2841482 -0.08455803 49         -9999      55.93549   35.37802772253818 2.678618  
3668.1839  8.911901   60.794     60.70459   0.3315182  0.1098091  -0.2905813 -0.08107045 49         -9999      60.70459   26.1738773685381 2.650712  
3668.3839  8.960926   63.99822   64.86752   0.3383477  0.1246387  -0.277466  -0.07814161 49         -9999      64.86752   16.14683351262904 2.618537  
3668.583900000001 8.992483   67.36974   67.72433   0.3431793  0.1407509  -0.2525721 -0.03199367 49         -9999      67.72433   9.533537201379083 2.56259   
3668.7839  9.004592   69.00485   68.36417   0.3408852  0.1352049  -0.2636247 -0.05833949 49         -9999      68.36417   5.707974104667158 2.533471  
3668.9839  9.023776   69.7664    70.882     0.3431465  0.1414097  -0.2588345 -0.06984046 49         -9999      70.882     3.942907785369946 2.509187  
3669.1839  9.007678   71.73466   83.20303   0.3504554  0.1606207  -0.2348571 -0.04832896 49         -9999      83.20303   3.502998616044 2.494669  
3669.3839  8.965539   76.1819    110.0745   0.357229   0.1808516  -0.2068093 -0.01381613 49         -9999      110.0745   3.832787107389005 2.493865  
3669.583900000001 8.966268   80.6365    138.0808   0.3545491  0.1754194  -0.21794   -0.0519057 49         -9999      138.0808   4.479810733194505 2.548072  
3669.7839  9.037591   82.38129   145.5784   0.3697775  0.2164128  -0.1608334 0.03037617 49         -9999      145.5784   4.880842124221472 2.569511  
3669.9839  9.053376   79.57101   126.2414   0.3709657  0.2248504  -0.1460977 0.05750815 57         -9999      126.2414   4.310200106693856 2.545043  
3670.1839  9.048812   74.6319    98.6802    0.359166   0.1951312  -0.193767  -0.04204947 57         -9999      98.6802    3.464253142384107 2.514078  
3670.3839  9.002096   70.38361   79.51656   0.3702155  0.2211708  -0.1645241 -0.02430086 57         -9999      79.51656   3.312187835003476 2.475158  
3670.583900000001 8.970453   68.57452   72.10442   0.3650649  0.2118819  -0.179387  -0.06368232 57         -9999      72.10442   3.737049404706852 2.484542  
3670.7839  8.968972   68.4759    69.30343   0.3676163  0.2143745  -0.1867955 -0.117025  57         -9999      69.30343   4.104395165771859 2.508094  
3670.9839  8.980682   68.3888    66.4818    0.3673782  0.2141293  -0.1948744 -0.170995  57         -9999      66.4818    4.154691751230018 2.501543  
3671.1839  8.991434   67.30772   65.69856   0.3825722  0.2506135  -0.1514576 -0.1385988 57         -9999      65.69856   4.062959909382388 2.496577  
3671.3839  9.003637   65.7672    67.04867   0.3942587  0.2867866  -0.0980919 -0.05963166 57         -9999      67.04867   4.230110192233389 2.511497  
3671.583900000001 8.998087   64.58108   68.05622   0.3875773  0.2699649  -0.1275122 -0.1328254 57         -9999      68.05622   5.162934413150342 2.540172  
3671.7839  8.976849   63.5841    69.26157   0.3870519  0.2670819  -0.1414874 -0.1995969 57         -9999      69.26157   6.32210840069036 2.530957  
3671.9839  8.966796   62.20544   70.69428   0.400533   0.3014075  -0.09844753 -0.1592373 49         -9999      70.69428   7.191136272975945 2.537101  
3672.1839  8.966788   60.98611   70.4893    0.4070782  0.3203439  -0.07456658 -0.1404603 49         -9999      70.4893    8.530296207509515 2.52957   
3672.3839  8.969558   60.64589   68.81544   0.4175005  0.3496058  -0.03415998 -0.08656067 49         -9999      68.81544   10.96548576867151 2.522995  
3672.583900000001 8.992374   60.85653   68.27605   0.4239826  0.3693707  -0.00609023 -0.04612133 49         -9999      68.27605   16.74767602659018 2.551806  
3672.7839  9.009407   60.69142   67.01479   0.4317027  0.3923168  0.02705568 0.0000304  49         -9999      67.01479   24.53155897455315 2.615752  
3672.9839  8.972134   60.3892    65.4099    0.4487179  0.4401683  0.09889947 0.1254118  49         -9999      65.4099    24.52676142574249 2.622701  
3673.1839  8.964791   60.81955   68.22036   0.4530427  0.4615686  0.1418499  0.2338298  49         -9999      68.22036   16.05950990904161 2.582698  
3673.3839  8.979859   61.98498   71.00273   0.4462751  0.4548459  0.1462864  0.2894121  49         -9999      71.00273   9.86727594505741 2.587604  
3673.583900000001 8.983834   63.32651   72.03565   0.4412168  0.4490287  0.1489186  0.335135   49         -9999      72.03565   7.623677527857158 2.559466  
3673.7839  8.982035   64.15425   72.72134   0.4146703  0.3895607  0.07371614 0.23929    49         -9999      72.72134   6.395667957818638 2.535844  
3673.9839  8.984015   64.13151   72.78802   0.4013189  0.3548616  0.02252513 0.1442588  49         -9999      72.78802   6.171167496938105 2.553199  
3674.1839  8.951831   63.67117   69.99379   0.4064904  0.3725028  0.0520484  0.1918114  49         -9999      69.99379   7.20757687108387 2.556439  
3674.3839  8.915717   63.40464   65.33714   0.3851171  0.3193242  -0.02516148 0.04078065 49         -9999      65.33714   8.402253127943547 2.538368  
3674.583900000001 8.926071   63.26208   64.55957   0.3847859  0.3160107  -0.03706845 -0.02936129 49         -9999      64.55957   8.593409351002622 2.545488  
3674.7839  8.97282    62.50445   67.93926   0.3820834  0.3048778  -0.06338278 -0.1444905 49         -9999      67.93926   8.378874215153493 2.544947  
3674.9839  8.987338   60.69986   68.65737   0.389971   0.3237731  -0.0441702 -0.1876161 49         -9999      68.65737   9.819112404119185 2.558387  
3675.1839  8.987559   58.33701   65.70482   0.409441   0.3746769  0.02647285 -0.1307998 49         -9999      65.70482   16.55437529598887 2.588785  
3675.3839  8.931549   56.38801   62.66903   0.4118041  0.3854327  0.04302495 -0.1592312 49         -9999      62.66903   35.2045721061053 2.604076  
3675.583900000001 8.967451   55.44608   61.1552    0.4183322  0.4029949  0.0654145  -0.192508  49         -9999      61.1552    67.57037443471729 2.630912  
3675.7839  8.979858   55.86676   61.04637   0.4384522  0.4593274  0.1494662  -0.1091104 49         -9999      61.04637   82.83834162023013 2.626558  
3675.9839  8.992349   57.34139   59.86408   0.4404155  0.4726632  0.1766815  -0.108313  49         -9999      59.86408   60.63245595118296 2.614826  
3676.1839  9.00194    60.01245   59.18273   0.4485296  0.4966543  0.2133876  -0.1102404 49         -9999      59.18273   27.23274710601077 2.606192  
3676.3839  9.002295   64.31721   63.36884   0.4606089  0.5352113  0.2768918  -0.0560691 49         -9999      63.36884   9.039137381484386 2.553485  
3676.583900000001 8.965439   69.43844   70.72734   0.4727167  0.5746952  0.3445295  0.01437666 49         -9999      70.72734   3.983065436605709 2.504913  
3676.7839  8.962434   73.61408   81.29482   0.476805   0.5943167  0.3843264  0.03748435 49         -9999      81.29482   2.89561991563443 2.505987  
3676.9839  8.968494   74.81117   92.0049    0.483841   0.6264112  0.4499112  0.1289824  49         -9999      92.0049    2.663767436838632 2.506708  
3677.1839  8.973612   73.42722   95.58301   0.4873107  0.6438005  0.489265   0.1668074  49         -9999      95.58301   2.734902322848923 2.482983  
3677.3839  8.982194   71.51623   96.29659   0.5029247  0.7026992  0.6026034  0.372386   49         -9999      96.29659   2.903734549319461 2.488472  
3677.583900000001 8.996826   70.46082   97.22385   0.5011253  0.7137397  0.6467775  0.4755735  49         -9999      97.22385   3.035729814160151 2.506944  
3677.7839  8.984548   70.02515   95.0269    0.4898187  0.7082767  0.6761829  0.5844252  49         -9999      95.0269    2.999980272676042 2.525762  
