~Version
 VERS              .         2.0                           : CWLS LOG ASCII STANDARD - VERSION 2.0
 WRAP              .         NO                            : ONE LINE PER DEPTH STEP
 DLM               .         SPACE                         : DELIMITING CHARACTER(SPACE TAB OR COMMA)
~Well Information
#_______________________________________________________________________________
#
#PARAMETER_NAME    .UNIT     VALUE                         : DESCRIPTION
#_______________________________________________________________________________
STRT               .m        860.9839                      : First reference value
STOP               .m        4658.9839                     : Last reference value
STEP               .m        0.2                           : Step increment
NULL               .         -9999                         : Missing value
COMP               .         PETROLEO BRASILEIRO S/A       : Company
WELL               .         6-ESS-168_resample            : Well name
FLD                .         CAMARUPIM NORTE               : Field
LOC                .                                       : Location
CNTY               .                                       : County
STAT               .         ESPIRITO SANTO                : State
CTRY               .                                       : Country
SRVC               .                                       : Service Company
DATE               .                                       : Date
API                .         342710135600                  : API number
EDF                .M        25.00                         : Elevation Derrick Floor
GDAT               .         SIRGAS2000                    : Geodetic Datum
HZCS               .         UTM                           : Horizontal Coordinate System
LMF                .         MR                            : Log Measure From
LATI               .         -19_54_33.884                 : Latitude
LONG               .         -39_37_03.497                 : Longitude
MC                 .         39 W                          : Meridiano Central
ORIG               .         SIGEO EXPORTACAO PERFIL       : Origem dos dados
ORIGINALWELLNAME   .         6ESS 0168  ES                 : 
WDMS               .M        789.00                        : Water Depth to Mean Sea Level
X                  .         435367.50                     : Surface X
Y                  .         7798516.90                    : Surface Y
~Parameter Information Block
#_______________________________________________________________________________
#
#PARAMETER_NAME    .UNIT     VALUE                         : DESCRIPTION
#_______________________________________________________________________________
SET                .         ESS168_resample               : 
TLFamily_CALI      .         Caliper                       : 
TLFamily_DEPT      .         Measured Depth                : 
TLFamily_DT_merge  .         Compressional Slowness        : 
TLFamily_GR        .         Gamma Ray                     : 
TLFamily_INPEFA_1  .                                       : 
TLFamily_INPEFA_2  .                                       : 
TLFamily_INPEFA_3  .                                       : 
TLFamily_INPEFA_4  .                                       : 
TLFamily_LITO      .                                       : 
TLFamily_LLD       .         Deep Resistivity              : 
TLFamily_OG        .                                       : 
TLFamily_RESD      .         Deep Resistivity              : 
TLFamily_ZDEN      .         Bulk Density                  : 
~Curve Information
#_______________________________________________________________________________
#
#LOGNAME           .UNIT     LOG_ID                        : DESCRIPTION
#_______________________________________________________________________________
DEPT               .m                                      :  
CALI               .in                                     : CALIPER 
DT_merge           .us/ft                                  : DELTA-T COMPRESSIONAL 
GR                 .gAPI                                   : GAMMA RAY 
INPEFA_1           .                                       :  
INPEFA_2           .                                       :  
INPEFA_3           .                                       :  
INPEFA_4           .                                       :  
LITO               .                                       :  
LLD                .ohm.m                                  : LATEROLOG DEEP RESISTIVITY 
OG                 .                                       :  
RESD               .ohm.m                                  : DEEP RESISTIVITY 
ZDEN               .g/cm3                                  : FORMATION BULK DENSITY 
~Ascii
# ...
2875.5839  12.39545   -9999      96.17693   0.6241241  0.8138087  0.7703793  0.854725   57         -9999      96.17693   0.9634719430333293 2.33426   
2875.7839  12.38788   -9999      93.91925   0.5606633  0.6558159  0.5508853  0.5142033  57         -9999      93.91925   0.9688565109344838 2.330266  
2875.9839  12.39632   -9999      94.52603   0.5570081  0.653345   0.5557464  0.5437561  57         -9999      94.52603   0.9907567124083931 2.325448  
2876.1839  12.40889   -9999      94.6224    0.5453089  0.6272981  0.5264046  0.5251815  57         -9999      94.6224    1.020736952431175 2.315998  
2876.3839  12.40683   -9999      94.46902   0.5131093  0.5485345  0.4149199  0.34094    57         -9999      94.46902   1.007321089681735 2.312919  
2876.5839  12.39434   -9999      94.58253   0.509086   0.5332807  0.3865283  0.2728609  57         -9999      94.58253   0.9501290680337214 2.326371  
2876.7839  12.39517   -9999      93.73038   0.5159631  0.556412   0.4254139  0.350058   57         -9999      93.73038   0.9058059109326565 2.344652  
2876.9839  12.40348   -9999      91.87832   0.5063646  0.5367191  0.4040284  0.337786   57         -9999      91.87832   0.9162779396081728 2.348338  
2877.1839  12.40288   -9999      91.38213   0.4981268  0.5181438  0.3801215  0.310735   57         -9999      91.38213   0.9760082514040459 2.34381   
2877.3839  12.40285   -9999      89.28999   0.5105996  0.5538972  0.4386975  0.4412535  57         -9999      89.28999   1.018459605195221 2.345125  
2877.5839  12.40423   -9999      88.236     0.5016856  0.5384987  0.4277391  0.4717903  57         -9999      88.236     0.9866674616071558 2.345946  
2877.7839  12.40403   -9999      93.20572   0.4858409  0.5050384  0.3906016  0.4636471  57         -9999      93.20572   0.9213372575235345 2.342651  
2877.9839  12.40998   -9999      99.04067   0.4733653  0.4700635  0.3386301  0.3970352  57         -9999      99.04067   0.8594642252598128 2.340374  
2878.1839  12.40659   -9999      102.3776   0.4669725  0.4583888  0.3281352  0.4184288  57         -9999      102.3776   0.8247382463689831 2.344887  
2878.3839  12.39873   -9999      106.6849   0.4472733  0.405643   0.2508161  0.310044   57         -9999      106.6849   0.8644756999637385 2.356382  
2878.5839  12.40248   -9999      119.0722   0.4366718  0.3763833  0.2046782  0.2384285  57         -9999      119.0722   0.991491044225379 2.365933  
2878.7839  12.40401   -9999      142.2873   0.4262558  0.3449445  0.152875   0.1489993  57         -9999      142.2873   1.146172449709627 2.374254  
2878.9839  12.40291   -9999      161.7139   0.42316    0.3306573  0.1220316  0.07798778 57         -9999      161.7139   1.286556547520386 2.387662  
2879.1839  12.40263   -9999      165.8838   0.4247431  0.3344024  0.1256432  0.08702023 49         -9999      165.8838   1.383039155418636 2.395682  
2879.3839  12.40161   -9999      166.3297   0.4174916  0.312049   0.08763362 0.01624606 49         -9999      166.3297   1.428169594652412 2.400528  
2879.5839  12.40062   -9999      166.2155   0.4089508  0.2860489  0.0422     -0.08080045 49         -9999      166.2155   1.4349     2.412578  
2879.7839  12.40574   -9999      160.5198   0.4213169  0.3136956  0.07629694 -0.03569674 49         -9999      160.5198   1.448347612072004 2.410078  
2879.9839  12.41685   -9999      154.4004   0.4192887  0.3102937  0.07271228 -0.03431817 49         -9999      154.4004   1.493251486021867 2.39616   
2880.1839  12.41915   -9999      152.4738   0.4139787  0.2927984  0.04236448 -0.09477573 49         -9999      152.4738   1.547566471539078 2.388894  
2880.3839  12.41484   -9999      149.4159   0.4209868  0.3108452  0.06850663 -0.03974419 49         -9999      149.4159   1.569324396022793 2.401568  
2880.5839  12.40943   -9999      146.169    0.4150124  0.2955673  0.04749151 -0.06308545 49         -9999      146.169    1.543590679802666 2.40367   
2880.7839  12.40784   -9999      148.8535   0.4066881  0.2714795  0.009232585 -0.1250086 49         -9999      148.8535   1.532825932431318 2.386786  
2880.9839  12.4088    -9999      153.9207   0.3979875  0.2439007  -0.03768862 -0.2180715 49         -9999      153.9207   1.56226590971393 2.38213   
2881.1839  12.41035   -9999      157.2013   0.3994282  0.2430544  -0.04556819 -0.2451801 49         -9999      157.2013   1.594233276922904 2.381284  
2881.3839  12.4142    -9999      160.1309   0.4027097  0.2442576  -0.05341629 -0.2819667 49         -9999      160.1309   1.597430498515874 2.375859  
2881.5839  12.40855   -9999      163.291    0.4131871  0.2713929  -0.01403488 -0.2098959 49         -9999      163.291    1.584879548832 2.374979  
2881.7839  12.3977    -9999      164.5052   0.410849   0.2616415  -0.03120646 -0.2367997 49         -9999      164.5052   1.57001870549344 2.378622  
2881.9839  12.39202   -9999      162.3289   0.4152229  0.2715946  -0.01757682 -0.2063058 49         -9999      162.3289   1.55865483849903 2.378466  
2882.1839  12.39931   -9999      158.1896   0.4145651  0.2695206  -0.01817612 -0.1855129 49         -9999      158.1896   1.571386998648097 2.373257  
2882.3839  12.40562   -9999      154.9677   0.407868   0.2475239  -0.05414663 -0.2424117 49         -9999      154.9677   1.579966179554984 2.369332  
2882.5839  12.40095   -9999      154.0788   0.4111199  0.2526616  -0.04791295 -0.2195256 49         -9999      154.0788   1.558753290809794 2.370263  
2882.7839  12.40419   -9999      151.3504   0.4073853  0.2412558  -0.06286198 -0.2229969 49         -9999      151.3504   1.549997417328464 2.366075  
2882.9839  12.41668   -9999      147.6486   0.3952945  0.2052039  -0.1183641 -0.3143228 49         -9999      147.6486   1.57403053835521 2.357977  
2883.1839  12.42229   -9999      146.4109   0.3964643  0.2027885  -0.1255082 -0.3293737 49         -9999      146.4109   1.606178101826873 2.353508  
2883.3839  12.40756   -9999      145.2035   0.4011967  0.2100859  -0.1172083 -0.3182773 49         -9999      145.2035   1.615388713149149 2.350067  
2883.5839  12.40431   -9999      144.5016   0.4042017  0.2187677  -0.09950733 -0.2737976 49         -9999      144.5016   1.591905317969413 2.341117  
2883.7839  12.42255   -9999      146.713    0.3946575  0.1899945  -0.1421533 -0.3514288 49         -9999      146.713    1.557378466526955 2.341098  
2883.9839  12.41671   -9999      149.9397   0.4064755  0.2176588  -0.1016895 -0.2909197 49         -9999      149.9397   1.510978109761034 2.349493  
2884.1839  12.39904   -9999      151.0571   0.4076456  0.2227434  -0.08653239 -0.2524678 49         -9999      151.0571   1.47027463075161 2.361352  
2884.3839  12.39899   -9999      148.4483   0.409181   0.2253271  -0.07934911 -0.2407236 49         -9999      148.4483   1.450714797658038 2.366922  
2884.5839  12.39326   -9999      143.5148   0.4087045  0.225968   -0.07100594 -0.2192439 49         -9999      143.5148   1.458581658713543 2.362182  
2884.7839  12.38308   -9999      139.837    0.4137947  0.2387245  -0.04647534 -0.1718958 49         -9999      139.837    1.498512919460954 2.357523  
2884.9839  12.39335   -9999      138.8478   0.410109   0.2327423  -0.04499305 -0.1554412 49         -9999      138.8478   1.566197827906599 2.354084  
2885.1839  12.404     -9999      139.696    0.3987192  0.2012254  -0.08756744 -0.2364465 49         -9999      139.696    1.60967758061108 2.349308  
2885.3839  12.40384   -9999      142.2345   0.4068428  0.2222646  -0.05148088 -0.1824245 49         -9999      142.2345   1.6061608851531 2.342291  
2885.5839  12.40228   -9999      144.2787   0.4018895  0.2113605  -0.0586473 -0.19451   49         -9999      144.2787   1.575261766598301 2.334351  
2885.7839  12.39804   -9999      145.2152   0.4005604  0.2068038  -0.06110518 -0.216623  49         -9999      145.2152   1.519679810560448 2.328014  
2885.9839  12.40009   -9999      147.8414   0.4192046  0.2569622  0.02153319 -0.07914801 49         -9999      147.8414   1.49690156159907 2.338601  
2886.1839  12.40794   -9999      150.1535   0.4250261  0.2814796  0.07736106 0.04645224 49         -9999      150.1535   1.52432909452132 2.35641   
