~Version
 VERS              .         2.0                           : CWLS LOG ASCII STANDARD - VERSION 2.0
 WRAP              .         NO                            : ONE LINE PER DEPTH STEP
 DLM               .         SPACE                         : DELIMITING CHARACTER(SPACE TAB OR COMMA)
~Well Information
#_______________________________________________________________________________
#
#PARAMETER_NAME    .UNIT     VALUE                         : DESCRIPTION
#_______________________________________________________________________________
STRT               .m        860.9839                      : First reference value
STOP               .m        4658.9839                     : Last reference value
STEP               .m        0.2                           : Step increment
NULL               .         -9999                         : Missing value
COMP               .         PETROLEO BRASILEIRO S/A       : Company
WELL               .         6-ESS-168_resample            : Well name
FLD                .         CAMARUPIM NORTE               : Field
LOC                .                                       : Location
CNTY               .                                       : County
STAT               .         ESPIRITO SANTO                : State
CTRY               .                                       : Country
SRVC               .                                       : Service Company
DATE               .                                       : Date
API                .         342710135600                  : API number
EDF                .M        25.00                         : Elevation Derrick Floor
GDAT               .         SIRGAS2000                    : Geodetic Datum
HZCS               .         UTM                           : Horizontal Coordinate System
LMF                .         MR                            : Log Measure From
LATI               .         -19_54_33.884                 : Latitude
LONG               .         -39_37_03.497                 : Longitude
MC                 .         39 W                          : Meridiano Central
ORIG               .         SIGEO EXPORTACAO PERFIL       : Origem dos dados
ORIGINALWELLNAME   .         6ESS 0168  ES                 : 
WDMS               .M        789.00                        : Water Depth to Mean Sea Level
X                  .         435367.50                     : Surface X
Y                  .         7798516.90                    : Surface Y
~Parameter Information Block
#_______________________________________________________________________________
#
#PARAMETER_NAME    .UNIT     VALUE                         : DESCRIPTION
#_______________________________________________________________________________
SET                .         ESS168_resample               : 
TLFamily_CALI      .         Caliper                       : 
TLFamily_DEPT      .         Measured Depth                : 
TLFamily_DT_merge  .         Compressional Slowness        : 
TLFamily_GR        .         Gamma Ray                     : 
TLFamily_INPEFA_1  .                                       : 
TLFamily_INPEFA_2  .                                       : 
TLFamily_INPEFA_3  .                                       : 
TLFamily_INPEFA_4  .                                       : 
TLFamily_LITO      .                                       : 
TLFamily_LLD       .         Deep Resistivity              : 
TLFamily_OG        .                                       : 
TLFamily_RESD      .         Deep Resistivity              : 
TLFamily_ZDEN      .         Bulk Density                  : 
~Curve Information
#_______________________________________________________________________________
#
#LOGNAME           .UNIT     LOG_ID                        : DESCRIPTION
#_______________________________________________________________________________
DEPT               .m                                      :  
CALI               .in                                     : CALIPER 
DT_merge           .us/ft                                  : DELTA-T COMPRESSIONAL 
GR                 .gAPI                                   : GAMMA RAY 
INPEFA_1           .                                       :  
INPEFA_2           .                                       :  
INPEFA_3           .                                       :  
INPEFA_4           .                                       :  
LITO               .                                       :  
LLD                .ohm.m                                  : LATEROLOG DEEP RESISTIVITY 
OG                 .                                       :  
RESD               .ohm.m                                  : DEEP RESISTIVITY 
ZDEN               .g/cm3                                  : FORMATION BULK DENSITY 
~Ascii
# ...
1875.1839  -9999      -9999      40.80672   -0.08047863 0.2582778  0.2918479  0.5662251  42         -9999      40.80672   -9999      -9999     
1875.3839  -9999      -9999      42.95702   -0.09716337 0.2135219  0.2274972  0.4564664  42         -9999      42.95702   -9999      -9999     
1875.5839  -9999      -9999      44.04445   -0.09022584 0.2313472  0.2560745  0.5087756  42         -9999      44.04445   -9999      -9999     
1875.7839  -9999      -9999      43.66066   -0.1053303 0.1933817  0.2043549  0.425074   42         -9999      43.66066   -9999      -9999     
1875.9839  -9999      -9999      41.73381   -0.1082366 0.1827899  0.1865211  0.3794845  42         -9999      41.73381   -9999      -9999     
1876.1839  -9999      -9999      38.23545   -0.1073333 0.1819038  0.1824157  0.3522039  42         -9999      38.23545   -9999      -9999     
1876.3839  -9999      -9999      36.57416   -0.1148345 0.1617292  0.1517956  0.2787949  42         -9999      36.57416   -9999      -9999     
1876.5839  -9999      -9999      37.09803   -0.1082174 0.1729387  0.1612482  0.2565653  42         -9999      37.09803   -9999      -9999     
1876.7839  -9999      -9999      39.90508   -0.09565431 0.2069293  0.212749   0.3292162  42         -9999      39.90508   -9999      -9999     
1876.9839  -9999      -9999      42.63763   -0.09037007 0.2223685  0.2396677  0.3730937  42         -9999      42.63763   -9999      -9999     
1877.1839  -9999      -9999      42.39013   -0.08846351 0.2290431  0.25312    0.3923196  42         -9999      42.39013   -9999      -9999     
1877.3839  -9999      -9999      41.6212    -0.09109025 0.2263466  0.25648    0.4068232  42         -9999      41.6212    -9999      -9999     
1877.5839  -9999      -9999      42.61658   -0.09326542 0.2191015  0.246265   0.3802592  42         -9999      42.61658   -9999      -9999     
1877.7839  -9999      -9999      43.52401   -0.08654674 0.2405811  0.2846     0.4550838  42         -9999      43.52401   -9999      -9999     
1877.9839  -9999      -9999      43.92946   -0.09085123 0.2314639  0.2773449  0.4561298  42         -9999      43.92946   -9999      -9999     
1878.1839  -9999      -9999      46.92669   -0.09003182 0.2361374  0.2899792  0.4911809  42         -9999      46.92669   -9999      -9999     
1878.3839  -9999      -9999      53.18449   -0.0993119 0.2149596  0.2659372  0.4692822  42         -9999      53.18449   -9999      -9999     
1878.5839  -9999      -9999      56.69822   -0.1014124 0.2091321  0.2597382  0.4671468  42         -9999      56.69822   -9999      -9999     
1878.7839  -9999      -9999      57.63734   -0.1131242 0.1805027  0.2221357  0.4150359  42         -9999      57.63734   -9999      -9999     
1878.9839  -9999      -9999      58.653     -0.1297808 0.1330654  0.1485525  0.275649   49         -9999      58.653     -9999      -9999     
1879.1839  -9999      -9999      57.49896   -0.1230165 0.1468014  0.1645526  0.288308   49         -9999      57.49896   -9999      -9999     
1879.3839  -9999      -9999      56.18636   -0.1353704 0.1144489  0.1173114  0.2038084  49         -9999      56.18636   -9999      -9999     
1879.5839  -9999      -9999      54.11861   -0.1435184 0.08720819 0.06960607 0.09437166 49         -9999      54.11861   -9999      -9999     
1879.7839  -9999      -9999      48.97363   -0.147814  0.07040421 0.03654204 0.002171662 49         -9999      48.97363   -9999      -9999     
1879.9839  -9999      -9999      43.45733   -0.1552592 0.04385136 -0.01375891 -0.1329969 49         -9999      43.45733   -9999      -9999     
1880.1839  -9999      -9999      40.84805   -0.1414715 0.06974433 0.009292616 -0.1550357 49         -9999      40.84805   -9999      -9999     
1880.3839  -9999      -9999      42.15681   -0.1346758 0.08782492 0.03381681 -0.1389532 49         -9999      42.15681   -9999      -9999     
1880.5839  -9999      -9999      44.81934   -0.1339282 0.08320431 0.01791076 -0.2076768 49         -9999      44.81934   -9999      -9999     
1880.7839  -9999      -9999      45.78185   -0.1211406 0.1149067  0.06058238 -0.1631159 49         -9999      45.78185   -9999      -9999     
1880.9839  -9999      -9999      46.11763   -0.1259226 0.1018544  0.04039427 -0.2148566 49         -9999      46.11763   -9999      -9999     
1881.1839  -9999      -9999      47.25479   -0.1176373 0.1189795  0.05926876 -0.213113  49         -9999      47.25479   -9999      -9999     
1881.3839  -9999      -9999      49.79953   -0.1118178 0.1346213  0.08286947 -0.1822706 49         -9999      49.79953   -9999      -9999     
1881.5839  -9999      -9999      52.68656   -0.1148125 0.125403   0.06797975 -0.2203628 49         -9999      52.68656   -9999      -9999     
1881.7839  -9999      -9999      56.16079   -0.1062763 0.1465594  0.09833742 -0.1769551 49         -9999      56.16079   -9999      -9999     
1881.9839  -9999      -9999      61.24781   -0.1081325 0.1421254  0.09364035 -0.1831852 49         -9999      61.24781   -9999      -9999     
1882.1839  -9999      -9999      63.15712   -0.1041739 0.1509399  0.1064283  -0.1618098 49         -9999      63.15712   -9999      -9999     
1882.3839  -9999      -9999      62.75526   -0.1004751 0.1621076  0.1271991  -0.1107467 49         -9999      62.75526   -9999      -9999     
1882.5839  -9999      -9999      63.64844   -0.1022244 0.1582616  0.1256127  -0.0948467 49         -9999      63.64844   -9999      -9999     
1882.7839  -9999      -9999      64.21283   -0.1022133 0.159136   0.1312594  -0.06397554 49         -9999      64.21283   -9999      -9999     
1882.9839  -9999      -9999      63.97442   -0.113476  0.129486   0.09025247 -0.119781  49         -9999      63.97442   -9999      -9999     
1883.1839  -9999      -9999      59.97099   -0.1123284 0.129401   0.08889921 -0.1186178 57         -9999      59.97099   -9999      -9999     
1883.3839  -9999      -9999      53.32529   -0.1137434 0.1256055  0.08579269 -0.1115905 57         -9999      53.32529   -9999      -9999     
1883.5839  -9999      -9999      48.56706   -0.1148222 0.1202775  0.07749133 -0.1218899 57         -9999      48.56706   -9999      -9999     
1883.7839  -9999      -9999      45.11037   -0.111537  0.1277884  0.08952831 -0.09471687 57         -9999      45.11037   -9999      -9999     
1883.9839  -9999      -9999      43.76255   -0.118419  0.1082194  0.06073862 -0.1425787 57         -9999      43.76255   -9999      -9999     
1884.1839  -9999      -9999      43.60662   -0.1083824 0.1305049  0.09077471 -0.09599436 57         -9999      43.60662   -9999      -9999     
1884.3839  -9999      -9999      42.42455   -0.09107732 0.1779192  0.1670809  0.06224594 57         -9999      42.42455   -9999      -9999     
1884.5839  -9999      -9999      42.34623   -0.09638455 0.1676142  0.1608067  0.08886699 57         -9999      42.34623   -9999      -9999     
1884.7839  -9999      -9999      42.75451   -0.09545353 0.1732653  0.1779265  0.1597018  57         -9999      42.75451   -9999      -9999     
1884.9839  -9999      -9999      42.95859   -0.1029425 0.1531805  0.1529156  0.1480671  57         -9999      42.95859   -9999      -9999     
1885.1839  -9999      -9999      43.25129   -0.09947003 0.1628833  0.172428   0.2152359  49         -9999      43.25129   -9999      -9999     
1885.3839  -9999      -9999      43.2666    -0.1080689 0.141146   0.1464225  0.2073115  49         -9999      43.2666    -9999      -9999     
1885.5839  -9999      -9999      43.96783   -0.1064756 0.1427241  0.1500847  0.2382442  49         -9999      43.96783   -9999      -9999     
1885.7839  -9999      -9999      45.48434   -0.1072374 0.1424173  0.1567244  0.2906542  49         -9999      45.48434   -9999      -9999     
1885.9839  -9999      -9999      48.56713   -0.1092867 0.1364743  0.1529192  0.3223029  49         -9999      48.56713   -9999      -9999     
1886.1839  -9999      -9999      51.32932   -0.1153967 0.1211919  0.13622    0.3316222  49         -9999      51.32932   -9999      -9999     
