~Version
 VERS              .         2.0                           : CWLS LOG ASCII STANDARD - VERSION 2.0
 WRAP              .         NO                            : ONE LINE PER DEPTH STEP
 DLM               .         SPACE                         : DELIMITING CHARACTER(SPACE TAB OR COMMA)
~Well Information
#_______________________________________________________________________________
#
#PARAMETER_NAME    .UNIT     VALUE                         : DESCRIPTION
#_______________________________________________________________________________
STRT               .m        860.9839                      : First reference value
STOP               .m        4658.9839                     : Last reference value
STEP               .m        0.2                           : Step increment
NULL               .         -9999                         : Missing value
COMP               .         PETROLEO BRASILEIRO S/A       : Company
WELL               .         6-ESS-168_resample            : Well name
FLD                .         CAMARUPIM NORTE               : Field
LOC                .                                       : Location
CNTY               .                                       : County
STAT               .         ESPIRITO SANTO                : State
CTRY               .                                       : Country
SRVC               .                                       : Service Company
DATE               .                                       : Date
API                .         342710135600                  : API number
EDF                .M        25.00                         : Elevation Derrick Floor
GDAT               .         SIRGAS2000                    : Geodetic Datum
HZCS               .         UTM                           : Horizontal Coordinate System
LMF                .         MR                            : Log Measure From
LATI               .         -19_54_33.884                 : Latitude
LONG               .         -39_37_03.497                 : Longitude
MC                 .         39 W                          : Meridiano Central
ORIG               .         SIGEO EXPORTACAO PERFIL       : Origem dos dados
ORIGINALWELLNAME   .         6ESS 0168  ES                 : 
WDMS               .M        789.00                        : Water Depth to Mean Sea Level
X                  .         435367.50                     : Surface X
Y                  .         7798516.90                    : Surface Y
~Parameter Information Block
#_______________________________________________________________________________
#
#PARAMETER_NAME    .UNIT     VALUE                         : DESCRIPTION
#_______________________________________________________________________________
SET                .         ESS168_resample               : 
TLFamily_CALI      .         Caliper                       : 
TLFamily_DEPT      .         Measured Depth                : 
TLFamily_DT_merge  .         Compressional Slowness        : 
TLFamily_GR        .         Gamma Ray                     : 
TLFamily_INPEFA_1  .                                       : 
TLFamily_INPEFA_2  .                                       : 
TLFamily_INPEFA_3  .                                       : 
TLFamily_INPEFA_4  .                                       : 
TLFamily_LITO      .                                       : 
TLFamily_LLD       .         Deep Resistivity              : 
TLFamily_OG        .                                       : 
TLFamily_RESD      .         Deep Resistivity              : 
TLFamily_ZDEN      .         Bulk Density                  : 
~Curve Information
#_______________________________________________________________________________
#
#LOGNAME           .UNIT     LOG_ID                        : DESCRIPTION
#_______________________________________________________________________________
DEPT               .m                                      :  
CALI               .in                                     : CALIPER 
DT_merge           .us/ft                                  : DELTA-T COMPRESSIONAL 
GR                 .gAPI                                   : GAMMA RAY 
INPEFA_1           .                                       :  
INPEFA_2           .                                       :  
INPEFA_3           .                                       :  
INPEFA_4           .                                       :  
LITO               .                                       :  
LLD                .ohm.m                                  : LATEROLOG DEEP RESISTIVITY 
OG                 .                                       :  
RESD               .ohm.m                                  : DEEP RESISTIVITY 
ZDEN               .g/cm3                                  : FORMATION BULK DENSITY 
~Ascii
# ...
3423.3839  8.490624   70.81915   75.86771   -0.3136079 0.1256062  0.1767636  0.01130168 49         -9999      75.86771   32.62076237205944 2.462907  
3423.583900000001 8.519531   69.42896   77.50075   -0.3216412 0.1062484  0.1597055  0.02524549 49         -9999      77.50075   33.18104366870372 2.487599  
3423.7839  8.523117   69.3065    80.38262   -0.3249428 0.09338521 0.1430317  0.0130688  49         -9999      80.38262   33.42639836834101 2.504529  
3423.9839  8.520165   70.43385   81.29557   -0.3225563 0.09785775 0.1557216  0.06325803 49         -9999      81.29557   33.84147434152892 2.505132  
3424.1839  8.515153   71.71362   79.87379   -0.3304975 0.0740135  0.124495   0.03213764 49         -9999      79.87379   33.89075185735742 2.48794   
3424.3839  8.501992   72.06544   78.83276   -0.3276162 0.07641981 0.1293665  0.05505871 49         -9999      78.83276   33.00460397350078 2.46434   
3424.583900000001 8.484872   71.20893   78.59195   -0.3302229 0.0662014  0.1174885  0.05216084 49         -9999      78.59195   31.07530772865346 2.452979  
3424.7839  8.48       69.07874   80.53822   -0.3206822 0.08627938 0.1488561  0.1222576  49         -9999      80.53822   29.36150676147575 2.477642  
3424.9839  8.481017   66.29536   83.32709   -0.3194416 0.089595   0.161986   0.179794   49         -9999      83.32709   29.66811677700472 2.532138  
3425.1839  8.48946    63.71264   80.34877   -0.3295013 0.05961453 0.1213575  0.1302227  49         -9999      80.34877   31.47520097945256 2.583576  
3425.3839  8.512486   62.40924   67.66331   -0.319871  0.07925065 0.1510268  0.192108   49         -9999      67.66331   40.15132173149893 2.623824  
3425.583900000001 8.550174   62.4854    55.41828   -0.3154374 0.09111377 0.1769821  0.2702944  49         -9999      55.41828   65.40798630337348 2.652838  
3425.7839  8.556926   63.63684   53.7326    -0.3168108 0.08505356 0.1735364  0.2920365  49         -9999      53.7326    83.9174913472062 2.643277  
3425.9839  8.543387   65.57524   61.04118   -0.3187144 0.07813807 0.1686945  0.3088097  49         -9999      61.04118   73.33192015761736 2.597028  
3426.1839  8.509643   67.74972   70.75098   -0.3226887 0.06467069 0.152937   0.303364   49         -9999      70.75098   51.47521321902931 2.541307  
3426.3839  8.4855     69.70631   74.8137    -0.3289972 0.04350206 0.1226769  0.259336   49         -9999      74.8137    35.03682861343533 2.510667  
3426.583900000001 8.480388   71.39094   75.13712   -0.333281  0.02668337 0.0967108  0.2120552  49         -9999      75.13712   30.46633829332339 2.50645   
3426.7839  8.485006   72.74908   77.16326   -0.3252316 0.03888401 0.1094368  0.2183637  49         -9999      77.16326   31.8985060836208 2.496412  
3426.9839  8.493408   73.35553   79.2484    -0.307197  0.08591488 0.1848763  0.3674894  49         -9999      79.2484    32.92886444680328 2.480762  
3427.1839  8.504361   72.69344   81.59176   -0.3165889 0.0596322  0.1513838  0.3289447  49         -9999      81.59176   32.7393258897459 2.485023  
3427.3839  8.512396   71.33448   83.40414   -0.3134096 0.0642877  0.1597828  0.3514567  49         -9999      83.40414   32.08635491661565 2.508026  
3427.583900000001 8.531462   70.76009   83.75015   -0.3124672 0.06392641 0.1630034  0.37352    49         -9999      83.75015   31.6911913599855 2.523605  
3427.7839  8.553681   71.31422   82.15737   -0.3093563 0.06954651 0.1750094  0.4121154  49         -9999      82.15737   31.28865180297451 2.518556  
3427.9839  8.546885   71.72542   79.9989    -0.3161746 0.04875039 0.1474898  0.379344   49         -9999      79.9989    29.71057186783535 2.500918  
3428.1839  8.521721   70.88661   80.86447   -0.3062671 0.06968182 0.1791126  0.4447519  49         -9999      80.86447   28.19544170168671 2.4902    
3428.3839  8.504103   69.25314   81.75548   -0.3070328 0.06881574 0.1864378  0.4913193  49         -9999      81.75548   28.33530892256594 2.497384  
3428.583900000001 8.495955   68.13682   80.41747   -0.3107826 0.05473271 0.1680275  0.4796306  49         -9999      80.41747   29.19115654130869 2.514259  
3428.7839  8.511569   68.00433   79.68705   -0.3179949 0.034886   0.1438068  0.4623606  49         -9999      79.68705   29.34256632452091 2.530218  
3428.9839  8.52527    68.63293   80.85032   -0.3540267 -0.06740212 -0.01259103 0.1763407  49         -9999      80.85032   28.8619147030458 2.532925  
3429.1839  8.52783    69.8753    83.13055   -0.3227724 -0.00122799 0.0692694  0.2718271  49         -9999      83.13055   28.12489143187686 2.516227  
3429.3839  8.537971   71.2206    85.78735   -0.3091712 0.03497977 0.1280489  0.3871368  49         -9999      85.78735   26.90283104259806 2.489362  
3429.583900000001 8.532992   71.87836   88.08913   -0.3244342 -0.008001139 0.06525921 0.2814943  49         -9999      88.08913   25.53544809033782 2.470424  
3429.7839  8.522671   71.32774   86.94751   -0.3208129 -0.003865665 0.06876729 0.2831918  49         -9999      86.94751   25.01740227622671 2.468115  
3429.9839  8.493758   70.07976   81.31054   -0.3464428 -0.07885966 -0.04910139 0.05534055 49         -9999      81.31054   26.1349768852038 2.479482  
3430.1839  8.470097   69.08824   77.93169   -0.316541  -0.01420091 0.03232682 0.1569005  49         -9999      77.93169   28.24274579563742 2.491931  
3430.3839  8.493776   68.68984   79.03026   -0.3193553 -0.01881722 0.03244664 0.1770063  49         -9999      79.03026   30.59720929794513 2.489756  
3430.583900000001 8.49436    68.80617   80.33801   -0.3406366 -0.08324649 -0.06999116 -0.01804936 49         -9999      80.33801   32.71085244307123 2.480989  
3430.7839  8.477642   69.46299   80.55399   -0.3346947 -0.08051204 -0.08033654 -0.08037403 49         -9999      80.55399   32.3890784133616 2.470571  
3430.9839  8.48926    70.63198   81.96085   -0.3409231 -0.1036164 -0.1217805 -0.1806897 49         -9999      81.96085   31.0099561585981 2.457328  
3431.1839  8.49932    71.40659   82.53054   -0.3347695 -0.1018883 -0.1357773 -0.2593426 49         -9999      82.53054   30.73175783845944 2.459035  
3431.3839  8.488926   71.30851   81.80724   -0.3283477 -0.09668491 -0.1427263 -0.3298133 49         -9999      81.80724   30.21073199780714 2.473831  
3431.583900000001 8.481181   71.36878   82.43227   -0.3100522 -0.0586413 -0.09798026 -0.3007789 49         -9999      82.43227   28.82017335937033 2.4817    
3431.7839  8.491291   73.36966   85.41701   -0.2878091 -0.008012949 -0.03073141 -0.2195319 49         -9999      85.41701   26.96009808223481 2.476645  
3431.9839  8.503238   76.33624   93.85481   -0.2608778 0.06049996 0.07185169 -0.04482001 49         -9999      93.85481   24.51978108136162 2.470746  
3432.1839  8.49824    77.92825   96.05229   -0.2588607 0.06538757 0.08364586 -0.01528269 49         -9999      96.05229   22.29629211190729 2.446882  
3432.3839  8.496719   76.91275   86.88487   -0.2471851 0.1042144  0.1574575  0.1651409  49         -9999      86.88487   21.85417790971739 2.432553  
3432.583900000001 8.477411   75.35889   81.70217   -0.259673  0.07087269 0.1166494  0.1350677  49         -9999      81.70217   22.96780119275319 2.439317  
3432.7839  8.473933   75.6312    83.55754   -0.2746391 0.03038854 0.06012391 0.0547858  49         -9999      83.55754   24.23040565958049 2.458127  
3432.9839  8.498557   77.72933   89.56759   -0.2728799 0.03039805 0.06173756 0.07675383 49         -9999      89.56759   25.36370744729784 2.462912  
3433.1839  8.482511   78.88261   90.39832   -0.2686729 0.03411995 0.06401484 0.08485486 49         -9999      90.39832   27.07926186024122 2.440492  
3433.3839  8.462499   77.12773   85.61554   -0.2701994 0.03064862 0.06519223 0.1162171  49         -9999      85.61554   29.04559995168581 2.427301  
3433.583900000001 8.46358    73.06403   87.0128    -0.277628  0.003923287 0.02343355 0.05194017 49         -9999      87.0128    29.62258331422503 2.449945  
3433.7839  8.480081   69.76694   90.87115   -0.2658562 0.03123826 0.06449869 0.1363106  49         -9999      90.87115   28.33571355685852 2.488091  
