~Version
 VERS              .         2.0                           : CWLS LOG ASCII STANDARD - VERSION 2.0
 WRAP              .         NO                            : ONE LINE PER DEPTH STEP
 DLM               .         SPACE                         : DELIMITING CHARACTER(SPACE TAB OR COMMA)
~Well Information
#_______________________________________________________________________________
#
#PARAMETER_NAME    .UNIT     VALUE                         : DESCRIPTION
#_______________________________________________________________________________
STRT               .m        860.9839                      : First reference value
STOP               .m        4658.9839                     : Last reference value
STEP               .m        0.2                           : Step increment
NULL               .         -9999                         : Missing value
COMP               .         PETROLEO BRASILEIRO S/A       : Company
WELL               .         6-ESS-168_resample            : Well name
FLD                .         CAMARUPIM NORTE               : Field
LOC                .                                       : Location
CNTY               .                                       : County
STAT               .         ESPIRITO SANTO                : State
CTRY               .                                       : Country
SRVC               .                                       : Service Company
DATE               .                                       : Date
API                .         342710135600                  : API number
EDF                .M        25.00                         : Elevation Derrick Floor
GDAT               .         SIRGAS2000                    : Geodetic Datum
HZCS               .         UTM                           : Horizontal Coordinate System
LMF                .         MR                            : Log Measure From
LATI               .         -19_54_33.884                 : Latitude
LONG               .         -39_37_03.497                 : Longitude
MC                 .         39 W                          : Meridiano Central
ORIG               .         SIGEO EXPORTACAO PERFIL       : Origem dos dados
ORIGINALWELLNAME   .         6ESS 0168  ES                 : 
WDMS               .M        789.00                        : Water Depth to Mean Sea Level
X                  .         435367.50                     : Surface X
Y                  .         7798516.90                    : Surface Y
~Parameter Information Block
#_______________________________________________________________________________
#
#PARAMETER_NAME    .UNIT     VALUE                         : DESCRIPTION
#_______________________________________________________________________________
SET                .         ESS168_resample               : 
TLFamily_CALI      .         Caliper                       : 
TLFamily_DEPT      .         Measured Depth                : 
TLFamily_DT_merge  .         Compressional Slowness        : 
TLFamily_GR        .         Gamma Ray                     : 
TLFamily_INPEFA_1  .                                       : 
TLFamily_INPEFA_2  .                                       : 
TLFamily_INPEFA_3  .                                       : 
TLFamily_INPEFA_4  .                                       : 
TLFamily_LITO      .                                       : 
TLFamily_LLD       .         Deep Resistivity              : 
TLFamily_OG        .                                       : 
TLFamily_RESD      .         Deep Resistivity              : 
TLFamily_ZDEN      .         Bulk Density                  : 
~Curve Information
#_______________________________________________________________________________
#
#LOGNAME           .UNIT     LOG_ID                        : DESCRIPTION
#_______________________________________________________________________________
DEPT               .m                                      :  
CALI               .in                                     : CALIPER 
DT_merge           .us/ft                                  : DELTA-T COMPRESSIONAL 
GR                 .gAPI                                   : GAMMA RAY 
INPEFA_1           .                                       :  
INPEFA_2           .                                       :  
INPEFA_3           .                                       :  
INPEFA_4           .                                       :  
LITO               .                                       :  
LLD                .ohm.m                                  : LATEROLOG DEEP RESISTIVITY 
OG                 .                                       :  
RESD               .ohm.m                                  : DEEP RESISTIVITY 
ZDEN               .g/cm3                                  : FORMATION BULK DENSITY 
~Ascii
# ...
3900.583900000001 8.845207   69.74555   82.955     0.04574693 -0.04729968 0.03085012 0.2534098  49         -9999      82.955     3.365637399591265 2.493219  
3900.7839  8.854123   72.00958   91.13837   0.03768615 -0.07323961 -0.008252575 0.2002768  49         -9999      91.13837   3.112066547516633 2.472499  
3900.9839  8.871595   72.10188   87.27872   0.0453993  -0.0539671 0.02321235 0.2770875  49         -9999      87.27872   2.632334887377162 2.446978  
3901.1839  8.897909   70.08863   75.60284   0.04814896 -0.04555006 0.04313193 0.3521002  49         -9999      75.60284   2.151445286298954 2.445317  
3901.3839  8.912777   67.59933   70.06964   0.02191475 -0.113664  -0.05313265 0.2092242  49         -9999      70.06964   1.969947675659332 2.445805  
3901.583900000001 8.882975   65.93211   72.2536    0.01543987 -0.1407039 -0.1028793 0.1021963  49         -9999      72.2536    2.100233793971651 2.443292  
3901.7839  8.848349   66.26084   75.71319   0.0433969  -0.07434415 -0.01070269 0.2516478  49         -9999      75.71319   2.287880868344511 2.42594   
3901.9839  8.850687   67.78836   74.42504   0.03296955 -0.09455804 -0.02872176 0.2589892  49         -9999      74.42504   2.354117463174604 2.42206   
3902.1839  8.869667   69.04664   70.40266   0.0205146  -0.1358623 -0.09696686 0.127147   49         -9999      70.40266   2.282167464965043 2.423897  
3902.3839  8.889947   68.79979   69.05387   0.02891142 -0.1178289 -0.07442046 0.1521783  49         -9999      69.05387   2.167623760276205 2.425345  
3902.583900000001 8.922439   66.94136   70.01604   0.03032899 -0.1171001 -0.07406352 0.1517237  49         -9999      70.01604   2.138907860949335 2.444947  
3902.7839  8.903162   64.02856   68.89646   0.04369045 -0.0842663 -0.02563138 0.2378535  49         -9999      68.89646   2.32511622248185 2.450618  
3902.9839  8.849332   61.0251    67.53572   0.0405219  -0.09084597 -0.02952558 0.2510658  49         -9999      67.53572   2.83227114033694 2.451741  
3903.1839  8.83165    59.50352   69.67909   0.03480534 -0.1076392 -0.05345341 0.2166094  49         -9999      69.67909   3.772537965730719 2.46264   
3903.3839  8.909811   60.12445   71.12273   0.03922667 -0.09950112 -0.04246333 0.2365392  49         -9999      71.12273   4.666499576972398 2.548704  
3903.583900000001 8.97084    62.41752   72.71375   0.03830575 -0.1020734 -0.0434573 0.2465013  49         -9999      72.71375   4.640679999820121 2.527122  
3903.7839  9.00053    64.83736   76.30851   0.03856396 -0.1042452 -0.04660233 0.2468214  49         -9999      76.30851   3.723515532311269 2.451784  
3903.9839  8.991463   66.29195   77.47312   0.04064687 -0.09898375 -0.03576691 0.2793055  49         -9999      77.47312   2.896167671111204 2.447664  
3904.1839  8.921663   66.77106   75.77076   0.03697362 -0.1106113 -0.05169737 0.2616975  49         -9999      75.77076   2.674347994043099 2.467054  
3904.3839  8.892814   66.34564   78.99129   0.03176495 -0.1275738 -0.0784045 0.2140986  49         -9999      78.99129   2.926773013792284 2.444487  
3904.583900000001 8.950631   64.88773   85.26954   0.03619871 -0.1188082 -0.06564705 0.2398577  49         -9999      85.26954   3.400258756167319 2.461407  
3904.7839  9.014966   62.36906   82.20262   0.03758183 -0.1155227 -0.05767498 0.2666694  49         -9999      82.20262   3.969817545871968 2.501338  
3904.9839  9.082081   60.01313   76.37147   0.03182624 -0.1322375 -0.08112802 0.2318082  49         -9999      76.37147   4.783432517060648 2.569209  
3905.1839  9.033506   59.51553   77.23058   0.038561   -0.1169628 -0.05821282 0.2758658  49         -9999      77.23058   5.674573481642087 2.610078  
3905.3839  8.999372   61.18903   78.77769   0.03065633 -0.1367493 -0.08328977 0.2464653  49         -9999      78.77769   5.265865970404263 2.5842    
3905.583900000001 8.982229   64.094     77.22826   0.008361   -0.2007322 -0.1833294 0.05290575 49         -9999      77.22826   3.894125189522984 2.506412  
3905.7839  8.98683    66.5631    73.40488   0.02081645 -0.1761712 -0.1563364 0.0655227  49         -9999      73.40488   3.080351207995753 2.461106  
3905.9839  9.017988   67.63486   70.7963    0.02521746 -0.1687287 -0.1493934 0.05577768 49         -9999      70.7963    2.978019201171497 2.472987  
3906.1839  9.057809   67.07225   72.19406   0.02490821 -0.1707626 -0.1535699 0.03354048 49         -9999      72.19406   3.22303693617963 2.486989  
3906.3839  9.08045    65.69724   73.75179   0.02341128 -0.1797121 -0.1717799 -0.02339599 49         -9999      73.75179   3.466472838091811 2.492819  
3906.583900000001 9.056097   64.76044   74.25658   0.02676576 -0.1749596 -0.169852  -0.04956571 49         -9999      74.25658   3.494793261018959 2.502313  
3906.7839  8.996523   64.73503   74.68732   0.03330613 -0.161079  -0.1524723 -0.04157348 49         -9999      74.68732   3.48733741416408 2.490198  
3906.9839  8.989981   65.01076   74.49474   0.04170942 -0.1405375 -0.1226268 -0.001740415 49         -9999      74.49474   3.631515544414024 2.490412  
3907.1839  9.000684   64.72216   74.82446   0.04386977 -0.1354971 -0.113927  0.008560882 49         -9999      74.82446   4.010991809220111 2.50243   
3907.3839  9.049238   63.93107   76.66927   0.05165897 -0.1155798 -0.08249591 0.065189   49         -9999      76.66927   4.567771723416812 2.524426  
3907.583900000001 9.081824   63.57478   77.18025   0.04430062 -0.131586  -0.09914993 0.0548941  49         -9999      77.18025   4.912091371756953 2.544294  
3907.7839  9.081834   64.18194   75.75431   0.02489742 -0.1880117 -0.1874616 -0.1171492 49         -9999      75.75431   4.816291050674708 2.538172  
3907.9839  9.00919    65.50317   75.82538   0.04291422 -0.1464056 -0.1317405 -0.04279259 49         -9999      75.82538   4.451621123104608 2.525521  
3908.1839  8.979197   66.57919   75.88836   0.03795778 -0.1578841 -0.144611  -0.05754352 49         -9999      75.88836   4.023216605660148 2.487186  
3908.3839  8.98248    66.54454   76.13904   0.03030732 -0.1843022 -0.1899044 -0.1594508 49         -9999      76.13904   3.728308860089207 2.481768  
3908.583900000001 9.003159   65.38879   81.0546    0.0349018  -0.1755835 -0.1803924 -0.1634955 49         -9999      81.0546    3.767105964862537 2.500731  
3908.7839  9.053256   64.05131   84.13153   0.03328375 -0.1831798 -0.1944709 -0.2063643 49         -9999      84.13153   4.027529813039238 2.529303  
3908.9839  9.0888     63.88406   80.3872    0.04486343 -0.1567077 -0.1587948 -0.1640245 49         -9999      80.3872    4.1985     2.5368    
3909.1839  9.081019   65.1163    76.17726   0.04167243 -0.1640428 -0.1666052 -0.1791799 49         -9999      76.17726   4.099408213576934 2.532662  
3909.3839  8.961331   66.80885   74.84325   0.04241216 -0.1658979 -0.1719309 -0.2042378 49         -9999      74.84325   3.713054407221029 2.522786  
3909.583900000001 8.882851   67.46861   74.43866   0.04573746 -0.1577143 -0.1589008 -0.1899186 49         -9999      74.43866   3.212352902594292 2.471256  
3909.7839  8.878492   66.55294   72.79519   0.02724647 -0.2099707 -0.2401917 -0.3585071 49         -9999      72.79519   2.955409250963969 2.45785   
3909.9839  8.922384   64.24497   69.67204   0.04458952 -0.1721689 -0.1935518 -0.3205023 49         -9999      69.67204   3.142269878610458 2.468049  
3910.1839  8.979719   61.55854   67.33099   0.0538254  -0.1482512 -0.1572556 -0.2713531 49         -9999      67.33099   3.870261610120616 2.496647  
3910.3839  9.003557   60.04255   66.26148   0.0587898  -0.1350018 -0.1354367 -0.2394956 49         -9999      66.26148   5.101529172553104 2.548009  
3910.583900000001 8.991923   60.71305   68.024     0.06695546 -0.1142537 -0.102498  -0.1848217 49         -9999      68.024     6.051992497205974 2.590571  
3910.7839  8.947086   63.53386   74.37234   0.06095282 -0.1256654 -0.1113996 -0.1864932 49         -9999      74.37234   5.534030275226954 2.577017  
3910.9839  8.951244   66.30567   77.21886   0.06035833 -0.1330925 -0.1262165 -0.2290768 49         -9999      77.21886   4.17061370770844 2.524895  
