~Version
 VERS              .         2.0                           : CWLS LOG ASCII STANDARD - VERSION 2.0
 WRAP              .         NO                            : ONE LINE PER DEPTH STEP
 DLM               .         SPACE                         : DELIMITING CHARACTER(SPACE TAB OR COMMA)
~Well Information
#_______________________________________________________________________________
#
#PARAMETER_NAME    .UNIT     VALUE                         : DESCRIPTION
#_______________________________________________________________________________
STRT               .m        860.9839                      : First reference value
STOP               .m        4658.9839                     : Last reference value
STEP               .m        0.2                           : Step increment
NULL               .         -9999                         : Missing value
COMP               .         PETROLEO BRASILEIRO S/A       : Company
WELL               .         6-ESS-168_resample            : Well name
FLD                .         CAMARUPIM NORTE               : Field
LOC                .                                       : Location
CNTY               .                                       : County
STAT               .         ESPIRITO SANTO                : State
CTRY               .                                       : Country
SRVC               .                                       : Service Company
DATE               .                                       : Date
API                .         342710135600                  : API number
EDF                .M        25.00                         : Elevation Derrick Floor
GDAT               .         SIRGAS2000                    : Geodetic Datum
HZCS               .         UTM                           : Horizontal Coordinate System
LMF                .         MR                            : Log Measure From
LATI               .         -19_54_33.884                 : Latitude
LONG               .         -39_37_03.497                 : Longitude
MC                 .         39 W                          : Meridiano Central
ORIG               .         SIGEO EXPORTACAO PERFIL       : Origem dos dados
ORIGINALWELLNAME   .         6ESS 0168  ES                 : 
WDMS               .M        789.00                        : Water Depth to Mean Sea Level
X                  .         435367.50                     : Surface X
Y                  .         7798516.90                    : Surface Y
~Parameter Information Block
#_______________________________________________________________________________
#
#PARAMETER_NAME    .UNIT     VALUE                         : DESCRIPTION
#_______________________________________________________________________________
SET                .         ESS168_resample               : 
TLFamily_CALI      .         Caliper                       : 
TLFamily_DEPT      .         Measured Depth                : 
TLFamily_DT_merge  .         Compressional Slowness        : 
TLFamily_GR        .         Gamma Ray                     : 
TLFamily_INPEFA_1  .                                       : 
TLFamily_INPEFA_2  .                                       : 
TLFamily_INPEFA_3  .                                       : 
TLFamily_INPEFA_4  .                                       : 
TLFamily_LITO      .                                       : 
TLFamily_LLD       .         Deep Resistivity              : 
TLFamily_OG        .                                       : 
TLFamily_RESD      .         Deep Resistivity              : 
TLFamily_ZDEN      .         Bulk Density                  : 
~Curve Information
#_______________________________________________________________________________
#
#LOGNAME           .UNIT     LOG_ID                        : DESCRIPTION
#_______________________________________________________________________________
DEPT               .m                                      :  
CALI               .in                                     : CALIPER 
DT_merge           .us/ft                                  : DELTA-T COMPRESSIONAL 
GR                 .gAPI                                   : GAMMA RAY 
INPEFA_1           .                                       :  
INPEFA_2           .                                       :  
INPEFA_3           .                                       :  
INPEFA_4           .                                       :  
LITO               .                                       :  
LLD                .ohm.m                                  : LATEROLOG DEEP RESISTIVITY 
OG                 .                                       :  
RESD               .ohm.m                                  : DEEP RESISTIVITY 
ZDEN               .g/cm3                                  : FORMATION BULK DENSITY 
~Ascii
# ...
2382.5839  12.69461   -9999      78.79689   0.1134129  -0.0912041 -0.2556695 0.2241324  57         -9999      78.79689   1.070196489423989 2.336974  
2382.7839  12.6982    -9999      85.84426   0.1138826  -0.09222888 -0.2653461 0.1819645  57         -9999      85.84426   1.132491189876089 2.31132   
2382.9839  12.70404   -9999      92.73576   0.1112997  -0.1011393 -0.2865136 0.1164845  57         -9999      92.73576   1.092478417081421 2.313184  
2383.1839  12.80268   -9999      96.05281   0.1175478  -0.08586203 -0.2713752 0.1124966  57         -9999      96.05281   1.046862673024811 2.322818  
2383.3839  12.98055   -9999      97.32612   0.1188249  -0.08171313 -0.269887  0.09170124 57         -9999      97.32612   1.052827742003079 2.320204  
2383.5839  12.94504   -9999      100.5103   0.1200652  -0.07883889 -0.2720468 0.0594544  57         -9999      100.5103   1.077360599762486 2.323256  
2383.7839  12.83401   -9999      104.1253   0.1123628  -0.09808477 -0.3060216 -0.03095096 57         -9999      104.1253   1.083873994559153 2.310079  
2383.9839  13.02347   -9999      104.5911   0.1170126  -0.08979352 -0.3055596 -0.08076962 57         -9999      104.5911   1.083187639370357 2.327436  
2384.1839  13.23552   -9999      102.4057   0.1217914  -0.07619125 -0.2919661 -0.09661335 57         -9999      102.4057   1.081146789172696 2.3423    
2384.3839  13.07406   -9999      102.3      0.1241888  -0.07003636 -0.2900456 -0.1317735 57         -9999      102.3      1.07916593618313 2.338574  
2384.5839  12.82901   -9999      101.4446   0.1188095  -0.08469839 -0.3207363 -0.2326863 57         -9999      101.4446   1.10124533226626 2.334473  
2384.7839  12.73687   -9999      98.58779   0.1217641  -0.08065613 -0.3277414 -0.3050588 57         -9999      98.58779   1.128811436170858 2.332551  
2384.9839  12.7238    -9999      100.0027   0.1298704  -0.06067601 -0.3084711 -0.3259339 57         -9999      100.0027   1.125800013542175 2.3472    
2385.1839  12.73449   -9999      103.2828   0.1505214  -0.008290809 -0.2401356 -0.2530424 57         -9999      103.2828   1.097323958779007 2.361411  
2385.3839  12.74188   -9999      103.5996   0.1696345  0.05025408 -0.1486977 -0.09411912 57         -9999      103.5996   1.066099588618462 2.363752  
2385.5839  12.73416   -9999      103.6254   0.1553411  0.01917388 -0.1910898 -0.1665882 57         -9999      103.6254   1.058498269040693 2.342862  
2385.7839  12.75753   -9999      103.8842   0.1498737  0.01030266 -0.203032  -0.1925594 57         -9999      103.8842   1.068246728345806 2.298121  
2385.9839  12.84009   -9999      102.7277   0.14216    -0.01166977 -0.242514  -0.2898158 57         -9999      102.7277   1.065754197732722 2.287578  
2386.1839  12.92702   -9999      99.9723    0.148175   0.007054533 -0.2184325 -0.2710607 57         -9999      99.9723    1.063121891784272 2.329552  
2386.3839  12.87657   -9999      96.75217   0.1458486  0.0000821  -0.2352008 -0.32794   57         -9999      96.75217   1.078360111590336 2.353934  
2386.5839  12.76598   -9999      94.42388   0.1469028  0.003775825 -0.2364953 -0.3630003 57         -9999      94.42388   1.102774175296285 2.353714  
2386.7839  12.8722    -9999      94.64265   0.1509135  0.01301495 -0.2305129 -0.3855123 57         -9999      94.64265   1.126969683600034 2.32816   
2386.9839  13.20862   -9999      95.09615   0.1565367  0.02947873 -0.2112307 -0.3787929 57         -9999      95.09615   1.136160181019215 2.285011  
2387.1839  13.42331   -9999      93.49014   0.1608187  0.04118646 -0.1991474 -0.383078  57         -9999      93.49014   1.113576167154072 2.2393    
2387.3839  13.68278   -9999      91.15309   0.1860255  0.1103845  -0.09775964 -0.2128392 57         -9999      91.15309   1.064078277698025 2.202347  
2387.5839  14.05341   -9999      90.71417   0.1832336  0.1121627  -0.08718133 -0.1716017 57         -9999      90.71417   0.9943007168471735 2.245561  
2387.7839  13.77447   -9999      91.29314   0.1830269  0.1199493  -0.06800696 -0.1094806 57         -9999      91.29314   0.9363974025861641 2.227523  
2387.9839  13.2693    -9999      90.02921   0.1737055  0.09831706 -0.09890997 -0.1522813 57         -9999      90.02921   0.9163547691775975 2.154474  
2388.1839  13.12138   -9999      84.00609   0.1766802  0.1110416  -0.07765717 -0.101845  57         -9999      84.00609   0.9104994649362423 2.152714  
2388.3839  12.8983    -9999      75.62773   0.166293   0.0877724  -0.1099842 -0.1456117 57         -9999      75.62773   0.9715439253546017 2.243812  
2388.5839  12.71262   -9999      74.29844   0.1709408  0.1011032  -0.09292517 -0.1179799 57         -9999      74.29844   1.123083415416417 2.320935  
2388.7839  12.69297   -9999      81.45925   0.1596585  0.07678617 -0.1266656 -0.1685204 57         -9999      81.45925   1.242042599260331 2.370622  
2388.9839  12.69165   -9999      88.94969   0.1628841  0.08356564 -0.122916  -0.1765278 57         -9999      88.94969   1.215454042015082 2.348821  
2389.1839  12.69366   -9999      92.0059    0.1621354  0.08309099 -0.1273036 -0.1990017 57         -9999      92.0059    1.102615464594406 2.286153  
2389.3839  12.70763   -9999      91.46744   0.1746708  0.1160656  -0.08297782 -0.1368982 57         -9999      91.46744   1.011127853581467 2.234412  
2389.5839  12.74994   -9999      90.42861   0.1996122  0.1886625  0.03037295 0.08038802 57         -9999      90.42861   0.9597766984582146 2.224658  
2389.7839  12.78691   -9999      89.03285   0.1934014  0.1816613  0.0297961  0.1136149  57         -9999      89.03285   0.9421157201971325 2.264735  
2389.9839  12.81278   -9999      86.89565   0.1985827  0.2079529  0.08310103 0.2599614  57         -9999      86.89565   0.9602768530908435 2.296788  
2390.1839  12.8597    -9999      84.64036   0.1696549  0.1371889  -0.01632007 0.1133703  57         -9999      84.64036   0.9986640083836785 2.319118  
2390.3839  12.83988   -9999      79.63205   0.1795455  0.1648742  0.02306849 0.1852168  57         -9999      79.63205   1.038933680058112 2.344047  
2390.5839  12.75719   -9999      75.62993   0.1747929  0.1588145  0.01983443 0.2039292  57         -9999      75.62993   1.07628226555283 2.359523  
2390.7839  12.72258   -9999      77.68102   0.172031   0.154379   0.01306922 0.1985025  57         -9999      77.68102   1.116104477074384 2.378873  
2390.9839  12.73685   -9999      83.19595   0.1687513  0.1487784  0.004616898 0.185544   57         -9999      83.19595   1.118312411961669 2.356028  
2391.1839  12.7736    -9999      87.64586   0.1765322  0.1707178  0.03474005 0.233826   57         -9999      87.64586   1.058581816649352 2.31344   
2391.3839  12.75369   -9999      90.92435   0.1926157  0.2179017  0.1073977  0.3724769  57         -9999      90.92435   0.9832765945541098 2.287698  
2391.5839  12.70226   -9999      92.57468   0.2097931  0.2737233  0.2020073  0.5851026  57         -9999      92.57468   0.9355796287304303 2.259494  
2391.7839  12.72063   -9999      94.1002    0.1879656  0.2301928  0.153266   0.5598624  57         -9999      94.1002    0.9132353583016881 2.253779  
2391.9839  12.77628   -9999      95.01474   0.1807021  0.2161647  0.1370197  0.5620654  57         -9999      95.01474   0.8987486830834438 2.237878  
2392.1839  12.80743   -9999      93.8557    0.1730299  0.2009068  0.1174599  0.5507047  57         -9999      93.8557    0.8836617040065332 2.229406  
2392.3839  12.78872   -9999      89.89708   0.1671646  0.1898873  0.1026165  0.5428928  57         -9999      89.89708   0.8762954999868869 2.273821  
2392.5839  12.73914   -9999      81.76132   0.1604136  0.1746525  0.07881813 0.5107653  57         -9999      81.76132   0.9054742689976132 2.335816  
2392.7839  12.6983    -9999      76.42403   0.1547036  0.1612827  0.05569684 0.4699505  57         -9999      76.42403   0.9815693408969709 2.37652   
2392.9839  12.68344   -9999      78.41559   0.1501788  0.1512541  0.03737638 0.43549    57         -9999      78.41559   1.064834402413434 2.308182  
2393.1839  12.70002   -9999      86.73366   0.1436467  0.1348565  0.007559292 0.3709433  57         -9999      86.73366   1.083300565154252 2.244316  
