~Version
 VERS              .         2.0                           : CWLS LOG ASCII STANDARD - VERSION 2.0
 WRAP              .         NO                            : ONE LINE PER DEPTH STEP
 DLM               .         SPACE                         : DELIMITING CHARACTER(SPACE TAB OR COMMA)
~Well Information
#_______________________________________________________________________________
#
#PARAMETER_NAME    .UNIT     VALUE                         : DESCRIPTION
#_______________________________________________________________________________
STRT               .m        860.9839                      : First reference value
STOP               .m        4658.9839                     : Last reference value
STEP               .m        0.2                           : Step increment
NULL               .         -9999                         : Missing value
COMP               .         PETROLEO BRASILEIRO S/A       : Company
WELL               .         6-ESS-168_resample            : Well name
FLD                .         CAMARUPIM NORTE               : Field
LOC                .                                       : Location
CNTY               .                                       : County
STAT               .         ESPIRITO SANTO                : State
CTRY               .                                       : Country
SRVC               .                                       : Service Company
DATE               .                                       : Date
API                .         342710135600                  : API number
EDF                .M        25.00                         : Elevation Derrick Floor
GDAT               .         SIRGAS2000                    : Geodetic Datum
HZCS               .         UTM                           : Horizontal Coordinate System
LMF                .         MR                            : Log Measure From
LATI               .         -19_54_33.884                 : Latitude
LONG               .         -39_37_03.497                 : Longitude
MC                 .         39 W                          : Meridiano Central
ORIG               .         SIGEO EXPORTACAO PERFIL       : Origem dos dados
ORIGINALWELLNAME   .         6ESS 0168  ES                 : 
WDMS               .M        789.00                        : Water Depth to Mean Sea Level
X                  .         435367.50                     : Surface X
Y                  .         7798516.90                    : Surface Y
~Parameter Information Block
#_______________________________________________________________________________
#
#PARAMETER_NAME    .UNIT     VALUE                         : DESCRIPTION
#_______________________________________________________________________________
SET                .         ESS168_resample               : 
TLFamily_CALI      .         Caliper                       : 
TLFamily_DEPT      .         Measured Depth                : 
TLFamily_DT_merge  .         Compressional Slowness        : 
TLFamily_GR        .         Gamma Ray                     : 
TLFamily_INPEFA_1  .                                       : 
TLFamily_INPEFA_2  .                                       : 
TLFamily_INPEFA_3  .                                       : 
TLFamily_INPEFA_4  .                                       : 
TLFamily_LITO      .                                       : 
TLFamily_LLD       .         Deep Resistivity              : 
TLFamily_OG        .                                       : 
TLFamily_RESD      .         Deep Resistivity              : 
TLFamily_ZDEN      .         Bulk Density                  : 
~Curve Information
#_______________________________________________________________________________
#
#LOGNAME           .UNIT     LOG_ID                        : DESCRIPTION
#_______________________________________________________________________________
DEPT               .m                                      :  
CALI               .in                                     : CALIPER 
DT_merge           .us/ft                                  : DELTA-T COMPRESSIONAL 
GR                 .gAPI                                   : GAMMA RAY 
INPEFA_1           .                                       :  
INPEFA_2           .                                       :  
INPEFA_3           .                                       :  
INPEFA_4           .                                       :  
LITO               .                                       :  
LLD                .ohm.m                                  : LATEROLOG DEEP RESISTIVITY 
OG                 .                                       :  
RESD               .ohm.m                                  : DEEP RESISTIVITY 
ZDEN               .g/cm3                                  : FORMATION BULK DENSITY 
~Ascii
860.9839   -9999      -9999      20.8583    0.01578109 0.04853452 0.09226286 0.2642288  -9         -9999      20.8583    -9999      -9999     
861.1839   -9999      -9999      21.63505   0.01228043 0.04212992 0.08576124 0.2596347  -9         -9999      21.63505   -9999      -9999     
861.3838999999999 -9999      -9999      20.8395    0.009774878 0.03521685 0.07432825 0.2341055  -9         -9999      20.8395    -9999      -9999     
861.5839   -9999      -9999      20.42489   0.009991354 0.03638798 0.07570368 0.2312501  -9         -9999      20.42489   -9999      -9999     
861.7838999999999 -9999      -9999      20.76275   0.01183774 0.04178085 0.08311765 0.2390032  -9         -9999      20.76275   -9999      -9999     
861.9839   -9999      -9999      21.63862   0.0145872  0.05106562 0.09902607 0.2693864  -9         -9999      21.63862   -9999      -9999     
862.1839   -9999      -9999      23.19995   0.008471685 0.03667026 0.07897685 0.2350475  -9         -9999      23.19995   -9999      -9999     
862.3838999999999 -9999      -9999      25.48878   0.006159689 0.02952706 0.06573529 0.1983142  -9         -9999      25.48878   -9999      -9999     
862.5839   -9999      -9999      27.65909   0.01101845 0.04275071 0.08436549 0.222139   -9         -9999      27.65909   -9999      -9999     
862.7838999999999 -9999      -9999      28.24775   0.006574165 0.03266221 0.07042985 0.1931782  -9         -9999      28.24775   -9999      -9999     
862.9839   -9999      -9999      26.91997   0.01204896 0.04677063 0.08966715 0.2166841  -9         -9999      26.91997   -9999      -9999     
863.1839   -9999      -9999      25.89666   0.009790282 0.04371646 0.08793533 0.2148103  -9         -9999      25.89666   -9999      -9999     
863.3838999999999 -9999      -9999      25.89531   0.006231402 0.03410318 0.07213483 0.1769117  -9         -9999      25.89531   -9999      -9999     
863.5839   -9999      -9999      26.56167   0.01127883 0.04774046 0.09154503 0.2014508  -9         -9999      26.56167   -9999      -9999     
863.7838999999999 -9999      -9999      27.99629   0.008045348 0.04168849 0.08452056 0.1881469  -9         -9999      27.99629   -9999      -9999     
863.9839   -9999      -9999      28.06086   0.009070257 0.04414294 0.08695535 0.1829063  -9         -9999      28.06086   -9999      -9999     
864.1839   -9999      -9999      27.34014   0.009209517 0.046404   0.09141592 0.1875069  -9         -9999      27.34014   -9999      -9999     
864.3838999999999 -9999      -9999      27.61149   0.006041147 0.03860008 0.07956956 0.1596791  -9         -9999      27.61149   -9999      -9999     
864.5839   -9999      -9999      28.10507   0.009147539 0.04725211 0.09166164 0.1720238  -9         -9999      28.10507   -9999      -9999     
864.7838999999999 -9999      -9999      27.81906   0.005352477 0.0389898  0.08032391 0.1481139  -9         -9999      27.81906   -9999      -9999     
864.9839   -9999      -9999      26.68212   0.007356672 0.04383254 0.08574358 0.1468971  -9         -9999      26.68212   -9999      -9999     
865.1839   -9999      -9999      26.83691   0.004044984 0.03670018 0.07546714 0.1222467  57         -9999      26.83691   -9999      -9999     
865.3838999999999 -9999      -9999      28.32566   0.004954284 0.03823926 0.0752656  0.1087456  57         -9999      28.32566   -9999      -9999     
865.5839   -9999      -9999      28.47614   0.005171856 0.03988705 0.07718264 0.1033273  57         -9999      28.47614   -9999      -9999     
865.7838999999999 -9999      -9999      27.92814   0.005021009 0.03964321 0.07560612 0.09170769 57         -9999      27.92814   -9999      -9999     
865.9839   -9999      -9999      27.20304   0.007817639 0.04778072 0.08716609 0.1060991  57         -9999      27.20304   -9999      -9999     
866.1839   -9999      -9999      26.57441   0.003434309 0.03767106 0.07260164 0.07825853 57         -9999      26.57441   -9999      -9999     
866.3838999999999 -9999      -9999      27.24526   -0.002202688 0.02126769 0.04445199 0.01320206 57         -9999      27.24526   -9999      -9999     
866.5839   -9999      -9999      27.45084   0.002712432 0.03338243 0.05942492 0.02508985 57         -9999      27.45084   -9999      -9999     
866.7838999999999 -9999      -9999      27.20421   0.003354821 0.0356728  0.06205568 0.02294606 57         -9999      27.20421   -9999      -9999     
866.9839   -9999      -9999      27.2083    -0.00066335 0.02537184 0.04517116 -0.01684999 57         -9999      27.2083    -9999      -9999     
867.1839   -9999      -9999      27.15419   0.005312972 0.04004275 0.06417751 0.004582878 57         -9999      27.15419   -9999      -9999     
867.3838999999999 -9999      -9999      27.59024   0.002752451 0.03535305 0.05806558 -0.008111471 57         -9999      27.59024   -9999      -9999     
867.5839   -9999      -9999      27.66424   0.007372224 0.04673886 0.07316808 0.01230874 57         -9999      27.66424   -9999      -9999     
867.7838999999999 -9999      -9999      27.69901   0.009011352 0.05387899 0.08630347 0.04194017 57         -9999      27.69901   -9999      -9999     
867.9839   -9999      -9999      27.77933   0.007193304 0.05036211 0.08243696 0.04175633 57         -9999      27.77933   -9999      -9999     
868.1839   -9999      -9999      28.03283   0.000635111 0.03398094 0.05806597 -0.000497422 57         -9999      28.03283   -9999      -9999     
868.3838999999999 -9999      -9999      28.21404   -0.001146768 0.02750788 0.04505182 -0.03296284 57         -9999      28.21404   -9999      -9999     
868.5839   -9999      -9999      28.00048   0.005950803 0.04564003 0.07001489 0.005005124 57         -9999      28.00048   -9999      -9999     
868.7838999999999 -9999      -9999      27.7942    0.005848154 0.04828925 0.07677971 0.02621891 57         -9999      27.7942    -9999      -9999     
868.9839   -9999      -9999      27.27004   0.005333899 0.04672887 0.07383569 0.02327469 57         -9999      27.27004   -9999      -9999     
869.1839   -9999      -9999      27.46198   0.005847707 0.05026597 0.08104802 0.04491331 57         -9999      27.46198   -9999      -9999     
869.3838999999999 -9999      -9999      29.16487   0.002289073 0.04083791 0.06678582 0.02446535 57         -9999      29.16487   -9999      -9999     
869.5839   -9999      -9999      29.80153   0.000521262 0.03634951 0.05914227 0.0109603  57         -9999      29.80153   -9999      -9999     
869.7838999999999 -9999      -9999      28.62498   0.007275983 0.05404663 0.0851016  0.06103278 57         -9999      28.62498   -9999      -9999     
869.9839   -9999      -9999      28.23295   0.005228035 0.05185932 0.08538258 0.07759511 57         -9999      28.23295   -9999      -9999     
870.1839   -9999      -9999      27.72239   0.0009844271 0.04021259 0.06741142 0.05137023 57         -9999      27.72239   -9999      -9999     
870.3838999999999 -9999      -9999      27.10801   0.007572778 0.05819633 0.0944891  0.1075011  57         -9999      27.10801   -9999      -9999     
870.5839   -9999      -9999      26.50307   0.005474243 0.05554234 0.09444256 0.1283389  57         -9999      26.50307   -9999      -9999     
870.7838999999999 -9999      -9999      25.62997   -0.000674857 0.03954529 0.07073999 0.09651124 57         -9999      25.62997   -9999      -9999     
870.9839   -9999      -9999      25.64433   0.0000096  0.04054374 0.07073077 0.1006147  57         -9999      25.64433   -9999      -9999     
871.1839   -9999      -9999      27.56254   -0.000742777 0.03944908 0.06962898 0.1083546  57         -9999      27.56254   -9999      -9999     
871.3838999999999 -9999      -9999      29.77295   0.000597623 0.04275815 0.0740289  0.124111   57         -9999      29.77295   -9999      -9999     
871.5839   -9999      -9999      29.20166   -0.004379366 0.03086111 0.05708766 0.1041809  57         -9999      29.20166   -9999      -9999     
871.7838999999999 -9999      -9999      27.30646   -0.001597566 0.03675796 0.06372236 0.1192104  57         -9999      27.30646   -9999      -9999     
