~Version
 VERS              .         2.0                           : CWLS LOG ASCII STANDARD - VERSION 2.0
 WRAP              .         NO                            : ONE LINE PER DEPTH STEP
 DLM               .         SPACE                         : DELIMITING CHARACTER(SPACE TAB OR COMMA)
~Well Information
#_______________________________________________________________________________
#
#PARAMETER_NAME    .UNIT     VALUE                         : DESCRIPTION
#_______________________________________________________________________________
STRT               .m        860.9839                      : First reference value
STOP               .m        4658.9839                     : Last reference value
STEP               .m        0.2                           : Step increment
NULL               .         -9999                         : Missing value
COMP               .         PETROLEO BRASILEIRO S/A       : Company
WELL               .         6-ESS-168_resample            : Well name
FLD                .         CAMARUPIM NORTE               : Field
LOC                .                                       : Location
CNTY               .                                       : County
STAT               .         ESPIRITO SANTO                : State
CTRY               .                                       : Country
SRVC               .                                       : Service Company
DATE               .                                       : Date
API                .         342710135600                  : API number
EDF                .M        25.00                         : Elevation Derrick Floor
GDAT               .         SIRGAS2000                    : Geodetic Datum
HZCS               .         UTM                           : Horizontal Coordinate System
LMF                .         MR                            : Log Measure From
LATI               .         -19_54_33.884                 : Latitude
LONG               .         -39_37_03.497                 : Longitude
MC                 .         39 W                          : Meridiano Central
ORIG               .         SIGEO EXPORTACAO PERFIL       : Origem dos dados
ORIGINALWELLNAME   .         6ESS 0168  ES                 : 
WDMS               .M        789.00                        : Water Depth to Mean Sea Level
X                  .         435367.50                     : Surface X
Y                  .         7798516.90                    : Surface Y
~Parameter Information Block
#_______________________________________________________________________________
#
#PARAMETER_NAME    .UNIT     VALUE                         : DESCRIPTION
#_______________________________________________________________________________
SET                .         ESS168_resample               : 
TLFamily_CALI      .         Caliper                       : 
TLFamily_DEPT      .         Measured Depth                : 
TLFamily_DT_merge  .         Compressional Slowness        : 
TLFamily_GR        .         Gamma Ray                     : 
TLFamily_INPEFA_1  .                                       : 
TLFamily_INPEFA_2  .                                       : 
TLFamily_INPEFA_3  .                                       : 
TLFamily_INPEFA_4  .                                       : 
TLFamily_LITO      .                                       : 
TLFamily_LLD       .         Deep Resistivity              : 
TLFamily_OG        .                                       : 
TLFamily_RESD      .         Deep Resistivity              : 
TLFamily_ZDEN      .         Bulk Density                  : 
~Curve Information
#_______________________________________________________________________________
#
#LOGNAME           .UNIT     LOG_ID                        : DESCRIPTION
#_______________________________________________________________________________
DEPT               .m                                      :  
CALI               .in                                     : CALIPER 
DT_merge           .us/ft                                  : DELTA-T COMPRESSIONAL 
GR                 .gAPI                                   : GAMMA RAY 
INPEFA_1           .                                       :  
INPEFA_2           .                                       :  
INPEFA_3           .                                       :  
INPEFA_4           .                                       :  
LITO               .                                       :  
LLD                .ohm.m                                  : LATEROLOG DEEP RESISTIVITY 
OG                 .                                       :  
RESD               .ohm.m                                  : DEEP RESISTIVITY 
ZDEN               .g/cm3                                  : FORMATION BULK DENSITY 
~Ascii
# ...
1114.1839  -9999      -9999      29.50226   0.03432406 -0.006129133 0.02868882 0.2219716  57         -9999      29.50226   -9999      -9999     
1114.3839  -9999      -9999      29.81271   0.02927773 -0.01866375 0.0119617  0.1990904  57         -9999      29.81271   -9999      -9999     
1114.5839  -9999      -9999      28.55147   0.02977555 -0.02016595 0.006535894 0.1802969  57         -9999      28.55147   -9999      -9999     
1114.7839  -9999      -9999      27.93021   0.03460219 -0.007105563 0.02681963 0.2176822  57         -9999      27.93021   -9999      -9999     
1114.9839  -9999      -9999      28.7586    0.03257548 -0.01239294 0.01997617 0.2097496  57         -9999      28.7586    -9999      -9999     
1115.1839  -9999      -9999      29.68955   0.03227288 -0.01421913 0.01648089 0.201399   57         -9999      29.68955   -9999      -9999     
1115.3839  -9999      -9999      29.76081   0.03145363 -0.01703413 0.01200524 0.1921126  57         -9999      29.76081   -9999      -9999     
1115.5839  -9999      -9999      29.30905   0.03726912 -0.002504656 0.03343996 0.2305366  57         -9999      29.30905   -9999      -9999     
1115.7839  -9999      -9999      29.01647   0.03491628 -0.007248141 0.02913677 0.2320269  57         -9999      29.01647   -9999      -9999     
1115.9839  -9999      -9999      29.58108   0.03187122 -0.01668962 0.01423498 0.205028   57         -9999      29.58108   -9999      -9999     
1116.1839  -9999      -9999      28.74306   0.03145393 -0.01894634 0.009705625 0.1929807  57         -9999      28.74306   -9999      -9999     
1116.3839  -9999      -9999      27.6189    0.03295437 -0.0160761 0.01312392 0.1960971  57         -9999      27.6189    -9999      -9999     
1116.5839  -9999      -9999      27.69823   0.03431655 -0.01280686 0.01799021 0.2044665  57         -9999      27.69823   -9999      -9999     
1116.7839  -9999      -9999      29.73151   0.02856718 -0.02875572 -0.006481327 0.1579662  57         -9999      29.73151   -9999      -9999     
1116.9839  -9999      -9999      31.76695   0.03590774 -0.01153143 0.01692037 0.1928347  57         -9999      31.76695   -9999      -9999     
1117.1839  -9999      -9999      30.71214   0.02720588 -0.03338303 -0.0142759 0.1390583  57         -9999      30.71214   -9999      -9999     
1117.3839  -9999      -9999      29.3487    0.02754222 -0.03739563 -0.02643591 0.09762348 57         -9999      29.3487    -9999      -9999     
1117.5839  -9999      -9999      29.35656   0.03212706 -0.02548171 -0.009610964 0.1193117  57         -9999      29.35656   -9999      -9999     
1117.7839  -9999      -9999      28.87295   0.03172055 -0.02787473 -0.01447862 0.1047053  57         -9999      28.87295   -9999      -9999     
1117.9839  -9999      -9999      28.37816   0.03235928 -0.02726852 -0.01526548 0.09449645 57         -9999      28.37816   -9999      -9999     
1118.1839  -9999      -9999      28.65862   0.03582972 -0.01895927 -0.003527218 0.1111537  57         -9999      28.65862   -9999      -9999     
1118.3839  -9999      -9999      29.21105   0.04054404 -0.006179612 0.01658695 0.1494687  57         -9999      29.21105   -9999      -9999     
1118.5839  -9999      -9999      28.66072   0.03707504 -0.01396152 0.007581554 0.1417378  57         -9999      28.66072   -9999      -9999     
1118.7839  -9999      -9999      28.02308   0.03338413 -0.02532876 -0.01068356 0.1067087  57         -9999      28.02308   -9999      -9999     
1118.9839  -9999      -9999      28.79778   0.03651084 -0.01837689 -0.001579505 0.1194375  57         -9999      28.79778   -9999      -9999     
1119.1839  -9999      -9999      29.93018   0.0363516  -0.01854724 -0.000776283 0.125049   57         -9999      29.93018   -9999      -9999     
1119.3839  -9999      -9999      30.10895   0.02835686 -0.04103228 -0.03584458 0.05789436 57         -9999      30.10895   -9999      -9999     
1119.5839  -9999      -9999      29.53937   0.03141772 -0.03623029 -0.03295239 0.04878682 57         -9999      29.53937   -9999      -9999     
1119.7839  -9999      -9999      29.95155   0.0361825  -0.02393981 -0.01484202 0.07865377 57         -9999      29.95155   -9999      -9999     
1119.9839  -9999      -9999      29.78522   0.03274456 -0.03312749 -0.02831486 0.05468081 57         -9999      29.78522   -9999      -9999     
1120.1839  -9999      -9999      30.09021   0.0260991  -0.0532239 -0.06182456 -0.01850117 57         -9999      30.09021   -9999      -9999     
1120.3839  -9999      -9999      31.28789   0.03400178 -0.03551793 -0.03983041 0.003814782 57         -9999      31.28789   -9999      -9999     
1120.5839  -9999      -9999      30.83206   0.03534237 -0.03124655 -0.03261534 0.01593901 57         -9999      30.83206   -9999      -9999     
1120.7839  -9999      -9999      29.45005   0.03649627 -0.02923599 -0.03031187 0.01761919 57         -9999      29.45005   -9999      -9999     
1120.9839  -9999      -9999      28.84266   0.02817628 -0.05160176 -0.06441806 -0.04871041 57         -9999      28.84266   -9999      -9999     
1121.1839  -9999      -9999      28.28085   0.0345591  -0.03891381 -0.0506532 -0.04180433 57         -9999      28.28085   -9999      -9999     
1121.3839  -9999      -9999      26.94756   0.04458928 -0.01065291 -0.00596663 0.04305261 57         -9999      26.94756   -9999      -9999     
1121.5839  -9999      -9999      26.7063    0.03195753 -0.04298779 -0.05201059 -0.03229746 57         -9999      26.7063    -9999      -9999     
1121.7839  -9999      -9999      28.49224   0.03958716 -0.0262414 -0.03090529 -0.005731162 57         -9999      28.49224   -9999      -9999     
1121.9839  -9999      -9999      29.74297   0.03426717 -0.03854735 -0.046827  -0.0286178 57         -9999      29.74297   -9999      -9999     
1122.1839  -9999      -9999      29.61683   0.03018602 -0.05323648 -0.07344747 -0.09047482 57         -9999      29.61683   -9999      -9999     
1122.3839  -9999      -9999      30.62774   0.03907984 -0.03154375 -0.0436937 -0.04882161 57         -9999      30.62774   -9999      -9999     
1122.5839  -9999      -9999      31.67561   0.03705335 -0.03546554 -0.04731667 -0.05024501 57         -9999      31.67561   -9999      -9999     
1122.7839  -9999      -9999      30.51848   0.03602775 -0.04075287 -0.05807953 -0.07800835 57         -9999      30.51848   -9999      -9999     
1122.9839  -9999      -9999      29.43934   0.036717   -0.03903278 -0.05572519 -0.07683574 57         -9999      29.43934   -9999      -9999     
1123.1839  -9999      -9999      30.73079   0.03254734 -0.05220339 -0.07782217 -0.1248241 57         -9999      30.73079   -9999      -9999     
1123.3839  -9999      -9999      31.09495   0.03862599 -0.03810237 -0.05952618 -0.1031738 57         -9999      31.09495   -9999      -9999     
1123.5839  -9999      -9999      29.47665   0.03397132 -0.05030399 -0.07750833 -0.1377574 57         -9999      29.47665   -9999      -9999     
1123.7839  -9999      -9999      28.2214    0.04449924 -0.02495948 -0.0422915 -0.08294906 57         -9999      28.2214    -9999      -9999     
1123.9839  -9999      -9999      29.38517   0.03964115 -0.03508115 -0.0535346 -0.09295882 57         -9999      29.38517   -9999      -9999     
1124.1839  -9999      -9999      30.24639   0.03455721 -0.0520203 -0.08254523 -0.1549683 57         -9999      30.24639   -9999      -9999     
1124.3839  -9999      -9999      27.94636   0.04647328 -0.02155587 -0.03823085 -0.08113257 57         -9999      27.94636   -9999      -9999     
1124.5839  -9999      -9999      27.54133   0.04825718 -0.01408155 -0.022005  -0.03460207 57         -9999      27.54133   -9999      -9999     
1124.7839  -9999      -9999      28.62564   0.03934546 -0.03743456 -0.05548874 -0.08674872 57         -9999      28.62564   -9999      -9999     
1124.9839  -9999      -9999      29.26593   0.03682274 -0.047291  -0.07370072 -0.1286655 57         -9999      29.26593   -9999      -9999     
1125.1839  -9999      -9999      30.77133   0.04799232 -0.01847511 -0.03097888 -0.0524256 57         -9999      30.77133   -9999      -9999     
